[
  {
    "id_str": "F190070727",
    "created_at": "7/5/2019 4:59:34 PM",
    "lat": 47.675958,
    "long": -122.261437,
    "timestamp": 1562371174000,
    "description": "Rescue Lock In/Out",
    "entries": 1,
    "neighborhood": "Laurelhurst/Sand Point",
    "neighborhoodGroup": "Northeast",
    "unitCount": 1,
    "severity": 0,
    "units": "E38",
    "address": "6524 62nd Av Ne"
  },
  {
    "id_str": "F190070722",
    "created_at": "7/5/2019 4:42:11 PM",
    "lat": 47.546057,
    "long": -122.285631,
    "timestamp": 1562370131000,
    "description": "Brush Fire",
    "entries": 1,
    "neighborhood": "Beacon Hill",
    "neighborhoodGroup": "Greater Duwamish",
    "unitCount": 1,
    "severity": 0,
    "units": "E13",
    "address": "M L King Jr Way S / S Graham St"
  },
  {
    "id_str": "F190070719",
    "created_at": "7/5/2019 4:38:01 PM",
    "lat": 47.6323,
    "long": -122.343399,
    "timestamp": 1562369881000,
    "description": "Aid Response",
    "entries": 1,
    "neighborhood": "Queen Anne",
    "neighborhoodGroup": "Magnolia/Queen Anne",
    "unitCount": 1,
    "severity": 0,
    "units": "A4",
    "address": "Aurora Av N / Galer St"
  },
  {
    "id_str": "F190070718",
    "created_at": "7/5/2019 4:35:12 PM",
    "lat": 47.646558,
    "long": -122.37635,
    "timestamp": 1562369712000,
    "description": "Alarm Bell",
    "entries": 1,
    "neighborhood": "Interbay",
    "neighborhoodGroup": "Magnolia/Queen Anne",
    "unitCount": 2,
    "severity": 0,
    "units": "E20 L8",
    "address": "3000 15th Av W"
  },
  {
    "id_str": "F190070717",
    "created_at": "7/5/2019 4:32:05 PM",
    "lat": 47.650993,
    "long": -122.335121,
    "timestamp": 1562369525000,
    "description": "Aid Response Yellow",
    "entries": 1,
    "neighborhood": "Fremont",
    "neighborhoodGroup": "Lake Union",
    "unitCount": 1,
    "severity": 0,
    "units": "E17",
    "address": "3634 Burke Av N"
  },
  {
    "id_str": "F190070716",
    "created_at": "7/5/2019 4:30:26 PM",
    "lat": 47.719343,
    "long": -122.295195,
    "timestamp": 1562369426000,
    "description": "Aid Response",
    "entries": 1,
    "neighborhood": "Cedar Park/Meadowbrook",
    "neighborhoodGroup": "North",
    "unitCount": 1,
    "severity": 0,
    "units": "L5",
    "address": "12508 Lake City Way Ne"
  },
  {
    "id_str": "F190070714",
    "created_at": "7/5/2019 4:20:30 PM",
    "lat": 47.608031,
    "long": -122.310236,
    "timestamp": 1562368830000,
    "description": "Aid Response",
    "entries": 1,
    "neighborhood": "Central Area/Squire Park",
    "neighborhoodGroup": "Central",
    "unitCount": 1,
    "severity": 0,
    "units": "A25",
    "address": "1700 E Cherry St"
  },
  {
    "id_str": "F190070713",
    "created_at": "7/5/2019 4:20:10 PM",
    "lat": 47.600194,
    "long": -122.330541,
    "timestamp": 1562368810000,
    "description": "Medic Response",
    "entries": 1,
    "neighborhood": "Pioneer Square/International District",
    "neighborhoodGroup": "Downtown",
    "unitCount": 2,
    "severity": 0,
    "units": "E10 M17",
    "address": "318 2nd Av Et S"
  },
  {
    "id_str": "F190070711",
    "created_at": "7/5/2019 4:18:13 PM",
    "lat": 47.709397,
    "long": -122.309982,
    "timestamp": 1562368693000,
    "description": "Aid Response",
    "entries": 1,
    "neighborhood": "Olympic Hills/Victory Heights",
    "neighborhoodGroup": "North",
    "unitCount": 1,
    "severity": 0,
    "units": "E39",
    "address": "11039 17th Av Ne"
  },
  {
    "id_str": "F190070709",
    "created_at": "7/5/2019 4:17:43 PM",
    "lat": 47.619744,
    "long": -122.348859,
    "timestamp": 1562368663000,
    "description": "Aid Response",
    "entries": 2,
    "neighborhood": "Cascade/Eastlake",
    "neighborhoodGroup": "Lake Union",
    "unitCount": 2,
    "severity": 0,
    "units": "A2 A4",
    "address": "400 Broad St"
  },
  {
    "id_str": "F190070708",
    "created_at": "7/5/2019 4:15:11 PM",
    "lat": 47.59745,
    "long": -122.317227,
    "timestamp": 1562368511000,
    "description": "Medic Response",
    "entries": 1,
    "neighborhood": "Pioneer Square/International District",
    "neighborhoodGroup": "Downtown",
    "unitCount": 2,
    "severity": 0,
    "units": "A10 M10",
    "address": "606 12th Av S"
  },
  {
    "id_str": "F190070706",
    "created_at": "7/5/2019 4:14:08 PM",
    "lat": 47.597517,
    "long": -122.327675,
    "timestamp": 1562368448000,
    "description": "Medic Response",
    "entries": 2,
    "neighborhood": "Pioneer Square/International District",
    "neighborhoodGroup": "Downtown",
    "unitCount": 2,
    "severity": 0,
    "units": "A5 M1",
    "address": "600 5th Av S"
  },
  {
    "id_str": "F190070702",
    "created_at": "7/5/2019 3:59:59 PM",
    "lat": 47.656834,
    "long": -122.313246,
    "timestamp": 1562367599000,
    "description": "Aid Response",
    "entries": 1,
    "neighborhood": "University District",
    "neighborhoodGroup": "Northeast",
    "unitCount": 1,
    "severity": 0,
    "units": "E31",
    "address": "University Way Ne / Ne 41st St"
  },
  {
    "id_str": "F190070701",
    "created_at": "7/5/2019 3:57:59 PM",
    "lat": 47.549372,
    "long": -122.304297,
    "timestamp": 1562367479000,
    "description": "Automatic Fire Alarm False",
    "entries": 1,
    "neighborhood": "Beacon Hill",
    "neighborhoodGroup": "Greater Duwamish",
    "unitCount": 1,
    "severity": 0,
    "units": "E13",
    "address": "5937 23rd Av S"
  },
  {
    "id_str": "F190070700",
    "created_at": "7/5/2019 3:54:26 PM",
    "lat": 47.521679,
    "long": -122.264284,
    "timestamp": 1562367266000,
    "description": "Aid Response",
    "entries": 1,
    "neighborhood": "Rainier Beach",
    "neighborhoodGroup": "Southeast",
    "unitCount": 1,
    "severity": 0,
    "units": "E33",
    "address": "9061 Seward Park Av S"
  },
  {
    "id_str": "F190070697",
    "created_at": "7/5/2019 3:50:47 PM",
    "lat": 47.612136,
    "long": -122.335373,
    "timestamp": 1562367047000,
    "description": "1RED 1 Unit",
    "entries": 1,
    "neighborhood": "First Hill",
    "neighborhoodGroup": "East",
    "unitCount": 1,
    "severity": 0,
    "units": "E2",
    "address": "600 Pine St"
  },
  {
    "id_str": "F190070695",
    "created_at": "7/5/2019 3:44:42 PM",
    "lat": 47.538357,
    "long": -122.286778,
    "timestamp": 1562366682000,
    "description": "Medic Response",
    "entries": 1,
    "neighborhood": "South Beacon Hill/NewHolly",
    "neighborhoodGroup": "Greater Duwamish",
    "unitCount": 2,
    "severity": 0,
    "units": "L12 M28",
    "address": "7173 Holly Park Dr S"
  },
  {
    "id_str": "F190070694",
    "created_at": "7/5/2019 3:43:05 PM",
    "lat": 47.697809,
    "long": -122.344608,
    "timestamp": 1562366585000,
    "description": "Aid Response",
    "entries": 1,
    "neighborhood": "Licton Springs",
    "neighborhoodGroup": "Northwest",
    "unitCount": 1,
    "severity": 0,
    "units": "E21",
    "address": "9501 AURORA AV N"
  },
  {
    "id_str": "F190070693",
    "created_at": "7/5/2019 3:34:36 PM",
    "lat": 47.644945,
    "long": -122.291116,
    "timestamp": 1562366076000,
    "description": "Marine Service Response",
    "entries": 2,
    "neighborhood": "Montlake/Portage Bay",
    "neighborhoodGroup": "Northeast",
    "unitCount": 4,
    "severity": 0,
    "units": "FB1 FIREBOAT FRB5 PTRL4",
    "address": "EB SR520 AT MID SPAN"
  },
  {
    "id_str": "F190070691",
    "created_at": "7/5/2019 3:30:06 PM",
    "lat": 47.587752,
    "long": -122.321392,
    "timestamp": 1562365806000,
    "description": "Aid Response",
    "entries": 1,
    "neighborhood": "Duwamish/SODO",
    "neighborhoodGroup": "Greater Duwamish",
    "unitCount": 1,
    "severity": 0,
    "units": "E5",
    "address": "1751 Airport Way S"
  },
  {
    "id_str": "F190070690",
    "created_at": "7/5/2019 3:27:20 PM",
    "lat": 47.605109,
    "long": -122.325815,
    "timestamp": 1562365640000,
    "description": "Aid Response Yellow",
    "entries": 1,
    "neighborhood": "First Hill",
    "neighborhoodGroup": "East",
    "unitCount": 1,
    "severity": 0,
    "units": "A25",
    "address": "804 James St"
  },
  {
    "id_str": "F190070689",
    "created_at": "7/5/2019 3:25:30 PM",
    "lat": 47.61545,
    "long": -122.33073,
    "timestamp": 1562365530000,
    "description": "MVI - Motor Vehicle Incident",
    "entries": 1,
    "neighborhood": "First Hill",
    "neighborhoodGroup": "East",
    "unitCount": 1,
    "severity": 0,
    "units": "E25",
    "address": "Olive Way / Boren Av"
  },
  {
    "id_str": "F190070688",
    "created_at": "7/5/2019 3:25:16 PM",
    "lat": 47.602172,
    "long": -122.330863,
    "timestamp": 1562365516000,
    "description": "Aid Response",
    "entries": 1,
    "neighborhood": "Downtown Commercial Core",
    "neighborhoodGroup": "Downtown",
    "unitCount": 1,
    "severity": 0,
    "units": "L1",
    "address": "517 3rd Av"
  },
  {
    "id_str": "F190070687",
    "created_at": "7/5/2019 3:18:27 PM",
    "lat": 47.606088,
    "long": -122.332909,
    "timestamp": 1562365107000,
    "description": "Aid Response",
    "entries": 1,
    "neighborhood": "Downtown Commercial Core",
    "neighborhoodGroup": "Downtown",
    "unitCount": 1,
    "severity": 0,
    "units": "A5",
    "address": "1000 4th Av"
  },
  {
    "id_str": "F190070686",
    "created_at": "7/5/2019 3:16:47 PM",
    "lat": 47.589111,
    "long": -122.329046,
    "timestamp": 1562365007000,
    "description": "Aid Response",
    "entries": 1,
    "neighborhood": "Duwamish/SODO",
    "neighborhoodGroup": "Greater Duwamish",
    "unitCount": 1,
    "severity": 0,
    "units": "A10",
    "address": "1550 4th Av S"
  },
  {
    "id_str": "F190070685",
    "created_at": "7/5/2019 2:59:12 PM",
    "lat": 47.502755,
    "long": -122.244765,
    "timestamp": 1562363952000,
    "description": "Aid Response",
    "entries": 1,
    "unitCount": 1,
    "severity": 0,
    "units": "E33",
    "address": "11221 Crestwood Dr S"
  },
  {
    "id_str": "F190070683",
    "created_at": "7/5/2019 2:55:43 PM",
    "lat": 47.704045,
    "long": -122.309696,
    "timestamp": 1562363743000,
    "description": "Aid Response",
    "entries": 1,
    "neighborhood": "Olympic Hills/Victory Heights",
    "neighborhoodGroup": "North",
    "unitCount": 1,
    "severity": 0,
    "units": "E39",
    "address": "10411 17th Av Ne"
  },
  {
    "id_str": "F190070682",
    "created_at": "7/5/2019 2:51:29 PM",
    "lat": 47.600012,
    "long": -122.335911,
    "timestamp": 1562363489000,
    "description": "Aid Response",
    "entries": 1,
    "neighborhood": "Pioneer Square/International District",
    "neighborhoodGroup": "Downtown",
    "unitCount": 1,
    "severity": 0,
    "units": "E5",
    "address": "304 Alaskan Way S"
  },
  {
    "id_str": "F190070679",
    "created_at": "7/5/2019 2:39:36 PM",
    "lat": 47.708663,
    "long": -122.333993,
    "timestamp": 1562362776000,
    "description": "Aid Response",
    "entries": 1,
    "neighborhood": "Northgate/Maple Leaf",
    "neighborhoodGroup": "North",
    "unitCount": 1,
    "severity": 0,
    "units": "A31",
    "address": "Meridian Av N / N Northgate Way"
  },
  {
    "id_str": "F190070678",
    "created_at": "7/5/2019 2:29:31 PM",
    "lat": 47.558546,
    "long": -122.300119,
    "timestamp": 1562362171000,
    "description": "Automatic Fire Alarm Resd",
    "entries": 1,
    "neighborhood": "Beacon Hill",
    "neighborhoodGroup": "Greater Duwamish",
    "unitCount": 1,
    "severity": 0,
    "units": "E13",
    "address": "2519 S Ferdinand St"
  },
  {
    "id_str": "F190070677",
    "created_at": "7/5/2019 2:25:09 PM",
    "lat": 47.684857,
    "long": -122.300804,
    "timestamp": 1562361909000,
    "description": "Aid Response",
    "entries": 1,
    "neighborhood": "Ravenna/Bryant",
    "neighborhoodGroup": "Northeast",
    "unitCount": 1,
    "severity": 0,
    "units": "E40",
    "address": "25th Av Ne / Ne 77th St"
  },
  {
    "id_str": "F190070675",
    "created_at": "7/5/2019 2:21:44 PM",
    "lat": 47.606088,
    "long": -122.332909,
    "timestamp": 1562361704000,
    "description": "Aid Response",
    "entries": 1,
    "neighborhood": "Downtown Commercial Core",
    "neighborhoodGroup": "Downtown",
    "unitCount": 1,
    "severity": 0,
    "units": "A10",
    "address": "1000 4th Av"
  },
  {
    "id_str": "F190070674",
    "created_at": "7/5/2019 2:18:58 PM",
    "lat": 47.679542,
    "long": -122.317415,
    "timestamp": 1562361538000,
    "description": "Alarm Bell",
    "entries": 1,
    "neighborhood": "Ravenna/Bryant",
    "neighborhoodGroup": "Northeast",
    "unitCount": 2,
    "severity": 0,
    "units": "E16 L9",
    "address": "7011 ROOSEVELT WAY NE"
  },
  {
    "id_str": "F190070673",
    "created_at": "7/5/2019 2:10:03 PM",
    "lat": 47.622242,
    "long": -122.332995,
    "timestamp": 1562361003000,
    "description": "Aid Response",
    "entries": 1,
    "neighborhood": "Cascade/Eastlake",
    "neighborhoodGroup": "Lake Union",
    "unitCount": 1,
    "severity": 0,
    "units": "A4",
    "address": "424 Minor Av N"
  },
  {
    "id_str": "F190070672",
    "created_at": "7/5/2019 2:08:31 PM",
    "lat": 47.690563,
    "long": -122.344522,
    "timestamp": 1562360911000,
    "description": "Aid Response",
    "entries": 1,
    "neighborhood": "Licton Springs",
    "neighborhoodGroup": "Northwest",
    "unitCount": 1,
    "severity": 0,
    "units": "E21",
    "address": "Aurora Av N / N 85th St"
  },
  {
    "id_str": "F190070669",
    "created_at": "7/5/2019 2:04:07 PM",
    "lat": 47.716098,
    "long": -122.326149,
    "timestamp": 1562360647000,
    "description": "Aid Response",
    "entries": 1,
    "neighborhood": "Haller Lake",
    "neighborhoodGroup": "Northwest",
    "unitCount": 1,
    "severity": 0,
    "units": "E24",
    "address": "12033 3rd Av Ne"
  },
  {
    "id_str": "F190070667",
    "created_at": "7/5/2019 1:52:38 PM",
    "lat": 47.614788,
    "long": -122.342952,
    "timestamp": 1562359958000,
    "description": "Automatic Medical Alarm",
    "entries": 1,
    "neighborhood": "Cascade/Eastlake",
    "neighborhoodGroup": "Lake Union",
    "unitCount": 1,
    "severity": 0,
    "units": "A4",
    "address": "2225 4th Av"
  },
  {
    "id_str": "F190070666",
    "created_at": "7/5/2019 1:52:02 PM",
    "lat": 47.599208,
    "long": -122.314139,
    "timestamp": 1562359922000,
    "description": "Aid Response",
    "entries": 1,
    "neighborhood": "Judkins Park",
    "neighborhoodGroup": "Central",
    "unitCount": 1,
    "severity": 0,
    "units": "E6",
    "address": "Rainier Av S / S Jackson St"
  },
  {
    "id_str": "F190070665",
    "created_at": "7/5/2019 1:51:17 PM",
    "lat": 47.694186,
    "long": -122.344565,
    "timestamp": 1562359877000,
    "description": "Aid Response",
    "entries": 1,
    "neighborhood": "Licton Springs",
    "neighborhoodGroup": "Northwest",
    "unitCount": 1,
    "severity": 0,
    "units": "E21",
    "address": "N 90th St / Aurora Av N"
  },
  {
    "id_str": "F190070662",
    "created_at": "7/5/2019 1:47:56 PM",
    "lat": 47.528328,
    "long": -122.350617,
    "timestamp": 1562359676000,
    "description": "Medic Response",
    "entries": 1,
    "neighborhood": "Highland Park",
    "neighborhoodGroup": "Delridge Neighborhoods",
    "unitCount": 2,
    "severity": 0,
    "units": "E37 M32",
    "address": "1204 Sw Thistle St"
  },
  {
    "id_str": "F190070661",
    "created_at": "7/5/2019 1:47:23 PM",
    "lat": 47.600825,
    "long": -122.330272,
    "timestamp": 1562359643000,
    "description": "Medic Response",
    "entries": 2,
    "neighborhood": "Pioneer Square/International District",
    "neighborhoodGroup": "Downtown",
    "unitCount": 3,
    "severity": 0,
    "units": "A10 A5 M10",
    "address": "206 3rd Av S"
  },
  {
    "id_str": "F190070659",
    "created_at": "7/5/2019 1:45:11 PM",
    "lat": 47.61444,
    "long": -122.324463,
    "timestamp": 1562359511000,
    "description": "Aid Response",
    "entries": 1,
    "neighborhood": "Capitol Hill",
    "neighborhoodGroup": "East",
    "unitCount": 1,
    "severity": 0,
    "units": "A25",
    "address": "1531 Belmont Av"
  },
  {
    "id_str": "F190070657",
    "created_at": "7/5/2019 1:38:06 PM",
    "lat": 47.732699,
    "long": -122.347785,
    "timestamp": 1562359086000,
    "description": "Aid Response",
    "entries": 1,
    "neighborhood": "Broadview/Bitter Lake",
    "neighborhoodGroup": "Northwest",
    "unitCount": 1,
    "severity": 0,
    "units": "A31",
    "address": "14343 Linden Av N"
  },
  {
    "id_str": "F190070656",
    "created_at": "7/5/2019 1:36:23 PM",
    "lat": 47.681591,
    "long": -122.263664,
    "timestamp": 1562358983000,
    "description": "Aid Response",
    "entries": 1,
    "neighborhood": "Laurelhurst/Sand Point",
    "neighborhoodGroup": "Northeast",
    "unitCount": 1,
    "severity": 0,
    "units": "E40",
    "address": "7323 Sand Point Way Ne"
  },
  {
    "id_str": "F190070655",
    "created_at": "7/5/2019 1:32:09 PM",
    "lat": 47.541764,
    "long": -122.286262,
    "timestamp": 1562358729000,
    "description": "Aid Response",
    "entries": 1,
    "neighborhood": "South Beacon Hill/NewHolly",
    "neighborhoodGroup": "Greater Duwamish",
    "unitCount": 1,
    "severity": 0,
    "units": "L12",
    "address": "6777 37th Av S"
  },
  {
    "id_str": "F190070653",
    "created_at": "7/5/2019 1:31:13 PM",
    "lat": 47.618448,
    "long": -122.304694,
    "timestamp": 1562358673000,
    "description": "Rescue Elevator",
    "entries": 1,
    "neighborhood": "Central Area/Squire Park",
    "neighborhoodGroup": "Central",
    "unitCount": 1,
    "severity": 0,
    "units": "L10",
    "address": "2112 E Denny Way"
  },
  {
    "id_str": "F190070650",
    "created_at": "7/5/2019 1:24:06 PM",
    "lat": 47.670184,
    "long": -122.385375,
    "timestamp": 1562358246000,
    "description": "Auto Fire Alarm",
    "entries": 1,
    "neighborhood": "Ballard",
    "neighborhoodGroup": "Ballard",
    "unitCount": 2,
    "severity": 0,
    "units": "E20 L8",
    "address": "2245 Nw 57th St"
  },
  {
    "id_str": "F190070649",
    "created_at": "7/5/2019 1:23:13 PM",
    "lat": 47.668678,
    "long": -122.384746,
    "timestamp": 1562358193000,
    "description": "Aid Response",
    "entries": 1,
    "neighborhood": "Ballard",
    "neighborhoodGroup": "Ballard",
    "unitCount": 1,
    "severity": 0,
    "units": "E18",
    "address": "Leary Av Nw / 22nd Av Nw"
  },
  {
    "id_str": "F190070648",
    "created_at": "7/5/2019 1:22:29 PM",
    "lat": 47.661245,
    "long": -122.29437,
    "timestamp": 1562358149000,
    "description": "Aid Response",
    "entries": 1,
    "neighborhood": "Ravenna/Bryant",
    "neighborhoodGroup": "Northeast",
    "unitCount": 1,
    "severity": 0,
    "units": "E38",
    "address": "3040 Ne 45th St"
  },
  {
    "id_str": "F190070647",
    "created_at": "7/5/2019 1:14:11 PM",
    "lat": 47.656345,
    "long": -122.357912,
    "timestamp": 1562357651000,
    "description": "Aid Response",
    "entries": 1,
    "neighborhood": "Fremont",
    "neighborhoodGroup": "Lake Union",
    "unitCount": 1,
    "severity": 0,
    "units": "E9",
    "address": "123 Nw 41st St"
  },
  {
    "id_str": "F190070646",
    "created_at": "7/5/2019 12:59:23 PM",
    "lat": 47.599201,
    "long": -122.331566,
    "timestamp": 1562356763000,
    "description": "Aid Response",
    "entries": 1,
    "neighborhood": "Duwamish/SODO",
    "neighborhoodGroup": "Greater Duwamish",
    "unitCount": 1,
    "severity": 0,
    "units": "L1",
    "address": "201 S Jackson St"
  },
  {
    "id_str": "F190070643",
    "created_at": "7/5/2019 12:57:54 PM",
    "lat": 47.600194,
    "long": -122.330541,
    "timestamp": 1562356674000,
    "description": "Medic Response",
    "entries": 2,
    "neighborhood": "Pioneer Square/International District",
    "neighborhoodGroup": "Downtown",
    "unitCount": 3,
    "severity": 0,
    "units": "A10 E5 M1",
    "address": "318 2nd Av Et S"
  },
  {
    "id_str": "F190070642",
    "created_at": "7/5/2019 12:53:25 PM",
    "lat": 47.546057,
    "long": -122.285631,
    "timestamp": 1562356405000,
    "description": "MVI - Motor Vehicle Incident",
    "entries": 1,
    "neighborhood": "Beacon Hill",
    "neighborhoodGroup": "Greater Duwamish",
    "unitCount": 1,
    "severity": 0,
    "units": "L12",
    "address": "M L King Jr Way S / S Graham St"
  },
  {
    "id_str": "F190070641",
    "created_at": "7/5/2019 12:53:12 PM",
    "lat": 47.689172,
    "long": -122.3741,
    "timestamp": 1562356392000,
    "description": "Medic Response",
    "entries": 1,
    "neighborhood": "Whittier Heights",
    "neighborhoodGroup": "Ballard",
    "unitCount": 2,
    "severity": 0,
    "units": "E24 M18",
    "address": "8347 14th Av Nw"
  },
  {
    "id_str": "F190070640",
    "created_at": "7/5/2019 12:46:30 PM",
    "lat": 47.601702,
    "long": -122.322098,
    "timestamp": 1562355990000,
    "description": "Aid Response",
    "entries": 2,
    "neighborhood": "First Hill",
    "neighborhoodGroup": "East",
    "unitCount": 2,
    "severity": 0,
    "units": "A10 A5",
    "address": "820 Yesler Way"
  },
  {
    "id_str": "F190070639",
    "created_at": "7/5/2019 12:45:49 PM",
    "lat": 47.615369,
    "long": -122.343934,
    "timestamp": 1562355949000,
    "description": "Aid Response",
    "entries": 1,
    "neighborhood": "Cascade/Eastlake",
    "neighborhoodGroup": "Lake Union",
    "unitCount": 1,
    "severity": 0,
    "units": "A4",
    "address": "4th Av / Bell St"
  },
  {
    "id_str": "F190070637",
    "created_at": "7/5/2019 12:38:37 PM",
    "lat": 47.576359,
    "long": -122.29663,
    "timestamp": 1562355517000,
    "description": "Aid Response",
    "entries": 1,
    "neighborhood": "Mt. Baker/North Rainier",
    "neighborhoodGroup": "Southeast",
    "unitCount": 1,
    "severity": 0,
    "units": "E30",
    "address": "Rainier Av S / M L King Jr Way S"
  },
  {
    "id_str": "F190070636",
    "created_at": "7/5/2019 12:37:58 PM",
    "lat": 47.608025,
    "long": -122.323562,
    "timestamp": 1562355478000,
    "description": "Aid Response",
    "entries": 2,
    "neighborhood": "First Hill",
    "neighborhoodGroup": "East",
    "unitCount": 2,
    "severity": 0,
    "units": "A10 A5",
    "address": "1124 Columbia St"
  },
  {
    "id_str": "F190070635",
    "created_at": "7/5/2019 12:29:55 PM",
    "lat": 47.611641,
    "long": -122.291354,
    "timestamp": 1562354995000,
    "description": "Aid Response Yellow",
    "entries": 1,
    "neighborhood": "Madrona/Leschi",
    "neighborhoodGroup": "Central",
    "unitCount": 1,
    "severity": 0,
    "units": "E34",
    "address": "3209 E Spring St"
  },
  {
    "id_str": "F190070633",
    "created_at": "7/5/2019 12:28:33 PM",
    "lat": 47.619719,
    "long": -122.342229,
    "timestamp": 1562354913000,
    "description": "Aid Response",
    "entries": 1,
    "neighborhood": "Cascade/Eastlake",
    "neighborhoodGroup": "Lake Union",
    "unitCount": 1,
    "severity": 0,
    "units": "A2",
    "address": "756 John St"
  },
  {
    "id_str": "F190070632",
    "created_at": "7/5/2019 12:26:57 PM",
    "lat": 47.699692,
    "long": -122.338755,
    "timestamp": 1562354817000,
    "description": "Aid Response",
    "entries": 1,
    "neighborhood": "Licton Springs",
    "neighborhoodGroup": "Northwest",
    "unitCount": 1,
    "severity": 0,
    "units": "A31",
    "address": "Woodlawn Av N / N 97th St"
  },
  {
    "id_str": "F190070631",
    "created_at": "7/5/2019 12:25:28 PM",
    "lat": 47.58617,
    "long": -122.329062,
    "timestamp": 1562354728000,
    "description": "Aid Response",
    "entries": 1,
    "neighborhood": "Duwamish/SODO",
    "neighborhoodGroup": "Greater Duwamish",
    "unitCount": 1,
    "severity": 0,
    "units": "A14",
    "address": "4th Av S / S Holgate St"
  },
  {
    "id_str": "F190070629",
    "created_at": "7/5/2019 12:19:35 PM",
    "lat": 47.611259,
    "long": -122.32076,
    "timestamp": 1562354375000,
    "description": "Medic Response",
    "entries": 1,
    "neighborhood": "Capitol Hill",
    "neighborhoodGroup": "East",
    "unitCount": 2,
    "severity": 0,
    "units": "E22 M31",
    "address": "1100 BROADWAY"
  },
  {
    "id_str": "F190070627",
    "created_at": "7/5/2019 12:18:37 PM",
    "lat": 47.613497,
    "long": -122.346355,
    "timestamp": 1562354317000,
    "description": "Aid Response",
    "entries": 1,
    "neighborhood": "Belltown",
    "neighborhoodGroup": "Downtown",
    "unitCount": 1,
    "severity": 0,
    "units": "A4",
    "address": "118 Bell St"
  },
  {
    "id_str": "F190070624",
    "created_at": "7/5/2019 12:16:59 PM",
    "lat": 47.626215,
    "long": -122.329199,
    "timestamp": 1562354219000,
    "description": "Medic Response",
    "entries": 3,
    "neighborhood": "Cascade/Eastlake",
    "neighborhoodGroup": "Lake Union",
    "unitCount": 4,
    "severity": 0,
    "units": "A25 E25 M10 M31",
    "address": "825 Eastlake Av E"
  },
  {
    "id_str": "F190070622",
    "created_at": "7/5/2019 12:15:26 PM",
    "lat": 47.664958,
    "long": -122.320703,
    "timestamp": 1562354126000,
    "description": "Brush Fire",
    "entries": 2,
    "neighborhood": "Wallingford",
    "neighborhoodGroup": "Lake Union",
    "unitCount": 2,
    "severity": 0,
    "units": "E16 E31",
    "address": "Ne 50th St / 7th Av Ne"
  },
  {
    "id_str": "F190070621",
    "created_at": "7/5/2019 12:10:38 PM",
    "lat": 47.642594,
    "long": -122.406111,
    "timestamp": 1562353838000,
    "description": "Automatic Fire Alarm Resd",
    "entries": 1,
    "neighborhood": "Magnolia",
    "neighborhoodGroup": "Magnolia/Queen Anne",
    "unitCount": 1,
    "severity": 0,
    "units": "E41",
    "address": "2569 38th Av W"
  },
  {
    "id_str": "F190070620",
    "created_at": "7/5/2019 12:05:05 PM",
    "lat": 47.609367,
    "long": -122.325166,
    "timestamp": 1562353505000,
    "description": "Aid Response",
    "entries": 1,
    "neighborhood": "First Hill",
    "neighborhoodGroup": "East",
    "unitCount": 1,
    "severity": 0,
    "units": "A25",
    "address": "1005 BOREN AV"
  },
  {
    "id_str": "F190070619",
    "created_at": "7/5/2019 12:04:00 PM",
    "lat": 47.662125,
    "long": -122.34377,
    "timestamp": 1562353440000,
    "description": "Illegal Burn",
    "entries": 1,
    "neighborhood": "Wallingford",
    "neighborhoodGroup": "Lake Union",
    "unitCount": 1,
    "severity": 0,
    "units": "E17",
    "address": "Midvale Av N / N 46th St"
  },
  {
    "id_str": "F190070618",
    "created_at": "7/5/2019 12:01:21 PM",
    "lat": 47.671061,
    "long": -122.395656,
    "timestamp": 1562353281000,
    "description": "Aid Response",
    "entries": 1,
    "neighborhood": "Sunset Hill/Loyal Heights",
    "neighborhoodGroup": "Ballard",
    "unitCount": 1,
    "severity": 0,
    "units": "E18",
    "address": "5819 30th Av Nw"
  },
  {
    "id_str": "F190070614",
    "created_at": "7/5/2019 11:46:12 AM",
    "lat": 47.674162,
    "long": -122.318431,
    "timestamp": 1562352372000,
    "description": "Auto Fire Alarm",
    "entries": 2,
    "neighborhood": "Green Lake",
    "neighborhoodGroup": "Northwest",
    "unitCount": 3,
    "severity": 0,
    "units": "E16 L10 L9",
    "address": "920 Ne 63rd St"
  },
  {
    "id_str": "F190070615",
    "created_at": "7/5/2019 11:46:03 AM",
    "lat": 47.638695,
    "long": -122.376149,
    "timestamp": 1562352363000,
    "description": "Aid Response",
    "entries": 1,
    "neighborhood": "Interbay",
    "neighborhoodGroup": "Magnolia/Queen Anne",
    "unitCount": 1,
    "severity": 0,
    "units": "E20",
    "address": "2208 15th Av W"
  },
  {
    "id_str": "F190070612",
    "created_at": "7/5/2019 11:38:59 AM",
    "lat": 47.661555,
    "long": -122.278344,
    "timestamp": 1562351939000,
    "description": "Auto Fire Alarm",
    "entries": 1,
    "neighborhood": "Laurelhurst/Sand Point",
    "neighborhoodGroup": "Northeast",
    "unitCount": 2,
    "severity": 0,
    "units": "E31 L9",
    "address": "4530 46th Av Ne"
  },
  {
    "id_str": "F190070610",
    "created_at": "7/5/2019 11:34:18 AM",
    "lat": 47.690428,
    "long": -122.323,
    "timestamp": 1562351658000,
    "description": "Aid Response",
    "entries": 1,
    "neighborhood": "Northgate/Maple Leaf",
    "neighborhoodGroup": "North",
    "unitCount": 1,
    "severity": 0,
    "units": "E38",
    "address": "8506 5th Av Ne"
  },
  {
    "id_str": "F190070609",
    "created_at": "7/5/2019 11:26:01 AM",
    "lat": 47.606982,
    "long": -122.326056,
    "timestamp": 1562351161000,
    "description": "Aid Response",
    "entries": 1,
    "neighborhood": "First Hill",
    "neighborhoodGroup": "East",
    "unitCount": 1,
    "severity": 0,
    "units": "A5",
    "address": "801 9th Av"
  },
  {
    "id_str": "F190070605",
    "created_at": "7/5/2019 11:23:09 AM",
    "lat": 47.604377,
    "long": -122.325207,
    "timestamp": 1562350989000,
    "description": "Medic Response",
    "entries": 2,
    "neighborhood": "First Hill",
    "neighborhoodGroup": "East",
    "unitCount": 2,
    "severity": 0,
    "units": "A10 M1",
    "address": "800 Jefferson St"
  },
  {
    "id_str": "F190070604",
    "created_at": "7/5/2019 11:15:13 AM",
    "lat": 47.705096,
    "long": -122.344695,
    "timestamp": 1562350513000,
    "description": "Aid Response",
    "entries": 1,
    "neighborhood": "Licton Springs",
    "neighborhoodGroup": "Northwest",
    "unitCount": 1,
    "severity": 0,
    "units": "E21",
    "address": "10507 Aurora Av N"
  },
  {
    "id_str": "F190070602",
    "created_at": "7/5/2019 11:11:42 AM",
    "lat": 47.596676,
    "long": -122.32637,
    "timestamp": 1562350302000,
    "description": "Auto Fire Alarm",
    "entries": 1,
    "neighborhood": "Pioneer Square/International District",
    "neighborhoodGroup": "Downtown",
    "unitCount": 2,
    "severity": 0,
    "units": "E10 L1",
    "address": "700 6th Av S"
  },
  {
    "id_str": "F190070601",
    "created_at": "7/5/2019 11:08:09 AM",
    "lat": 47.715614,
    "long": -122.297401,
    "timestamp": 1562350089000,
    "description": "Medic Response",
    "entries": 1,
    "neighborhood": "Olympic Hills/Victory Heights",
    "neighborhoodGroup": "North",
    "unitCount": 2,
    "severity": 0,
    "units": "E39 M17",
    "address": "12001 Lake City Way Ne"
  },
  {
    "id_str": "F190070600",
    "created_at": "7/5/2019 11:07:51 AM",
    "lat": 47.723223,
    "long": -122.351366,
    "timestamp": 1562350071000,
    "description": "Aid Response Yellow",
    "entries": 1,
    "neighborhood": "Broadview/Bitter Lake",
    "neighborhoodGroup": "Northwest",
    "unitCount": 1,
    "severity": 0,
    "units": "A31",
    "address": "620 N 130th St"
  },
  {
    "id_str": "F190070599",
    "created_at": "7/5/2019 11:04:00 AM",
    "lat": 47.521157,
    "long": -122.275265,
    "timestamp": 1562349840000,
    "description": "Aid Response",
    "entries": 1,
    "neighborhood": "South Beacon Hill/NewHolly",
    "neighborhoodGroup": "Greater Duwamish",
    "unitCount": 1,
    "severity": 0,
    "units": "L12",
    "address": "9140 Spear Pl S"
  },
  {
    "id_str": "F190070597",
    "created_at": "7/5/2019 11:00:44 AM",
    "lat": 47.68739,
    "long": -122.294022,
    "timestamp": 1562349644000,
    "description": "Aid Response",
    "entries": 1,
    "neighborhood": "Wedgwood/View Ridge",
    "neighborhoodGroup": "Northeast",
    "unitCount": 1,
    "severity": 0,
    "units": "E16",
    "address": "3177 Ne 81st St"
  },
  {
    "id_str": "F190070596",
    "created_at": "7/5/2019 10:49:04 AM",
    "lat": 47.707022,
    "long": -122.344726,
    "timestamp": 1562348944000,
    "description": "Trans to AMR",
    "entries": 1,
    "neighborhood": "Haller Lake",
    "neighborhoodGroup": "Northwest",
    "unitCount": 1,
    "severity": 0,
    "units": "A31",
    "address": "10726 Aurora Av N"
  },
  {
    "id_str": "F190070594",
    "created_at": "7/5/2019 10:40:12 AM",
    "lat": 47.53865,
    "long": -122.32063,
    "timestamp": 1562348412000,
    "description": "Aid Response",
    "entries": 1,
    "neighborhood": "Georgetown",
    "neighborhoodGroup": "Greater Duwamish",
    "unitCount": 1,
    "severity": 0,
    "units": "E27",
    "address": "East Marginal Way S / Ellis Av S"
  },
  {
    "id_str": "F190070592",
    "created_at": "7/5/2019 10:36:55 AM",
    "lat": 47.550638,
    "long": -122.258093,
    "timestamp": 1562348215000,
    "description": "MVI - Motor Vehicle Incident",
    "entries": 1,
    "neighborhood": "Seward Park",
    "neighborhoodGroup": "Southeast",
    "unitCount": 1,
    "severity": 0,
    "units": "E33",
    "address": "5898 Lake Washington Blvd S"
  },
  {
    "id_str": "F190070591",
    "created_at": "7/5/2019 10:36:39 AM",
    "lat": 47.542292,
    "long": -122.283626,
    "timestamp": 1562348199000,
    "description": "Auto Fire Alarm",
    "entries": 1,
    "neighborhood": "Columbia City",
    "neighborhoodGroup": "Southeast",
    "unitCount": 2,
    "severity": 0,
    "units": "E30 L12",
    "address": "6718 M L King Jr Way S"
  },
  {
    "id_str": "F190070590",
    "created_at": "7/5/2019 10:32:32 AM",
    "lat": 47.6069,
    "long": -122.329051,
    "timestamp": 1562347952000,
    "description": "Aid Response",
    "entries": 1,
    "neighborhood": "First Hill",
    "neighborhoodGroup": "East",
    "unitCount": 1,
    "severity": 0,
    "units": "A25",
    "address": "904 7th Av"
  },
  {
    "id_str": "F190070589",
    "created_at": "7/5/2019 10:25:23 AM",
    "lat": 47.661387,
    "long": -122.333718,
    "timestamp": 1562347523000,
    "description": "Aid Response",
    "entries": 1,
    "neighborhood": "Wallingford",
    "neighborhoodGroup": "Lake Union",
    "unitCount": 1,
    "severity": 0,
    "units": "E31",
    "address": "Meridian Av N / N 45th St"
  },
  {
    "id_str": "F190070588",
    "created_at": "7/5/2019 10:17:58 AM",
    "lat": 47.544683,
    "long": -122.376445,
    "timestamp": 1562347078000,
    "description": "Aid Response",
    "entries": 1,
    "neighborhood": "High Point",
    "neighborhoodGroup": "Delridge Neighborhoods",
    "unitCount": 1,
    "severity": 0,
    "units": "E37",
    "address": "35th Av Sw / Sw Morgan St"
  },
  {
    "id_str": "F190070587",
    "created_at": "7/5/2019 10:14:11 AM",
    "lat": 47.730569,
    "long": -122.347758,
    "timestamp": 1562346851000,
    "description": "Aid Response",
    "entries": 1,
    "neighborhood": "Broadview/Bitter Lake",
    "neighborhoodGroup": "Northwest",
    "unitCount": 1,
    "severity": 0,
    "units": "A31",
    "address": "14002 Linden Av N"
  },
  {
    "id_str": "F190070586",
    "created_at": "7/5/2019 10:02:41 AM",
    "lat": 47.615234,
    "long": -122.32768,
    "timestamp": 1562346161000,
    "description": "Auto Fire Alarm",
    "entries": 1,
    "neighborhood": "Capitol Hill",
    "neighborhoodGroup": "East",
    "unitCount": 2,
    "severity": 0,
    "units": "E25 L10",
    "address": "320 E Pine St"
  },
  {
    "id_str": "F190070582",
    "created_at": "7/5/2019 9:48:20 AM",
    "lat": 47.636731,
    "long": -122.349522,
    "timestamp": 1562345300000,
    "description": "Aid Response",
    "entries": 1,
    "neighborhood": "Queen Anne",
    "neighborhoodGroup": "Magnolia/Queen Anne",
    "unitCount": 1,
    "severity": 0,
    "units": "E8",
    "address": "2021 4th Av N"
  },
  {
    "id_str": "F190070581",
    "created_at": "7/5/2019 9:43:06 AM",
    "lat": 47.577707,
    "long": -122.408079,
    "timestamp": 1562344986000,
    "description": "Aid Response",
    "entries": 1,
    "neighborhood": "Alki/Admiral",
    "neighborhoodGroup": "Southwest",
    "unitCount": 1,
    "severity": 0,
    "units": "E29",
    "address": "59th Av Sw / Sw Stevens St"
  },
  {
    "id_str": "F190070580",
    "created_at": "7/5/2019 9:41:29 AM",
    "lat": 47.602114,
    "long": -122.330809,
    "timestamp": 1562344889000,
    "description": "Rescue Elevator",
    "entries": 1,
    "neighborhood": "Downtown Commercial Core",
    "neighborhoodGroup": "Downtown",
    "unitCount": 1,
    "severity": 0,
    "units": "L1",
    "address": "509 3rd Av"
  },
  {
    "id_str": "F190070579",
    "created_at": "7/5/2019 9:39:10 AM",
    "lat": 47.694355,
    "long": -122.375451,
    "timestamp": 1562344750000,
    "description": "Aid Response",
    "entries": 1,
    "neighborhood": "North Beach/Blue Ridge",
    "neighborhoodGroup": "Ballard",
    "unitCount": 1,
    "severity": 0,
    "units": "A31",
    "address": "9023 Mary Av Nw"
  },
  {
    "id_str": "F190070578",
    "created_at": "7/5/2019 9:39:09 AM",
    "lat": 47.721329,
    "long": -122.296339,
    "timestamp": 1562344749000,
    "description": "Medic Response",
    "entries": 1,
    "neighborhood": "Cedar Park/Meadowbrook",
    "neighborhoodGroup": "North",
    "unitCount": 2,
    "severity": 0,
    "units": "E39 M31",
    "address": "12740 30th Av Ne"
  },
  {
    "id_str": "F190070576",
    "created_at": "7/5/2019 9:31:04 AM",
    "lat": 47.605624,
    "long": -122.334019,
    "timestamp": 1562344264000,
    "description": "Aid Response",
    "entries": 1,
    "neighborhood": "Downtown Commercial Core",
    "neighborhoodGroup": "Downtown",
    "unitCount": 1,
    "severity": 0,
    "units": "A5",
    "address": "3RD AV / MADISON ST"
  },
  {
    "id_str": "F190070574",
    "created_at": "7/5/2019 9:10:52 AM",
    "lat": 47.625413,
    "long": -122.344942,
    "timestamp": 1562343052000,
    "description": "AFA4 - Auto Alarm 2 + 1 + 1",
    "entries": 1,
    "neighborhood": "Cascade/Eastlake",
    "neighborhoodGroup": "Lake Union",
    "unitCount": 4,
    "severity": 0,
    "units": "B6 E2 E8 L6",
    "address": "601 Roy St"
  },
  {
    "id_str": "F190070572",
    "created_at": "7/5/2019 9:09:31 AM",
    "lat": 47.609285,
    "long": -122.338904,
    "timestamp": 1562342971000,
    "description": "Aid Response",
    "entries": 1,
    "neighborhood": "Downtown Commercial Core",
    "neighborhoodGroup": "Downtown",
    "unitCount": 1,
    "severity": 0,
    "units": "A4",
    "address": "2nd Av / Pike St"
  },
  {
    "id_str": "F190070571",
    "created_at": "7/5/2019 9:06:28 AM",
    "lat": 47.612626,
    "long": -122.341277,
    "timestamp": 1562342788000,
    "description": "Medic Response",
    "entries": 2,
    "neighborhood": "Cascade/Eastlake",
    "neighborhoodGroup": "Lake Union",
    "unitCount": 3,
    "severity": 0,
    "units": "A2 M10 M32",
    "address": "2030 3rd Av"
  },
  {
    "id_str": "F190070570",
    "created_at": "7/5/2019 9:01:55 AM",
    "lat": 47.515196,
    "long": -122.25937,
    "timestamp": 1562342515000,
    "description": "Bark Fire",
    "entries": 1,
    "neighborhood": "Rainier Beach",
    "neighborhoodGroup": "Southeast",
    "unitCount": 1,
    "severity": 0,
    "units": "E33",
    "address": "59TH AV S / S PILGRIM ST"
  },
  {
    "id_str": "F190070568",
    "created_at": "7/5/2019 8:54:27 AM",
    "lat": 47.709789,
    "long": -122.317871,
    "timestamp": 1562342067000,
    "description": "Aid Response",
    "entries": 1,
    "neighborhood": "Northgate/Maple Leaf",
    "neighborhoodGroup": "North",
    "unitCount": 1,
    "severity": 0,
    "units": "L5",
    "address": "Roosevelt Way Ne / Ne 112th St"
  },
  {
    "id_str": "F190070566",
    "created_at": "7/5/2019 8:53:21 AM",
    "lat": 47.6069,
    "long": -122.329051,
    "timestamp": 1562342001000,
    "description": "Medic Response",
    "entries": 2,
    "neighborhood": "First Hill",
    "neighborhoodGroup": "East",
    "unitCount": 3,
    "severity": 0,
    "units": "A10 E10 M17",
    "address": "904 7th Av"
  },
  {
    "id_str": "F190070565",
    "created_at": "7/5/2019 8:49:30 AM",
    "lat": 47.622242,
    "long": -122.332995,
    "timestamp": 1562341770000,
    "description": "Auto Fire Alarm",
    "entries": 1,
    "neighborhood": "Cascade/Eastlake",
    "neighborhoodGroup": "Lake Union",
    "unitCount": 2,
    "severity": 0,
    "units": "E2 L4",
    "address": "424 Minor Av N"
  },
  {
    "id_str": "F190070564",
    "created_at": "7/5/2019 8:46:35 AM",
    "lat": 47.709995,
    "long": -122.32296,
    "timestamp": 1562341595000,
    "description": "Aid Response",
    "entries": 3,
    "neighborhood": "Northgate/Maple Leaf",
    "neighborhoodGroup": "North",
    "unitCount": 2,
    "severity": 0,
    "units": "E16 L5",
    "address": "531 Ne 112th St"
  },
  {
    "id_str": "F190070562",
    "created_at": "7/5/2019 8:42:53 AM",
    "lat": 47.698322,
    "long": -122.364705,
    "timestamp": 1562341373000,
    "description": "Aid Response Yellow",
    "entries": 1,
    "neighborhood": "Greenwood/Phinney Ridge",
    "neighborhoodGroup": "Northwest",
    "unitCount": 1,
    "severity": 0,
    "units": "E21",
    "address": "9551 7th Av Nw"
  },
  {
    "id_str": "F190070561",
    "created_at": "7/5/2019 8:38:49 AM",
    "lat": 47.699156,
    "long": -122.325251,
    "timestamp": 1562341129000,
    "description": "Aid Response",
    "entries": 1,
    "neighborhood": "Northgate/Maple Leaf",
    "neighborhoodGroup": "North",
    "unitCount": 1,
    "severity": 0,
    "units": "E16",
    "address": "333 Ne 97th St"
  },
  {
    "id_str": "F190070559",
    "created_at": "7/5/2019 8:28:27 AM",
    "lat": 47.57981,
    "long": -122.329988,
    "timestamp": 1562340507000,
    "description": "Aid Response",
    "entries": 1,
    "neighborhood": "Duwamish/SODO",
    "neighborhoodGroup": "Greater Duwamish",
    "unitCount": 1,
    "severity": 0,
    "units": "A14",
    "address": "3rd Av S / S Lander St"
  },
  {
    "id_str": "F190070558",
    "created_at": "7/5/2019 8:27:00 AM",
    "lat": 47.520641,
    "long": -122.369975,
    "timestamp": 1562340420000,
    "description": "Aid Response",
    "entries": 1,
    "neighborhood": "Roxhill/Westwood",
    "neighborhoodGroup": "Delridge Neighborhoods",
    "unitCount": 1,
    "severity": 0,
    "units": "E37",
    "address": "9244 29th Av Sw"
  },
  {
    "id_str": "F190070557",
    "created_at": "7/5/2019 8:26:46 AM",
    "lat": 47.591866,
    "long": -122.325968,
    "timestamp": 1562340406000,
    "description": "Medic Response",
    "entries": 1,
    "neighborhood": "Duwamish/SODO",
    "neighborhoodGroup": "Greater Duwamish",
    "unitCount": 2,
    "severity": 0,
    "units": "A5 M10",
    "address": "1263 6th Av S"
  },
  {
    "id_str": "F190070555",
    "created_at": "7/5/2019 8:20:58 AM",
    "lat": 47.601986,
    "long": -122.32914,
    "timestamp": 1562340058000,
    "description": "Medic Response",
    "entries": 2,
    "neighborhood": "Downtown Commercial Core",
    "neighborhoodGroup": "Downtown",
    "unitCount": 2,
    "severity": 0,
    "units": "A10 M1",
    "address": "420 4th Av"
  },
  {
    "id_str": "F190070552",
    "created_at": "7/5/2019 8:09:16 AM",
    "lat": 47.656118,
    "long": -122.319795,
    "timestamp": 1562339356000,
    "description": "Aid Response Yellow",
    "entries": 1,
    "neighborhood": "Wallingford",
    "neighborhoodGroup": "Lake Union",
    "unitCount": 1,
    "severity": 0,
    "units": "E31",
    "address": "4032 8th Av Ne"
  },
  {
    "id_str": "F190070551",
    "created_at": "7/5/2019 8:02:22 AM",
    "lat": 47.719585,
    "long": -122.292729,
    "timestamp": 1562338942000,
    "description": "Aid Response",
    "entries": 1,
    "neighborhood": "Cedar Park/Meadowbrook",
    "neighborhoodGroup": "North",
    "unitCount": 1,
    "severity": 0,
    "units": "E39",
    "address": "12546 33rd Av Ne"
  },
  {
    "id_str": "F190070549",
    "created_at": "7/5/2019 7:58:08 AM",
    "lat": 47.618002,
    "long": -122.329182,
    "timestamp": 1562338688000,
    "description": "Aid Response",
    "entries": 1,
    "neighborhood": "Cascade/Eastlake",
    "neighborhoodGroup": "Lake Union",
    "unitCount": 1,
    "severity": 0,
    "units": "A2",
    "address": "1811 Eastlake Av"
  },
  {
    "id_str": "F190070546",
    "created_at": "7/5/2019 7:42:15 AM",
    "lat": 47.712312,
    "long": -122.342124,
    "timestamp": 1562337735000,
    "description": "Aid Response",
    "entries": 1,
    "neighborhood": "Haller Lake",
    "neighborhoodGroup": "Northwest",
    "unitCount": 1,
    "severity": 0,
    "units": "E24",
    "address": "Stone Av N / N 115th St"
  },
  {
    "id_str": "F190070543",
    "created_at": "7/5/2019 7:28:43 AM",
    "lat": 47.615234,
    "long": -122.32768,
    "timestamp": 1562336923000,
    "description": "Alarm Bell",
    "entries": 1,
    "neighborhood": "Capitol Hill",
    "neighborhoodGroup": "East",
    "unitCount": 4,
    "severity": 0,
    "units": "B2 E2 E25 L10",
    "address": "320 E Pine St"
  },
  {
    "id_str": "F190070542",
    "created_at": "7/5/2019 7:27:01 AM",
    "lat": 47.516539,
    "long": -122.285074,
    "timestamp": 1562336821000,
    "description": "Aid Response",
    "entries": 1,
    "neighborhood": "South Beacon Hill/NewHolly",
    "neighborhoodGroup": "Greater Duwamish",
    "unitCount": 1,
    "severity": 0,
    "units": "E28",
    "address": "3716 S Burns St"
  },
  {
    "id_str": "F190070539",
    "created_at": "7/5/2019 7:20:43 AM",
    "lat": 47.61404,
    "long": -122.345653,
    "timestamp": 1562336443000,
    "description": "Aid Response",
    "entries": 1,
    "neighborhood": "Belltown",
    "neighborhoodGroup": "Downtown",
    "unitCount": 1,
    "severity": 0,
    "units": "A2",
    "address": "2nd Av / Bell St"
  },
  {
    "id_str": "F190070536",
    "created_at": "7/5/2019 7:10:17 AM",
    "lat": 47.660566,
    "long": -122.347213,
    "timestamp": 1562335817000,
    "description": "MVI - Motor Vehicle Incident",
    "entries": 1,
    "neighborhood": "Wallingford",
    "neighborhoodGroup": "Lake Union",
    "unitCount": 1,
    "severity": 0,
    "units": "E9",
    "address": "Aurora Av N / N Allen Pl"
  },
  {
    "id_str": "F190070535",
    "created_at": "7/5/2019 7:05:58 AM",
    "lat": 47.604197,
    "long": -122.332714,
    "timestamp": 1562335558000,
    "description": "Dumpster Fire",
    "entries": 1,
    "neighborhood": "Downtown Commercial Core",
    "neighborhoodGroup": "Downtown",
    "unitCount": 1,
    "severity": 0,
    "units": "E2",
    "address": "3rd Av / Columbia St"
  },
  {
    "id_str": "F190070534",
    "created_at": "7/5/2019 7:01:40 AM",
    "lat": 47.679464,
    "long": -122.393758,
    "timestamp": 1562335300000,
    "description": "Investigate Out Of Service",
    "entries": 1,
    "neighborhood": "Sunset Hill/Loyal Heights",
    "neighborhoodGroup": "Ballard",
    "unitCount": 1,
    "severity": 0,
    "units": "E18",
    "address": "2858 Nw 70th St"
  },
  {
    "id_str": "F190070532",
    "created_at": "7/5/2019 7:00:02 AM",
    "lat": 47.506122,
    "long": -122.262565,
    "timestamp": 1562335202000,
    "description": "Medic Response",
    "entries": 1,
    "neighborhood": "Rainier Beach",
    "neighborhoodGroup": "Southeast",
    "unitCount": 2,
    "severity": 0,
    "units": "E33 M32",
    "address": "5629 S Bangor St"
  },
  {
    "id_str": "F190070533",
    "created_at": "7/5/2019 6:59:27 AM",
    "lat": 47.604377,
    "long": -122.325207,
    "timestamp": 1562335167000,
    "description": "Aid Response",
    "entries": 2,
    "neighborhood": "First Hill",
    "neighborhoodGroup": "East",
    "unitCount": 2,
    "severity": 0,
    "units": "A5 L1",
    "address": "8th Av / Jefferson St"
  },
  {
    "id_str": "F190070531",
    "created_at": "7/5/2019 6:58:59 AM",
    "lat": 47.615299,
    "long": -122.298593,
    "timestamp": 1562335139000,
    "description": "Medic Response",
    "entries": 2,
    "neighborhood": "Central Area/Squire Park",
    "neighborhoodGroup": "Central",
    "unitCount": 3,
    "severity": 0,
    "units": "A25 L10 M1",
    "address": "2614 E Pine St"
  },
  {
    "id_str": "F190070530",
    "created_at": "7/5/2019 6:53:04 AM",
    "lat": 47.604377,
    "long": -122.325207,
    "timestamp": 1562334784000,
    "description": "Aid Response",
    "entries": 2,
    "neighborhood": "First Hill",
    "neighborhoodGroup": "East",
    "unitCount": 2,
    "severity": 0,
    "units": "E10 M10",
    "address": "800 Jefferson St"
  },
  {
    "id_str": "F190070529",
    "created_at": "7/5/2019 6:52:58 AM",
    "lat": 47.631378,
    "long": -122.359203,
    "timestamp": 1562334778000,
    "description": "Aid Response",
    "entries": 1,
    "neighborhood": "Queen Anne",
    "neighborhoodGroup": "Magnolia/Queen Anne",
    "unitCount": 1,
    "severity": 0,
    "units": "E8",
    "address": "1407 2nd Av W"
  },
  {
    "id_str": "F190070527",
    "created_at": "7/5/2019 6:49:31 AM",
    "lat": 47.609285,
    "long": -122.338904,
    "timestamp": 1562334571000,
    "description": "Medic Response, 6 per Rule",
    "entries": 2,
    "neighborhood": "Downtown Commercial Core",
    "neighborhoodGroup": "Downtown",
    "unitCount": 3,
    "severity": 0,
    "units": "A10 E5 M1",
    "address": "2nd Av / Pike St"
  },
  {
    "id_str": "F190070526",
    "created_at": "7/5/2019 6:40:30 AM",
    "lat": 47.598322,
    "long": -122.327671,
    "timestamp": 1562334030000,
    "description": "Aid Response",
    "entries": 1,
    "neighborhood": "Pioneer Square/International District",
    "neighborhoodGroup": "Downtown",
    "unitCount": 1,
    "severity": 0,
    "units": "A5",
    "address": "504 5th Av S"
  },
  {
    "id_str": "F190070525",
    "created_at": "7/5/2019 6:36:34 AM",
    "lat": 47.60171,
    "long": -122.326351,
    "timestamp": 1562333794000,
    "description": "Aid Response",
    "entries": 1,
    "neighborhood": "Pioneer Square/International District",
    "neighborhoodGroup": "Downtown",
    "unitCount": 1,
    "severity": 0,
    "units": "A10",
    "address": "6th Av / Yesler Way"
  },
  {
    "id_str": "F190070524",
    "created_at": "7/5/2019 6:32:02 AM",
    "lat": 47.701742,
    "long": -122.335029,
    "timestamp": 1562333522000,
    "description": "Aid Response Yellow",
    "entries": 1,
    "neighborhood": "Licton Springs",
    "neighborhoodGroup": "Northwest",
    "unitCount": 1,
    "severity": 0,
    "units": "E16",
    "address": "10049 College Way N"
  },
  {
    "id_str": "F190070523",
    "created_at": "7/5/2019 6:28:10 AM",
    "lat": 47.61973,
    "long": -122.345007,
    "timestamp": 1562333290000,
    "description": "Bark Fire",
    "entries": 1,
    "neighborhood": "Cascade/Eastlake",
    "neighborhoodGroup": "Lake Union",
    "unitCount": 1,
    "severity": 0,
    "units": "E2",
    "address": "6th Av N / John St"
  },
  {
    "id_str": "F190070522",
    "created_at": "7/5/2019 6:25:47 AM",
    "lat": 47.679464,
    "long": -122.393758,
    "timestamp": 1562333147000,
    "description": "Investigate Out Of Service",
    "entries": 1,
    "neighborhood": "Sunset Hill/Loyal Heights",
    "neighborhoodGroup": "Ballard",
    "unitCount": 1,
    "severity": 0,
    "units": "E18",
    "address": "2858 Nw 70th St"
  },
  {
    "id_str": "F190070519",
    "created_at": "7/5/2019 5:59:24 AM",
    "lat": 47.600194,
    "long": -122.330541,
    "timestamp": 1562331564000,
    "description": "Medic Response",
    "entries": 2,
    "neighborhood": "Pioneer Square/International District",
    "neighborhoodGroup": "Downtown",
    "unitCount": 3,
    "severity": 0,
    "units": "A5 E10 M10",
    "address": "318 2nd Av Et S"
  },
  {
    "id_str": "F190070517",
    "created_at": "7/5/2019 5:44:28 AM",
    "lat": 47.521333,
    "long": -122.283688,
    "timestamp": 1562330668000,
    "description": "Medic Response",
    "entries": 2,
    "neighborhood": "South Beacon Hill/NewHolly",
    "neighborhoodGroup": "Greater Duwamish",
    "unitCount": 2,
    "severity": 0,
    "units": "E33 M28",
    "address": "9203 39TH AV S"
  },
  {
    "id_str": "F190070516",
    "created_at": "7/5/2019 5:41:37 AM",
    "lat": 47.599187,
    "long": -122.317225,
    "timestamp": 1562330497000,
    "description": "Aid Response",
    "entries": 1,
    "neighborhood": "Pioneer Square/International District",
    "neighborhoodGroup": "Downtown",
    "unitCount": 1,
    "severity": 0,
    "units": "A10",
    "address": "12th Av S / S Jackson St"
  },
  {
    "id_str": "F190070514",
    "created_at": "7/5/2019 5:26:49 AM",
    "lat": 47.613001,
    "long": -122.330025,
    "timestamp": 1562329609000,
    "description": "Aid Response Yellow",
    "entries": 1,
    "neighborhood": "First Hill",
    "neighborhoodGroup": "East",
    "unitCount": 1,
    "severity": 0,
    "units": "A2",
    "address": "Pike St / Hubbell Pl"
  },
  {
    "id_str": "F190070513",
    "created_at": "7/5/2019 5:23:58 AM",
    "lat": 47.700241,
    "long": -122.366049,
    "timestamp": 1562329438000,
    "description": "Aid Response",
    "entries": 1,
    "neighborhood": "North Beach/Blue Ridge",
    "neighborhoodGroup": "Ballard",
    "unitCount": 1,
    "severity": 0,
    "units": "E35",
    "address": "9722 8th Av Nw"
  },
  {
    "id_str": "F190070511",
    "created_at": "7/5/2019 5:22:54 AM",
    "lat": 47.616713,
    "long": -122.325548,
    "timestamp": 1562329374000,
    "description": "Aid Response",
    "entries": 1,
    "neighborhood": "Capitol Hill",
    "neighborhoodGroup": "East",
    "unitCount": 1,
    "severity": 0,
    "units": "E25",
    "address": "1727 Summit Av"
  },
  {
    "id_str": "F190070510",
    "created_at": "7/5/2019 5:20:42 AM",
    "lat": 47.612991,
    "long": -122.316463,
    "timestamp": 1562329242000,
    "description": "Activated CO Detector",
    "entries": 1,
    "neighborhood": "Capitol Hill",
    "neighborhoodGroup": "East",
    "unitCount": 1,
    "severity": 0,
    "units": "L10",
    "address": "1222 E Madison St"
  },
  {
    "id_str": "F190070509",
    "created_at": "7/5/2019 5:04:32 AM",
    "lat": 47.595814,
    "long": -122.312821,
    "timestamp": 1562328272000,
    "description": "Aid Response",
    "entries": 1,
    "neighborhood": "North Beacon Hill/Jefferson Park",
    "neighborhoodGroup": "Greater Duwamish",
    "unitCount": 1,
    "severity": 0,
    "units": "A5",
    "address": "Poplar Pl S / S Dearborn St"
  },
  {
    "id_str": "F190070508",
    "created_at": "7/5/2019 4:55:13 AM",
    "lat": 47.611943,
    "long": -122.325987,
    "timestamp": 1562327713000,
    "description": "Aid Response",
    "entries": 1,
    "neighborhood": "First Hill",
    "neighborhoodGroup": "East",
    "unitCount": 1,
    "severity": 0,
    "units": "A25",
    "address": "1200 University St"
  },
  {
    "id_str": "F190070507",
    "created_at": "7/5/2019 4:46:25 AM",
    "lat": 47.618997,
    "long": -122.294809,
    "timestamp": 1562327185000,
    "description": "Aid Response",
    "entries": 1,
    "neighborhood": "Central Area/Squire Park",
    "neighborhoodGroup": "Central",
    "unitCount": 1,
    "severity": 0,
    "units": "E34",
    "address": "109 29th Av E"
  },
  {
    "id_str": "F190070506",
    "created_at": "7/5/2019 4:45:53 AM",
    "lat": 47.679478,
    "long": -122.322726,
    "timestamp": 1562327153000,
    "description": "Aid Response",
    "entries": 1,
    "neighborhood": "Green Lake",
    "neighborhoodGroup": "Northwest",
    "unitCount": 1,
    "severity": 0,
    "units": "E16",
    "address": "505 Ne 70th St"
  },
  {
    "id_str": "F190070505",
    "created_at": "7/5/2019 4:14:01 AM",
    "lat": 47.619839,
    "long": -122.342391,
    "timestamp": 1562325241000,
    "description": "Auto Fire Alarm",
    "entries": 1,
    "neighborhood": "Cascade/Eastlake",
    "neighborhoodGroup": "Lake Union",
    "unitCount": 2,
    "severity": 0,
    "units": "E2 L4",
    "address": "211 Dexter Av N"
  },
  {
    "id_str": "F190070504",
    "created_at": "7/5/2019 4:03:54 AM",
    "lat": 47.600194,
    "long": -122.330541,
    "timestamp": 1562324634000,
    "description": "Aid Response",
    "entries": 1,
    "neighborhood": "Pioneer Square/International District",
    "neighborhoodGroup": "Downtown",
    "unitCount": 1,
    "severity": 0,
    "units": "A10",
    "address": "318 2nd Av Et S"
  },
  {
    "id_str": "F190070503",
    "created_at": "7/5/2019 4:01:33 AM",
    "lat": 47.675879,
    "long": -122.323108,
    "timestamp": 1562324493000,
    "description": "Aid Response",
    "entries": 1,
    "neighborhood": "Green Lake",
    "neighborhoodGroup": "Northwest",
    "unitCount": 1,
    "severity": 0,
    "units": "E16",
    "address": "500 Ne 65th St"
  },
  {
    "id_str": "F190070502",
    "created_at": "7/5/2019 4:00:32 AM",
    "lat": 47.606624,
    "long": -122.331628,
    "timestamp": 1562324432000,
    "description": "Aid Response",
    "entries": 1,
    "neighborhood": "First Hill",
    "neighborhoodGroup": "East",
    "unitCount": 1,
    "severity": 0,
    "units": "A5",
    "address": "515 Madison St"
  },
  {
    "id_str": "F190070501",
    "created_at": "7/5/2019 3:50:55 AM",
    "lat": 47.608584,
    "long": -122.340581,
    "timestamp": 1562323855000,
    "description": "Aid Response Yellow",
    "entries": 1,
    "neighborhood": "Downtown Commercial Core",
    "neighborhoodGroup": "Downtown",
    "unitCount": 1,
    "severity": 0,
    "units": "E5",
    "address": "85 PIKE ST"
  },
  {
    "id_str": "F190070500",
    "created_at": "7/5/2019 3:47:08 AM",
    "lat": 47.614317,
    "long": -122.316839,
    "timestamp": 1562323628000,
    "description": "Aid Response",
    "entries": 1,
    "neighborhood": "Capitol Hill",
    "neighborhoodGroup": "East",
    "unitCount": 1,
    "severity": 0,
    "units": "E25",
    "address": "1519 12th Av"
  },
  {
    "id_str": "F190070499",
    "created_at": "7/5/2019 3:26:43 AM",
    "lat": 47.61055,
    "long": -122.329318,
    "timestamp": 1562322403000,
    "description": "Medic Response",
    "entries": 1,
    "neighborhood": "First Hill",
    "neighborhoodGroup": "East",
    "unitCount": 2,
    "severity": 0,
    "units": "A25 M1",
    "address": "900 University St"
  },
  {
    "id_str": "F190070498",
    "created_at": "7/5/2019 2:53:47 AM",
    "lat": 47.618733,
    "long": -122.322146,
    "timestamp": 1562320427000,
    "description": "Aid Response",
    "entries": 1,
    "neighborhood": "Capitol Hill",
    "neighborhoodGroup": "East",
    "unitCount": 1,
    "severity": 0,
    "units": "A25",
    "address": "803 E Denny Way"
  },
  {
    "id_str": "F190070497",
    "created_at": "7/5/2019 2:39:12 AM",
    "lat": 47.63592,
    "long": -122.31875,
    "timestamp": 1562319552000,
    "description": "Aid Response",
    "entries": 1,
    "neighborhood": "North Capitol Hill",
    "neighborhoodGroup": "East",
    "unitCount": 1,
    "severity": 0,
    "units": "E22",
    "address": "1063 E Howe St"
  },
  {
    "id_str": "F190070494",
    "created_at": "7/5/2019 2:11:35 AM",
    "lat": 47.618493,
    "long": -122.326726,
    "timestamp": 1562317895000,
    "description": "Aid Response",
    "entries": 1,
    "neighborhood": "Capitol Hill",
    "neighborhoodGroup": "East",
    "unitCount": 1,
    "severity": 0,
    "units": "A25",
    "address": "E DENNY WAY / BELLEVUE AV E"
  },
  {
    "id_str": "F190070493",
    "created_at": "7/5/2019 2:09:22 AM",
    "lat": 47.53705,
    "long": -122.280473,
    "timestamp": 1562317762000,
    "description": "Medic Response, 7 per Rule",
    "entries": 1,
    "neighborhood": "Columbia City",
    "neighborhoodGroup": "Southeast",
    "unitCount": 3,
    "severity": 0,
    "units": "E28 L12 M28",
    "address": "4219 S Othello St"
  },
  {
    "id_str": "F190070489",
    "created_at": "7/5/2019 1:49:16 AM",
    "lat": 47.531605,
    "long": -122.368538,
    "timestamp": 1562316556000,
    "description": "Medic Response",
    "entries": 1,
    "neighborhood": "Roxhill/Westwood",
    "neighborhoodGroup": "Delridge Neighborhoods",
    "unitCount": 2,
    "severity": 0,
    "units": "E37 M32",
    "address": "7931 28th Av Sw"
  },
  {
    "id_str": "F190070488",
    "created_at": "7/5/2019 1:46:22 AM",
    "lat": 47.575959,
    "long": -122.414654,
    "timestamp": 1562316382000,
    "description": "Illegal Burn",
    "entries": 1,
    "neighborhood": "Alki/Admiral",
    "neighborhoodGroup": "Southwest",
    "unitCount": 1,
    "severity": 0,
    "units": "E29",
    "address": "64th Av Sw / Sw Admiral Way"
  },
  {
    "id_str": "F190070486",
    "created_at": "7/5/2019 1:28:01 AM",
    "lat": 47.647021,
    "long": -122.398262,
    "timestamp": 1562315281000,
    "description": "Aid Response Yellow",
    "entries": 1,
    "neighborhood": "Magnolia",
    "neighborhoodGroup": "Magnolia/Queen Anne",
    "unitCount": 1,
    "severity": 0,
    "units": "E41",
    "address": "3023 32nd Av W"
  },
  {
    "id_str": "F190070485",
    "created_at": "7/5/2019 1:27:43 AM",
    "lat": 47.613546,
    "long": -122.328721,
    "timestamp": 1562315263000,
    "description": "Aid Response",
    "entries": 1,
    "neighborhood": "First Hill",
    "neighborhoodGroup": "East",
    "unitCount": 1,
    "severity": 0,
    "units": "L10",
    "address": "1117 Pike St"
  },
  {
    "id_str": "F190070484",
    "created_at": "7/5/2019 1:18:44 AM",
    "lat": 47.614085,
    "long": -122.319447,
    "timestamp": 1562314724000,
    "description": "Aid Response",
    "entries": 1,
    "neighborhood": "Capitol Hill",
    "neighborhoodGroup": "East",
    "unitCount": 1,
    "severity": 0,
    "units": "E25",
    "address": "10th Av / E Pike St"
  },
  {
    "id_str": "F190070483",
    "created_at": "7/5/2019 1:16:04 AM",
    "lat": 47.572682,
    "long": -122.413379,
    "timestamp": 1562314564000,
    "description": "Illegal Burn",
    "entries": 1,
    "neighborhood": "Alki/Admiral",
    "neighborhoodGroup": "Southwest",
    "unitCount": 1,
    "severity": 0,
    "units": "E29",
    "address": "3509 63rd Av Sw"
  },
  {
    "id_str": "F190070482",
    "created_at": "7/5/2019 1:13:02 AM",
    "lat": 47.614085,
    "long": -122.319447,
    "timestamp": 1562314382000,
    "description": "Aid Response",
    "entries": 1,
    "neighborhood": "Capitol Hill",
    "neighborhoodGroup": "East",
    "unitCount": 1,
    "severity": 0,
    "units": "A25",
    "address": "10th Av / E Pike St"
  },
  {
    "id_str": "F190070481",
    "created_at": "7/5/2019 1:12:36 AM",
    "lat": 47.639106,
    "long": -122.348143,
    "timestamp": 1562314356000,
    "description": "Automatic Fire Alarm Resd",
    "entries": 1,
    "neighborhood": "Queen Anne",
    "neighborhoodGroup": "Magnolia/Queen Anne",
    "unitCount": 1,
    "severity": 0,
    "units": "E8",
    "address": "456 Lynn St"
  },
  {
    "id_str": "F190070479",
    "created_at": "7/5/2019 1:05:03 AM",
    "lat": 47.601716,
    "long": -122.330265,
    "timestamp": 1562313903000,
    "description": "Illegal Burn",
    "entries": 1,
    "neighborhood": "Downtown Commercial Core",
    "neighborhoodGroup": "Downtown",
    "unitCount": 1,
    "severity": 0,
    "units": "E10",
    "address": "3rd Av / Yesler Way"
  },
  {
    "id_str": "F190070477",
    "created_at": "7/5/2019 12:54:04 AM",
    "lat": 47.618571,
    "long": -122.347621,
    "timestamp": 1562313244000,
    "description": "MVI - Motor Vehicle Incident",
    "entries": 1,
    "neighborhood": "Cascade/Eastlake",
    "neighborhoodGroup": "Lake Union",
    "unitCount": 1,
    "severity": 0,
    "units": "E2",
    "address": "5th Av N / Denny Way"
  },
  {
    "id_str": "F190070475",
    "created_at": "7/5/2019 12:44:23 AM",
    "lat": 47.618801,
    "long": -122.311432,
    "timestamp": 1562312663000,
    "description": "Medic Response",
    "entries": 2,
    "neighborhood": "Miller Park",
    "neighborhoodGroup": "East",
    "unitCount": 2,
    "severity": 0,
    "units": "A25 M17",
    "address": "125 16th Av E"
  },
  {
    "id_str": "F190070474",
    "created_at": "7/5/2019 12:44:05 AM",
    "lat": 47.615283,
    "long": -122.313941,
    "timestamp": 1562312645000,
    "description": "Aid Response",
    "entries": 1,
    "neighborhood": "Capitol Hill",
    "neighborhoodGroup": "East",
    "unitCount": 1,
    "severity": 0,
    "units": "E25",
    "address": "1420 E Pine St"
  },
  {
    "id_str": "F190070470",
    "created_at": "7/5/2019 12:30:50 AM",
    "lat": 47.57551,
    "long": -122.385667,
    "timestamp": 1562311850000,
    "description": "Medic Response",
    "entries": 2,
    "neighborhood": "West Seattle Junction/Genesee Hill",
    "neighborhoodGroup": "Southwest",
    "unitCount": 2,
    "severity": 0,
    "units": "E32 M10",
    "address": "3209 42nd Av Sw"
  },
  {
    "id_str": "F190070468",
    "created_at": "7/5/2019 12:28:06 AM",
    "lat": 47.602172,
    "long": -122.330863,
    "timestamp": 1562311686000,
    "description": "Medic Response",
    "entries": 2,
    "neighborhood": "Downtown Commercial Core",
    "neighborhoodGroup": "Downtown",
    "unitCount": 3,
    "severity": 0,
    "units": "A10 E10 M1",
    "address": "517 3rd Av"
  },
  {
    "id_str": "F190070465",
    "created_at": "7/5/2019 12:19:39 AM",
    "lat": 47.562049,
    "long": -122.290992,
    "timestamp": 1562311179000,
    "description": "Brush Fire",
    "entries": 1,
    "neighborhood": "Columbia City",
    "neighborhoodGroup": "Southeast",
    "unitCount": 1,
    "severity": 0,
    "units": "E28",
    "address": "4536 33rd Av S"
  },
  {
    "id_str": "F190070464",
    "created_at": "7/5/2019 12:14:47 AM",
    "lat": 47.696217,
    "long": -122.351255,
    "timestamp": 1562310887000,
    "description": "Brush Fire",
    "entries": 1,
    "neighborhood": "Greenwood/Phinney Ridge",
    "neighborhoodGroup": "Northwest",
    "unitCount": 1,
    "severity": 0,
    "units": "E35",
    "address": "9234 Evanston Av N"
  },
  {
    "id_str": "F190070463",
    "created_at": "7/5/2019 12:10:52 AM",
    "lat": 47.57981,
    "long": -122.329988,
    "timestamp": 1562310652000,
    "description": "Aid Response",
    "entries": 1,
    "neighborhood": "Duwamish/SODO",
    "neighborhoodGroup": "Greater Duwamish",
    "unitCount": 1,
    "severity": 0,
    "units": "A14",
    "address": "3RD AV S / S LANDER ST"
  },
  {
    "id_str": "F190070462",
    "created_at": "7/5/2019 12:10:33 AM",
    "lat": 47.580506,
    "long": -122.39614,
    "timestamp": 1562310633000,
    "description": "Medic Response",
    "entries": 2,
    "neighborhood": "West Seattle Junction/Genesee Hill",
    "neighborhoodGroup": "Southwest",
    "unitCount": 2,
    "severity": 0,
    "units": "E29 M32",
    "address": "5059 Sw Olga St"
  },
  {
    "id_str": "F190070461",
    "created_at": "7/5/2019 12:08:14 AM",
    "lat": 47.556437,
    "long": -122.360127,
    "timestamp": 1562310494000,
    "description": "Aid Response",
    "entries": 1,
    "neighborhood": "Riverview",
    "neighborhoodGroup": "Delridge Neighborhoods",
    "unitCount": 1,
    "severity": 0,
    "units": "E36",
    "address": "5249 21st Av Sw"
  },
  {
    "id_str": "F190070460",
    "created_at": "7/5/2019 12:06:20 AM",
    "lat": 47.64959,
    "long": -122.349747,
    "timestamp": 1562310380000,
    "description": "Aid Response",
    "entries": 1,
    "neighborhood": "Fremont",
    "neighborhoodGroup": "Lake Union",
    "unitCount": 1,
    "severity": 0,
    "units": "E9",
    "address": "N 34th St / Fremont Av N"
  },
  {
    "id_str": "F190070456",
    "created_at": "7/4/2019 11:53:53 PM",
    "lat": 47.540318,
    "long": -122.282693,
    "timestamp": 1562309633000,
    "description": "Rescue Elevator",
    "entries": 2,
    "neighborhood": "South Beacon Hill/NewHolly",
    "neighborhoodGroup": "Greater Duwamish",
    "unitCount": 2,
    "severity": 0,
    "units": "L12 R1",
    "address": "6940 M L King Jr Way S"
  },
  {
    "id_str": "F190070455",
    "created_at": "7/4/2019 11:53:07 PM",
    "lat": 47.605873,
    "long": -122.335782,
    "timestamp": 1562309587000,
    "description": "Aid Response",
    "entries": 1,
    "neighborhood": "Downtown Commercial Core",
    "neighborhoodGroup": "Downtown",
    "unitCount": 1,
    "severity": 0,
    "units": "E5",
    "address": "1100 2nd Av"
  },
  {
    "id_str": "F190070453",
    "created_at": "7/4/2019 11:49:40 PM",
    "lat": 47.60975,
    "long": -122.337793,
    "timestamp": 1562309380000,
    "description": "Medic Response",
    "entries": 2,
    "neighborhood": "Downtown Commercial Core",
    "neighborhoodGroup": "Downtown",
    "unitCount": 2,
    "severity": 0,
    "units": "A2 M1",
    "address": "Pike St / 3rd Av"
  },
  {
    "id_str": "F190070452",
    "created_at": "7/4/2019 11:49:29 PM",
    "lat": 47.676023,
    "long": -122.354353,
    "timestamp": 1562309369000,
    "description": "Aid Response",
    "entries": 1,
    "neighborhood": "Greenwood/Phinney Ridge",
    "neighborhoodGroup": "Northwest",
    "unitCount": 1,
    "severity": 0,
    "units": "E21",
    "address": "N 65th St / Phinney Av N"
  },
  {
    "id_str": "F190070450",
    "created_at": "7/4/2019 11:47:08 PM",
    "lat": 47.691217,
    "long": -122.304167,
    "timestamp": 1562309228000,
    "description": "4RED - 2 + 1 + 1",
    "entries": 1,
    "neighborhood": "Wedgwood/View Ridge",
    "neighborhoodGroup": "Northeast",
    "unitCount": 4,
    "severity": 0,
    "units": "B6 E16 E40 L5",
    "address": "8606 23rd Av Ne"
  },
  {
    "id_str": "F190070449",
    "created_at": "7/4/2019 11:46:58 PM",
    "lat": 47.561443,
    "long": -122.291,
    "timestamp": 1562309218000,
    "description": "Brush Fire",
    "entries": 1,
    "neighborhood": "Columbia City",
    "neighborhoodGroup": "Southeast",
    "unitCount": 1,
    "severity": 0,
    "units": "E30",
    "address": "Renton Av S / 33rd Av S"
  },
  {
    "id_str": "F190070448",
    "created_at": "7/4/2019 11:45:28 PM",
    "lat": 47.579471,
    "long": -122.312377,
    "timestamp": 1562309128000,
    "description": "Rescue Elevator",
    "entries": 1,
    "neighborhood": "North Beacon Hill/Jefferson Park",
    "neighborhoodGroup": "Greater Duwamish",
    "unitCount": 1,
    "severity": 0,
    "units": "R1",
    "address": "2700 Beacon Av S"
  },
  {
    "id_str": "F190070445",
    "created_at": "7/4/2019 11:41:16 PM",
    "lat": 47.537605,
    "long": -122.275343,
    "timestamp": 1562308876000,
    "description": "Aid Response",
    "entries": 1,
    "neighborhood": "Columbia City",
    "neighborhoodGroup": "Southeast",
    "unitCount": 1,
    "severity": 0,
    "units": "E28",
    "address": "7204 46th Av S"
  },
  {
    "id_str": "F190070447",
    "created_at": "7/4/2019 11:40:48 PM",
    "lat": 47.53705,
    "long": -122.280473,
    "timestamp": 1562308848000,
    "description": "Aid Response",
    "entries": 1,
    "neighborhood": "Columbia City",
    "neighborhoodGroup": "Southeast",
    "unitCount": 1,
    "severity": 0,
    "units": "L12",
    "address": "4219 S Othello St"
  },
  {
    "id_str": "F190070444",
    "created_at": "7/4/2019 11:39:55 PM",
    "lat": 47.560172,
    "long": -122.317346,
    "timestamp": 1562308795000,
    "description": "1RED 1 Unit",
    "entries": 1,
    "neighborhood": "Beacon Hill",
    "neighborhoodGroup": "Greater Duwamish",
    "unitCount": 1,
    "severity": 0,
    "units": "E13",
    "address": "4801 Corson Av S"
  },
  {
    "id_str": "F190070441",
    "created_at": "7/4/2019 11:31:06 PM",
    "lat": 47.66338,
    "long": -122.308349,
    "timestamp": 1562308266000,
    "description": "Aid Response",
    "entries": 1,
    "neighborhood": "University District",
    "neighborhoodGroup": "Northeast",
    "unitCount": 1,
    "severity": 0,
    "units": "L9",
    "address": "4754 18TH AV NE"
  },
  {
    "id_str": "F190070436",
    "created_at": "7/4/2019 11:27:54 PM",
    "lat": 47.635669,
    "long": -122.302277,
    "timestamp": 1562308074000,
    "description": "Automatic Medical Alarm",
    "entries": 1,
    "neighborhood": "Montlake/Portage Bay",
    "neighborhoodGroup": "Northeast",
    "unitCount": 1,
    "severity": 0,
    "units": "E22",
    "address": "1808 23rd Av E"
  },
  {
    "id_str": "F190070435",
    "created_at": "7/4/2019 11:25:58 PM",
    "lat": 47.662616,
    "long": -122.33003,
    "timestamp": 1562307958000,
    "description": "Automatic Medical Alarm",
    "entries": 1,
    "neighborhood": "Wallingford",
    "neighborhoodGroup": "Lake Union",
    "unitCount": 1,
    "severity": 0,
    "units": "E17",
    "address": "2410 N 46th St"
  },
  {
    "id_str": "F190070431",
    "created_at": "7/4/2019 11:11:04 PM",
    "lat": 47.575086,
    "long": -122.307431,
    "timestamp": 1562307064000,
    "description": "Car Fire",
    "entries": 1,
    "neighborhood": "North Beacon Hill/Jefferson Park",
    "neighborhoodGroup": "Greater Duwamish",
    "unitCount": 1,
    "severity": 0,
    "units": "E13",
    "address": "19th Av S / S Hanford St"
  },
  {
    "id_str": "F190070428",
    "created_at": "7/4/2019 11:08:38 PM",
    "lat": 47.513371,
    "long": -122.259389,
    "timestamp": 1562306918000,
    "description": "Car Fire",
    "entries": 2,
    "neighborhood": "Rainier Beach",
    "neighborhoodGroup": "Southeast",
    "unitCount": 2,
    "severity": 0,
    "units": "E33 MAR5",
    "address": "S Norfolk St / 59th Av S"
  },
  {
    "id_str": "F190070427",
    "created_at": "7/4/2019 11:07:14 PM",
    "lat": 47.648729,
    "long": -122.344016,
    "timestamp": 1562306834000,
    "description": "Aid Response",
    "entries": 1,
    "neighborhood": "Fremont",
    "neighborhoodGroup": "Lake Union",
    "unitCount": 1,
    "severity": 0,
    "units": "E31",
    "address": "1104 N 34th St"
  },
  {
    "id_str": "F190070424",
    "created_at": "7/4/2019 11:07:09 PM",
    "lat": 47.654152,
    "long": -122.354466,
    "timestamp": 1562306829000,
    "description": "MVI - Motor Vehicle Incident",
    "entries": 1,
    "neighborhood": "Fremont",
    "neighborhoodGroup": "Lake Union",
    "unitCount": 1,
    "severity": 0,
    "units": "E18",
    "address": "Phinney Av N / N 39th St"
  },
  {
    "id_str": "V190070423",
    "created_at": "7/4/2019 11:05:12 PM",
    "lat": 47.511778,
    "long": -122.320113,
    "timestamp": 1562306712000,
    "description": "Mutual Aid, Engine",
    "entries": 1,
    "unitCount": 2,
    "severity": 0,
    "units": "B7 E26",
    "address": "10237 10th Av S"
  },
  {
    "id_str": "F190070422",
    "created_at": "7/4/2019 11:04:00 PM",
    "lat": 47.718096,
    "long": -122.312634,
    "timestamp": 1562306640000,
    "description": "Aid Response",
    "entries": 2,
    "neighborhood": "Olympic Hills/Victory Heights",
    "neighborhoodGroup": "North",
    "unitCount": 2,
    "severity": 0,
    "units": "E39 L5",
    "address": "12355 15th Av Ne"
  },
  {
    "id_str": "F190070421",
    "created_at": "7/4/2019 10:57:30 PM",
    "lat": 47.69064,
    "long": -122.401969,
    "timestamp": 1562306250000,
    "description": "Aid Response",
    "entries": 1,
    "neighborhood": "Sunset Hill/Loyal Heights",
    "neighborhoodGroup": "Ballard",
    "unitCount": 1,
    "severity": 0,
    "units": "E35",
    "address": "8498 SEAVIEW PL NW"
  },
  {
    "id_str": "F190070420",
    "created_at": "7/4/2019 10:57:03 PM",
    "lat": 47.569588,
    "long": -122.286102,
    "timestamp": 1562306223000,
    "description": "Alarm Bell",
    "entries": 1,
    "neighborhood": "Columbia City",
    "neighborhoodGroup": "Southeast",
    "unitCount": 2,
    "severity": 0,
    "units": "E30 L12",
    "address": "3819 37th Av S"
  },
  {
    "id_str": "F190070419",
    "created_at": "7/4/2019 10:56:18 PM",
    "lat": 47.658939,
    "long": -122.366112,
    "timestamp": 1562306178000,
    "description": "Aid Response",
    "entries": 1,
    "neighborhood": "Ballard",
    "neighborhoodGroup": "Ballard",
    "unitCount": 1,
    "severity": 0,
    "units": "E9",
    "address": "8th Av Nw / Nw 43rd St"
  },
  {
    "id_str": "F190070418",
    "created_at": "7/4/2019 10:55:29 PM",
    "lat": 47.518843,
    "long": -122.356494,
    "timestamp": 1562306129000,
    "description": "MVI - Motor Vehicle Incident",
    "entries": 1,
    "neighborhood": "Roxhill/Westwood",
    "neighborhoodGroup": "Delridge Neighborhoods",
    "unitCount": 1,
    "severity": 0,
    "units": "E11",
    "address": "Delridge Way Sw / 17th Av Sw"
  },
  {
    "id_str": "F190070414",
    "created_at": "7/4/2019 10:51:14 PM",
    "lat": 47.553321,
    "long": -122.362969,
    "timestamp": 1562305874000,
    "description": "Aid Response",
    "entries": 1,
    "neighborhood": "High Point",
    "neighborhoodGroup": "Delridge Neighborhoods",
    "unitCount": 1,
    "severity": 0,
    "units": "E36",
    "address": "5444 Delridge Way Sw"
  },
  {
    "id_str": "F190070413",
    "created_at": "7/4/2019 10:50:05 PM",
    "lat": 47.531257,
    "long": -122.325231,
    "timestamp": 1562305805000,
    "description": "Rubbish Fire",
    "entries": 1,
    "neighborhood": "South Park",
    "neighborhoodGroup": "Greater Duwamish",
    "unitCount": 1,
    "severity": 0,
    "units": "E26",
    "address": "710 S Monroe St"
  },
  {
    "id_str": "F190070408",
    "created_at": "7/4/2019 10:41:04 PM",
    "lat": 47.648069,
    "long": -122.342163,
    "timestamp": 1562305264000,
    "description": "Single Medic Unit",
    "entries": 1,
    "neighborhood": "Fremont",
    "neighborhoodGroup": "Lake Union",
    "unitCount": 1,
    "severity": 0,
    "units": "M17",
    "address": "1341 N Northlake Way"
  },
  {
    "id_str": "F190070406",
    "created_at": "7/4/2019 10:35:10 PM",
    "lat": 47.529392,
    "long": -122.269988,
    "timestamp": 1562304910000,
    "description": "Aid Response",
    "entries": 1,
    "neighborhood": "Rainier Beach",
    "neighborhoodGroup": "Southeast",
    "unitCount": 1,
    "severity": 0,
    "units": "E33",
    "address": "8334 Rainier Av S"
  },
  {
    "id_str": "F190070405",
    "created_at": "7/4/2019 10:34:20 PM",
    "lat": 47.603514,
    "long": -122.316782,
    "timestamp": 1562304860000,
    "description": "Aid Response",
    "entries": 1,
    "neighborhood": "First Hill",
    "neighborhoodGroup": "East",
    "unitCount": 1,
    "severity": 0,
    "units": "A5",
    "address": "12th Av / E Spruce St"
  },
  {
    "id_str": "F190070404",
    "created_at": "7/4/2019 10:33:03 PM",
    "lat": 47.621987,
    "long": -122.320766,
    "timestamp": 1562304783000,
    "description": "Unk Odor",
    "entries": 1,
    "neighborhood": "Capitol Hill",
    "neighborhoodGroup": "East",
    "unitCount": 1,
    "severity": 0,
    "units": "L10",
    "address": "914 E Harrison St"
  },
  {
    "id_str": "F190070401",
    "created_at": "7/4/2019 10:31:25 PM",
    "lat": 47.622394,
    "long": -122.356727,
    "timestamp": 1562304685000,
    "description": "Rescue Elevator",
    "entries": 1,
    "neighborhood": "Queen Anne",
    "neighborhoodGroup": "Magnolia/Queen Anne",
    "unitCount": 1,
    "severity": 0,
    "units": "L6",
    "address": "425 Queen Anne Av N"
  },
  {
    "id_str": "F190070399",
    "created_at": "7/4/2019 10:27:05 PM",
    "lat": 47.623398,
    "long": -122.333002,
    "timestamp": 1562304425000,
    "description": "Rescue Elevator",
    "entries": 1,
    "neighborhood": "Cascade/Eastlake",
    "neighborhoodGroup": "Lake Union",
    "unitCount": 1,
    "severity": 0,
    "units": "L4",
    "address": "525 Minor Av N"
  },
  {
    "id_str": "F190070397",
    "created_at": "7/4/2019 10:25:00 PM",
    "lat": 47.611543,
    "long": -122.330225,
    "timestamp": 1562304300000,
    "description": "Medic Response",
    "entries": 1,
    "neighborhood": "First Hill",
    "neighborhoodGroup": "East",
    "unitCount": 2,
    "severity": 0,
    "units": "A25 M1",
    "address": "1400 Hubbell Pl"
  },
  {
    "id_str": "F190070398",
    "created_at": "7/4/2019 10:23:54 PM",
    "lat": 47.682717,
    "long": -122.330393,
    "timestamp": 1562304234000,
    "description": "1RED 1 Unit",
    "entries": 1,
    "neighborhood": "Green Lake",
    "neighborhoodGroup": "Northwest",
    "unitCount": 1,
    "severity": 0,
    "units": "E17",
    "address": "East Green Lake Dr N / Corliss Av N"
  },
  {
    "id_str": "F190070394",
    "created_at": "7/4/2019 10:22:47 PM",
    "lat": 47.582514,
    "long": -122.289788,
    "timestamp": 1562304167000,
    "description": "Automatic Fire Alarm Resd",
    "entries": 1,
    "neighborhood": "Mt. Baker/North Rainier",
    "neighborhoodGroup": "Southeast",
    "unitCount": 1,
    "severity": 0,
    "units": "E30",
    "address": "2300 34th Av S"
  },
  {
    "id_str": "F190070388",
    "created_at": "7/4/2019 10:19:31 PM",
    "lat": 47.628325,
    "long": -122.3271,
    "timestamp": 1562303971000,
    "description": "Aid Response",
    "entries": 1,
    "neighborhood": "Cascade/Eastlake",
    "neighborhoodGroup": "Lake Union",
    "unitCount": 1,
    "severity": 0,
    "units": "M10",
    "address": "Belmont Av E / Lakeview Blvd E"
  },
  {
    "id_str": "F190070386",
    "created_at": "7/4/2019 10:17:51 PM",
    "lat": 47.728198,
    "long": -122.328871,
    "timestamp": 1562303871000,
    "description": "MVI - Motor Vehicle Incident",
    "entries": 1,
    "neighborhood": "Haller Lake",
    "neighborhoodGroup": "Northwest",
    "unitCount": 1,
    "severity": 0,
    "units": "E39",
    "address": "13545 1st Av Ne"
  },
  {
    "id_str": "F190070385",
    "created_at": "7/4/2019 10:15:46 PM",
    "lat": 47.723218,
    "long": -122.348195,
    "timestamp": 1562303746000,
    "description": "Rubbish Fire",
    "entries": 1,
    "neighborhood": "Broadview/Bitter Lake",
    "neighborhoodGroup": "Northwest",
    "unitCount": 1,
    "severity": 0,
    "units": "E24",
    "address": "N 130th St / Linden Av N"
  },
  {
    "id_str": "F190070387",
    "created_at": "7/4/2019 10:11:30 PM",
    "lat": 47.63975,
    "long": -122.324677,
    "timestamp": 1562303490000,
    "description": "Rescue Elevator",
    "entries": 1,
    "neighborhood": "Montlake/Portage Bay",
    "neighborhoodGroup": "Northeast",
    "unitCount": 1,
    "severity": 0,
    "units": "L9",
    "address": "2303 Franklin Av E"
  },
  {
    "id_str": "F190070378",
    "created_at": "7/4/2019 10:07:05 PM",
    "lat": 47.569313,
    "long": -122.30733,
    "timestamp": 1562303225000,
    "description": "1RED 1 Unit",
    "entries": 1,
    "neighborhood": "North Beacon Hill/Jefferson Park",
    "neighborhoodGroup": "Greater Duwamish",
    "unitCount": 1,
    "severity": 0,
    "units": "E13",
    "address": "3801 Beacon Av S"
  },
  {
    "id_str": "F190070377",
    "created_at": "7/4/2019 10:06:46 PM",
    "lat": 47.543061,
    "long": -122.261808,
    "timestamp": 1562303206000,
    "description": "Illegal Burn",
    "entries": 1,
    "neighborhood": "Seward Park",
    "neighborhoodGroup": "Southeast",
    "unitCount": 1,
    "severity": 0,
    "units": "L12",
    "address": "6612 57th Av S"
  },
  {
    "id_str": "F190070376",
    "created_at": "7/4/2019 10:05:09 PM",
    "lat": 47.672474,
    "long": -122.323443,
    "timestamp": 1562303109000,
    "description": "Aid Response",
    "entries": 2,
    "neighborhood": "Green Lake",
    "neighborhoodGroup": "Northwest",
    "unitCount": 2,
    "severity": 0,
    "units": "CHAP5 E16",
    "address": "6033 5th Av Ne"
  },
  {
    "id_str": "F190070373",
    "created_at": "7/4/2019 10:02:25 PM",
    "lat": 47.609802,
    "long": -122.324029,
    "timestamp": 1562302945000,
    "description": "Auto Fire Alarm",
    "entries": 1,
    "neighborhood": "First Hill",
    "neighborhoodGroup": "East",
    "unitCount": 2,
    "severity": 0,
    "units": "E10 L10",
    "address": "1000 Minor Av"
  },
  {
    "id_str": "F190070372",
    "created_at": "7/4/2019 9:58:57 PM",
    "lat": 47.61682,
    "long": -122.307201,
    "timestamp": 1562302737000,
    "description": "Aid Response Yellow",
    "entries": 1,
    "neighborhood": "Central Area/Squire Park",
    "neighborhoodGroup": "Central",
    "unitCount": 1,
    "severity": 0,
    "units": "E25",
    "address": "1916 E Madison St"
  },
  {
    "id_str": "F190070370",
    "created_at": "7/4/2019 9:55:57 PM",
    "lat": 47.522267,
    "long": -122.271403,
    "timestamp": 1562302557000,
    "description": "Auto Fire Alarm",
    "entries": 1,
    "neighborhood": "Rainier Beach",
    "neighborhoodGroup": "Southeast",
    "unitCount": 2,
    "severity": 0,
    "units": "E33 L12",
    "address": "9105 50th Av S"
  },
  {
    "id_str": "F190070366",
    "created_at": "7/4/2019 9:42:31 PM",
    "lat": 47.693461,
    "long": -122.344556,
    "timestamp": 1562301751000,
    "description": "Aid Response",
    "entries": 1,
    "neighborhood": "Licton Springs",
    "neighborhoodGroup": "Northwest",
    "unitCount": 1,
    "severity": 0,
    "units": "E21",
    "address": "8900 Aurora Av N"
  },
  {
    "id_str": "F190070364",
    "created_at": "7/4/2019 9:41:52 PM",
    "lat": 47.722302,
    "long": -122.344967,
    "timestamp": 1562301712000,
    "description": "Brush Fire",
    "entries": 1,
    "neighborhood": "Broadview/Bitter Lake",
    "neighborhoodGroup": "Northwest",
    "unitCount": 1,
    "severity": 0,
    "units": "E24",
    "address": "N 128th St / Aurora Av N"
  },
  {
    "id_str": "F190070358",
    "created_at": "7/4/2019 9:34:47 PM",
    "lat": 47.566517,
    "long": -122.32673,
    "timestamp": 1562301287000,
    "description": "Aid Response",
    "entries": 1,
    "neighborhood": "Duwamish/SODO",
    "neighborhoodGroup": "Greater Duwamish",
    "unitCount": 1,
    "severity": 0,
    "units": "A14",
    "address": "6th Av S / S Industrial Way"
  },
  {
    "id_str": "F190070357",
    "created_at": "7/4/2019 9:32:27 PM",
    "lat": 47.69061,
    "long": -122.357982,
    "timestamp": 1562301147000,
    "description": "Trans to AMR",
    "entries": 1,
    "neighborhood": "Greenwood/Phinney Ridge",
    "neighborhoodGroup": "Northwest",
    "unitCount": 1,
    "severity": 0,
    "units": "E35",
    "address": "100 Nw 85th St"
  },
  {
    "id_str": "F190070356",
    "created_at": "7/4/2019 9:31:11 PM",
    "lat": 47.590775,
    "long": -122.297438,
    "timestamp": 1562301071000,
    "description": "Illegal Burn",
    "entries": 1,
    "neighborhood": "Mt. Baker/North Rainier",
    "neighborhoodGroup": "Southeast",
    "unitCount": 1,
    "severity": 0,
    "units": "E6",
    "address": "1400 M L King Jr Way S"
  },
  {
    "id_str": "F190070355",
    "created_at": "7/4/2019 9:30:01 PM",
    "lat": 47.634319,
    "long": -122.342285,
    "timestamp": 1562301001000,
    "description": "Rescue Elevator",
    "entries": 1,
    "neighborhood": "Queen Anne",
    "neighborhoodGroup": "Magnolia/Queen Anne",
    "unitCount": 1,
    "severity": 0,
    "units": "L4",
    "address": "1735 Dexter Av N"
  },
  {
    "id_str": "F190070353",
    "created_at": "7/4/2019 9:26:08 PM",
    "lat": 47.580917,
    "long": -122.385184,
    "timestamp": 1562300768000,
    "description": "Aid Response",
    "entries": 1,
    "neighborhood": "West Seattle Junction/Genesee Hill",
    "neighborhoodGroup": "Southwest",
    "unitCount": 1,
    "severity": 0,
    "units": "E29",
    "address": "2614 42nd Av Sw"
  },
  {
    "id_str": "F190070351",
    "created_at": "7/4/2019 9:24:07 PM",
    "lat": 47.693461,
    "long": -122.344556,
    "timestamp": 1562300647000,
    "description": "Aid Response",
    "entries": 1,
    "neighborhood": "Licton Springs",
    "neighborhoodGroup": "Northwest",
    "unitCount": 1,
    "severity": 0,
    "units": "E21",
    "address": "8900 Aurora Av N"
  },
  {
    "id_str": "F190070345",
    "created_at": "7/4/2019 9:13:35 PM",
    "lat": 47.562771,
    "long": -122.398229,
    "timestamp": 1562300015000,
    "description": "Aid Response Yellow",
    "entries": 1,
    "neighborhood": "West Seattle Junction/Genesee Hill",
    "neighborhoodGroup": "Southwest",
    "unitCount": 1,
    "severity": 0,
    "units": "L11",
    "address": "4526 51st Pl Sw"
  },
  {
    "id_str": "F190070343",
    "created_at": "7/4/2019 9:08:39 PM",
    "lat": 47.632618,
    "long": -122.342281,
    "timestamp": 1562299719000,
    "description": "1RED 1 Unit",
    "entries": 1,
    "neighborhood": "Queen Anne",
    "neighborhoodGroup": "Magnolia/Queen Anne",
    "unitCount": 1,
    "severity": 0,
    "units": "E2",
    "address": "1511 Dexter Av N"
  },
  {
    "id_str": "F190070342",
    "created_at": "7/4/2019 9:07:11 PM",
    "lat": 47.622143,
    "long": -122.324025,
    "timestamp": 1562299631000,
    "description": "Aid Response",
    "entries": 1,
    "neighborhood": "Capitol Hill",
    "neighborhoodGroup": "East",
    "unitCount": 1,
    "severity": 0,
    "units": "A25",
    "address": "414 Belmont Av E"
  },
  {
    "id_str": "F190070341",
    "created_at": "7/4/2019 9:06:46 PM",
    "lat": 47.566517,
    "long": -122.32673,
    "timestamp": 1562299606000,
    "description": "Hang-Up, Aid",
    "entries": 1,
    "neighborhood": "Duwamish/SODO",
    "neighborhoodGroup": "Greater Duwamish",
    "unitCount": 1,
    "severity": 0,
    "units": "A14",
    "address": "6TH AV S / S INDUSTRIAL WAY"
  },
  {
    "id_str": "F190070340",
    "created_at": "7/4/2019 9:03:08 PM",
    "lat": 47.637097,
    "long": -122.34048,
    "timestamp": 1562299388000,
    "description": "Aid Response",
    "entries": 1,
    "neighborhood": "Queen Anne",
    "neighborhoodGroup": "Magnolia/Queen Anne",
    "unitCount": 1,
    "severity": 0,
    "units": "A2",
    "address": "2040 Westlake Av N"
  },
  {
    "id_str": "F190070339",
    "created_at": "7/4/2019 8:58:46 PM",
    "lat": 47.671976,
    "long": -122.273918,
    "timestamp": 1562299126000,
    "description": "Medic Response",
    "entries": 1,
    "neighborhood": "Ravenna/Bryant",
    "neighborhoodGroup": "Northeast",
    "unitCount": 2,
    "severity": 0,
    "units": "E38 M17",
    "address": "5701 Vassar Av Ne"
  },
  {
    "id_str": "F190070338",
    "created_at": "7/4/2019 8:57:26 PM",
    "lat": 47.723218,
    "long": -122.348195,
    "timestamp": 1562299046000,
    "description": "Investigate Out Of Service",
    "entries": 2,
    "neighborhood": "Broadview/Bitter Lake",
    "neighborhoodGroup": "Northwest",
    "unitCount": 2,
    "severity": 0,
    "units": "E24 L5",
    "address": "13000 Linden Av N"
  },
  {
    "id_str": "F190070337",
    "created_at": "7/4/2019 8:53:43 PM",
    "lat": 47.668665,
    "long": -122.374178,
    "timestamp": 1562298823000,
    "description": "Aid Response",
    "entries": 1,
    "neighborhood": "Ballard",
    "neighborhoodGroup": "Ballard",
    "unitCount": 1,
    "severity": 0,
    "units": "E18",
    "address": "1423 Nw Market St"
  },
  {
    "id_str": "F190070336",
    "created_at": "7/4/2019 8:51:21 PM",
    "lat": 47.61855,
    "long": -122.342402,
    "timestamp": 1562298681000,
    "description": "Aid Response",
    "entries": 1,
    "neighborhood": "Cascade/Eastlake",
    "neighborhoodGroup": "Lake Union",
    "unitCount": 1,
    "severity": 0,
    "units": "A4",
    "address": "Dexter Av / Denny Way"
  },
  {
    "id_str": "F190070335",
    "created_at": "7/4/2019 8:47:56 PM",
    "lat": 47.567955,
    "long": -122.38677,
    "timestamp": 1562298476000,
    "description": "Aid Response",
    "entries": 1,
    "neighborhood": "West Seattle Junction/Genesee Hill",
    "neighborhoodGroup": "Southwest",
    "unitCount": 1,
    "severity": 0,
    "units": "E32",
    "address": "4023 CALIFORNIA AV SW"
  },
  {
    "id_str": "F190070332",
    "created_at": "7/4/2019 8:35:54 PM",
    "lat": 47.613497,
    "long": -122.346355,
    "timestamp": 1562297754000,
    "description": "Aid Response",
    "entries": 1,
    "neighborhood": "Belltown",
    "neighborhoodGroup": "Downtown",
    "unitCount": 1,
    "severity": 0,
    "units": "A2",
    "address": "118 Bell St"
  },
  {
    "id_str": "F190070331",
    "created_at": "7/4/2019 8:35:10 PM",
    "lat": 47.63508,
    "long": -122.280835,
    "timestamp": 1562297710000,
    "description": "Aid Response Yellow",
    "entries": 1,
    "neighborhood": "Madison Park",
    "neighborhoodGroup": "East",
    "unitCount": 1,
    "severity": 0,
    "units": "E34",
    "address": "1846 Mcgilvra Blvd E"
  },
  {
    "id_str": "F190070330",
    "created_at": "7/4/2019 8:34:33 PM",
    "lat": 47.671252,
    "long": -122.314172,
    "timestamp": 1562297673000,
    "description": "Aid Response",
    "entries": 1,
    "neighborhood": "University District",
    "neighborhoodGroup": "Northeast",
    "unitCount": 1,
    "severity": 0,
    "units": "E31",
    "address": "Ne Ravenna Blvd / Brooklyn Av Ne"
  },
  {
    "id_str": "F190070322",
    "created_at": "7/4/2019 8:16:57 PM",
    "lat": 47.562472,
    "long": -122.385455,
    "timestamp": 1562296617000,
    "description": "Aid Response",
    "entries": 1,
    "neighborhood": "West Seattle Junction/Genesee Hill",
    "neighborhoodGroup": "Southwest",
    "unitCount": 1,
    "severity": 0,
    "units": "E32",
    "address": "4545 42nd Av Sw"
  },
  {
    "id_str": "F190070320",
    "created_at": "7/4/2019 8:15:46 PM",
    "lat": 47.610964,
    "long": -122.340452,
    "timestamp": 1562296546000,
    "description": "Medic Response",
    "entries": 1,
    "neighborhood": "Belltown",
    "neighborhoodGroup": "Downtown",
    "unitCount": 2,
    "severity": 0,
    "units": "A4 M10",
    "address": "2nd Av / Stewart St"
  },
  {
    "id_str": "F190070319",
    "created_at": "7/4/2019 8:14:59 PM",
    "lat": 47.67435,
    "long": -122.298539,
    "timestamp": 1562296499000,
    "description": "Aid Response",
    "entries": 1,
    "neighborhood": "Ravenna/Bryant",
    "neighborhoodGroup": "Northeast",
    "unitCount": 1,
    "severity": 0,
    "units": "E16",
    "address": "6262 27th Av Ne"
  },
  {
    "id_str": "F190070318",
    "created_at": "7/4/2019 8:14:51 PM",
    "lat": 47.548551,
    "long": -122.288889,
    "timestamp": 1562296491000,
    "description": "Aid Response",
    "entries": 1,
    "neighborhood": "Beacon Hill",
    "neighborhoodGroup": "Greater Duwamish",
    "unitCount": 1,
    "severity": 0,
    "units": "E28",
    "address": "5914 35th Av S"
  },
  {
    "id_str": "F190070316",
    "created_at": "7/4/2019 8:12:18 PM",
    "lat": 47.682124,
    "long": -122.263668,
    "timestamp": 1562296338000,
    "description": "1RED 1 Unit",
    "entries": 1,
    "neighborhood": "Laurelhurst/Sand Point",
    "neighborhoodGroup": "Northeast",
    "unitCount": 1,
    "severity": 0,
    "units": "E38",
    "address": "7400 Sand Point Way Ne"
  },
  {
    "id_str": "F190070315",
    "created_at": "7/4/2019 8:11:06 PM",
    "lat": 47.595837,
    "long": -122.326374,
    "timestamp": 1562296266000,
    "description": "1RED 1 Unit",
    "entries": 2,
    "neighborhood": "Pioneer Square/International District",
    "neighborhoodGroup": "Downtown",
    "unitCount": 2,
    "severity": 0,
    "units": "E10 MAR5",
    "address": "S Dearborn St / 6th Av S"
  },
  {
    "id_str": "F190070312",
    "created_at": "7/4/2019 8:05:17 PM",
    "lat": 47.648069,
    "long": -122.342163,
    "timestamp": 1562295917000,
    "description": "Single Medic Unit",
    "entries": 1,
    "neighborhood": "Fremont",
    "neighborhoodGroup": "Lake Union",
    "unitCount": 1,
    "severity": 0,
    "units": "M17",
    "address": "1341 N Northlake Way"
  },
  {
    "id_str": "F190070309",
    "created_at": "7/4/2019 7:47:44 PM",
    "lat": 47.599202,
    "long": -122.333483,
    "timestamp": 1562294864000,
    "description": "Aid Response",
    "entries": 1,
    "neighborhood": "Duwamish/SODO",
    "neighborhoodGroup": "Greater Duwamish",
    "unitCount": 1,
    "severity": 0,
    "units": "A10",
    "address": "126 S Jackson St"
  },
  {
    "id_str": "F190070308",
    "created_at": "7/4/2019 7:43:26 PM",
    "lat": 47.601716,
    "long": -122.330265,
    "timestamp": 1562294606000,
    "description": "Aid Response",
    "entries": 1,
    "neighborhood": "Downtown Commercial Core",
    "neighborhoodGroup": "Downtown",
    "unitCount": 1,
    "severity": 0,
    "units": "A5",
    "address": "Prefontaine Pl S / 3rd Av S"
  },
  {
    "id_str": "F190070304",
    "created_at": "7/4/2019 7:29:32 PM",
    "lat": 47.599261,
    "long": -122.305258,
    "timestamp": 1562293772000,
    "description": "Aid Response",
    "entries": 1,
    "neighborhood": "Judkins Park",
    "neighborhoodGroup": "Central",
    "unitCount": 1,
    "severity": 0,
    "units": "E6",
    "address": "2020 S Jackson St"
  },
  {
    "id_str": "F190070305",
    "created_at": "7/4/2019 7:28:52 PM",
    "lat": 47.679499,
    "long": -122.405085,
    "timestamp": 1562293732000,
    "description": "Aid Response",
    "entries": 2,
    "neighborhood": "Sunset Hill/Loyal Heights",
    "neighborhoodGroup": "Ballard",
    "unitCount": 2,
    "severity": 0,
    "units": "E18 L8",
    "address": "7001 Seaview Av Nw"
  },
  {
    "id_str": "F190070303",
    "created_at": "7/4/2019 7:20:53 PM",
    "lat": 47.619007,
    "long": -122.316914,
    "timestamp": 1562293253000,
    "description": "Auto Fire Alarm",
    "entries": 1,
    "neighborhood": "Capitol Hill",
    "neighborhoodGroup": "East",
    "unitCount": 2,
    "severity": 0,
    "units": "E25 L10",
    "address": "121 12th Av E"
  },
  {
    "id_str": "F190070300",
    "created_at": "7/4/2019 7:10:42 PM",
    "lat": 47.613308,
    "long": -122.342432,
    "timestamp": 1562292642000,
    "description": "Automatic Medical Alarm",
    "entries": 2,
    "neighborhood": "Cascade/Eastlake",
    "neighborhoodGroup": "Lake Union",
    "unitCount": 2,
    "severity": 0,
    "units": "A4 E2",
    "address": "2119 3rd Av"
  },
  {
    "id_str": "F190070299",
    "created_at": "7/4/2019 7:02:38 PM",
    "lat": 47.66973,
    "long": -122.364015,
    "timestamp": 1562292158000,
    "description": "Dumpster Fire",
    "entries": 1,
    "neighborhood": "Greenwood/Phinney Ridge",
    "neighborhoodGroup": "Northwest",
    "unitCount": 1,
    "severity": 0,
    "units": "E18",
    "address": "5642 6th Av Nw"
  },
  {
    "id_str": "F190070297",
    "created_at": "7/4/2019 6:57:00 PM",
    "lat": 47.606538,
    "long": -122.294914,
    "timestamp": 1562291820000,
    "description": "Automatic Fire Alarm Resd",
    "entries": 1,
    "neighborhood": "Central Area/Squire Park",
    "neighborhoodGroup": "Central",
    "unitCount": 1,
    "severity": 0,
    "units": "E6",
    "address": "541 29th Av"
  },
  {
    "id_str": "F190070295",
    "created_at": "7/4/2019 6:49:53 PM",
    "lat": 47.600044,
    "long": -122.334185,
    "timestamp": 1562291393000,
    "description": "Aid Response",
    "entries": 1,
    "neighborhood": "Pioneer Square/International District",
    "neighborhoodGroup": "Downtown",
    "unitCount": 1,
    "severity": 0,
    "units": "A10",
    "address": "S Main St / 1st Av S"
  },
  {
    "id_str": "F190070293",
    "created_at": "7/4/2019 6:36:26 PM",
    "lat": 47.613063,
    "long": -122.340033,
    "timestamp": 1562290586000,
    "description": "Aid Response",
    "entries": 1,
    "neighborhood": "Cascade/Eastlake",
    "neighborhoodGroup": "Lake Union",
    "unitCount": 1,
    "severity": 0,
    "units": "A4",
    "address": "2000 4th Av"
  },
  {
    "id_str": "F190070292",
    "created_at": "7/4/2019 6:31:57 PM",
    "lat": 47.600044,
    "long": -122.334387,
    "timestamp": 1562290317000,
    "description": "Aid Response",
    "entries": 1,
    "neighborhood": "Pioneer Square/International District",
    "neighborhoodGroup": "Downtown",
    "unitCount": 1,
    "severity": 0,
    "units": "A10",
    "address": "92 S Main St"
  },
  {
    "id_str": "F190070290",
    "created_at": "7/4/2019 6:26:42 PM",
    "lat": 47.56147,
    "long": -122.404487,
    "timestamp": 1562290002000,
    "description": "1RED 1 Unit",
    "entries": 1,
    "neighborhood": "Alki/Admiral",
    "neighborhoodGroup": "Southwest",
    "unitCount": 1,
    "severity": 0,
    "units": "L11",
    "address": "4636 Beach Dr Sw"
  },