[
  {
    "id_str": "F190075940",
    "created_at": "7/18/2019 4:58:13 PM",
    "derived": {
      "lat": 47.615745,
      "long": -122.334269,
      "timestamp": 1563494293000,
      "description": "Aid Response",
      "entries": 1,
      "neighborhood": "Cascade/Eastlake",
      "neighborhoodGroup": "Lake Union",
      "unitCount": 1,
      "severity": 0,
      "units": "A4",
      "address": "919 Stewart St"
    }
  },
  {
    "id_str": "F190075939",
    "created_at": "7/18/2019 4:56:17 PM",
    "derived": {
      "lat": 47.666436,
      "long": -122.313051,
      "timestamp": 1563494177000,
      "description": "Aid Response",
      "entries": 1,
      "neighborhood": "University District",
      "neighborhoodGroup": "Northeast",
      "unitCount": 1,
      "severity": 0,
      "units": "E31",
      "address": "Ne 52nd St / University Way Ne"
    }
  },
  {
    "id_str": "F190075938",
    "created_at": "7/18/2019 4:52:21 PM",
    "derived": {
      "lat": 47.546668,
      "long": -122.362896,
      "timestamp": 1563493941000,
      "description": "Rescue Extrication",
      "entries": 1,
      "neighborhood": "Riverview",
      "neighborhoodGroup": "Delridge Neighborhoods",
      "unitCount": 11,
      "severity": 2,
      "units": "A14 A5 B5 B7 E11 E36 L11 M32 M44 R1 SAFT2",
      "address": "DELRIDGE WAY SW / SW GRAHAM ST"
    }
  },
  {
    "id_str": "F190075936",
    "created_at": "7/18/2019 4:45:06 PM",
    "derived": {
      "lat": 47.605356,
      "long": -122.323036,
      "timestamp": 1563493506000,
      "description": "Aid Response Yellow",
      "entries": 1,
      "neighborhood": "First Hill",
      "neighborhoodGroup": "East",
      "unitCount": 1,
      "severity": 0,
      "units": "A10",
      "address": "508 Terry Av"
    }
  },
  {
    "id_str": "F190075935",
    "created_at": "7/18/2019 4:44:08 PM",
    "derived": {
      "lat": 47.579471,
      "long": -122.312377,
      "timestamp": 1563493448000,
      "description": "Aid Response",
      "entries": 1,
      "neighborhood": "North Beacon Hill/Jefferson Park",
      "neighborhoodGroup": "Greater Duwamish",
      "unitCount": 1,
      "severity": 0,
      "units": "E13",
      "address": "2700 Beacon Av S"
    }
  },
  {
    "id_str": "F190075934",
    "created_at": "7/18/2019 4:38:54 PM",
    "derived": {
      "lat": 47.614317,
      "long": -122.316839,
      "timestamp": 1563493134000,
      "description": "Medic Response",
      "entries": 1,
      "neighborhood": "Capitol Hill",
      "neighborhoodGroup": "East",
      "unitCount": 2,
      "severity": 0,
      "units": "E25 M10",
      "address": "1519 12th Av"
    }
  },
  {
    "id_str": "F190075933",
    "created_at": "7/18/2019 4:36:14 PM",
    "derived": {
      "lat": 47.603517,
      "long": -122.318076,
      "timestamp": 1563492974000,
      "description": "Aid Response",
      "entries": 1,
      "neighborhood": "First Hill",
      "neighborhoodGroup": "East",
      "unitCount": 1,
      "severity": 0,
      "units": "A25",
      "address": "1102 E SPRUCE ST"
    }
  },
  {
    "id_str": "F190075931",
    "created_at": "7/18/2019 4:27:20 PM",
    "derived": {
      "lat": 47.700206,
      "long": -122.290651,
      "timestamp": 1563492440000,
      "description": "Aid Response",
      "entries": 1,
      "neighborhood": "Wedgwood/View Ridge",
      "neighborhoodGroup": "Northeast",
      "unitCount": 1,
      "severity": 0,
      "units": "E40",
      "address": "3501 Ne 98th St"
    }
  },
  {
    "id_str": "F190075929",
    "created_at": "7/18/2019 4:20:40 PM",
    "derived": {
      "lat": 47.712065,
      "long": -122.301728,
      "timestamp": 1563492040000,
      "description": "Aid Response",
      "entries": 1,
      "neighborhood": "Olympic Hills/Victory Heights",
      "neighborhoodGroup": "North",
      "unitCount": 1,
      "severity": 0,
      "units": "E39",
      "address": "2501 Ne 115th St"
    }
  },
  {
    "id_str": "F190075930",
    "created_at": "7/18/2019 4:20:40 PM",
    "derived": {
      "lat": 47.558863,
      "long": -122.275711,
      "timestamp": 1563492040000,
      "description": "Aid Response",
      "entries": 1,
      "neighborhood": "Columbia City",
      "neighborhoodGroup": "Southeast",
      "unitCount": 1,
      "severity": 0,
      "units": "E28",
      "address": "4821 46th Av S"
    }
  },
  {
    "id_str": "F190075928",
    "created_at": "7/18/2019 4:10:57 PM",
    "derived": {
      "lat": 47.666267,
      "long": -122.300605,
      "timestamp": 1563491457000,
      "description": "Aid Response",
      "entries": 2,
      "neighborhood": "Ravenna/Bryant",
      "neighborhoodGroup": "Northeast",
      "unitCount": 2,
      "severity": 0,
      "units": "E31 E38",
      "address": "5101 25th Av Ne"
    }
  },
  {
    "id_str": "F190075927",
    "created_at": "7/18/2019 4:04:20 PM",
    "derived": {
      "lat": 47.564112,
      "long": -122.286056,
      "timestamp": 1563491060000,
      "description": "Medic Response",
      "entries": 1,
      "neighborhood": "Columbia City",
      "neighborhoodGroup": "Southeast",
      "unitCount": 2,
      "severity": 0,
      "units": "E30 M1",
      "address": "4400 37th Av S"
    }
  },
  {
    "id_str": "F190075926",
    "created_at": "7/18/2019 3:58:48 PM",
    "derived": {
      "lat": 47.5645,
      "long": -122.339439,
      "timestamp": 1563490728000,
      "description": "Car Fire",
      "entries": 1,
      "neighborhood": "Duwamish/SODO",
      "neighborhoodGroup": "Greater Duwamish",
      "unitCount": 1,
      "severity": 0,
      "units": "E36",
      "address": "East Marginal Way S / S Idaho St"
    }
  },
  {
    "id_str": "F190075923",
    "created_at": "7/18/2019 3:56:49 PM",
    "derived": {
      "lat": 47.601986,
      "long": -122.32914,
      "timestamp": 1563490609000,
      "description": "Aid Response",
      "entries": 1,
      "neighborhood": "Downtown Commercial Core",
      "neighborhoodGroup": "Downtown",
      "unitCount": 1,
      "severity": 0,
      "units": "A5",
      "address": "420 4th Av"
    }
  },
  {
    "id_str": "F190075924",
    "created_at": "7/18/2019 3:55:12 PM",
    "derived": {
      "lat": 47.52314,
      "long": -122.271402,
      "timestamp": 1563490512000,
      "description": "Medic Response",
      "entries": 1,
      "neighborhood": "Rainier Beach",
      "neighborhoodGroup": "Southeast",
      "unitCount": 2,
      "severity": 0,
      "units": "E33 M28",
      "address": "9017 50th Av S"
    }
  },
  {
    "id_str": "F190075922",
    "created_at": "7/18/2019 3:54:03 PM",
    "derived": {
      "lat": 47.678321,
      "long": -122.26222,
      "timestamp": 1563490443000,
      "description": "Aid Response",
      "entries": 1,
      "neighborhood": "Laurelhurst/Sand Point",
      "neighborhoodGroup": "Northeast",
      "unitCount": 1,
      "severity": 0,
      "units": "E38",
      "address": "6870 62nd Av Ne"
    }
  },
  {
    "id_str": "F190075921",
    "created_at": "7/18/2019 3:53:53 PM",
    "derived": {
      "lat": 47.700531,
      "long": -122.346871,
      "timestamp": 1563490433000,
      "description": "Aid Response",
      "entries": 1,
      "neighborhood": "Licton Springs",
      "neighborhoodGroup": "Northwest",
      "unitCount": 1,
      "severity": 0,
      "units": "A31",
      "address": "934 N 98th St"
    }
  },
  {
    "id_str": "F190075920",
    "created_at": "7/18/2019 3:50:51 PM",
    "derived": {
      "lat": 47.602985,
      "long": -122.328535,
      "timestamp": 1563490251000,
      "description": "Aid Response",
      "entries": 1,
      "neighborhood": "First Hill",
      "neighborhoodGroup": "East",
      "unitCount": 1,
      "severity": 0,
      "units": "A10",
      "address": "500 5th Av"
    }
  },
  {
    "id_str": "F190075919",
    "created_at": "7/18/2019 3:41:20 PM",
    "derived": {
      "lat": 47.605162,
      "long": -122.33748,
      "timestamp": 1563489680000,
      "description": "Investigate Out Of Service",
      "entries": 1,
      "neighborhood": "Downtown Commercial Core",
      "neighborhoodGroup": "Downtown",
      "unitCount": 1,
      "severity": 0,
      "units": "E10",
      "address": "Post Av / Spring St"
    }
  },
  {
    "id_str": "F190075918",
    "created_at": "7/18/2019 3:38:21 PM",
    "derived": {
      "lat": 47.699872,
      "long": -122.324247,
      "timestamp": 1563489501000,
      "description": "Aid Response",
      "entries": 1,
      "neighborhood": "Northgate/Maple Leaf",
      "neighborhoodGroup": "North",
      "unitCount": 1,
      "severity": 0,
      "units": "E40",
      "address": "9800 4th Av Ne"
    }
  },
  {
    "id_str": "F190075917",
    "created_at": "7/18/2019 3:36:17 PM",
    "derived": {
      "lat": 47.601696,
      "long": -122.334179,
      "timestamp": 1563489377000,
      "description": "Aid Response",
      "entries": 1,
      "neighborhood": "Pioneer Square/International District",
      "neighborhoodGroup": "Downtown",
      "unitCount": 1,
      "severity": 0,
      "units": "A5",
      "address": "103 1st Av S"
    }
  },
  {
    "id_str": "F190075914",
    "created_at": "7/18/2019 3:34:28 PM",
    "derived": {
      "lat": 47.726864,
      "long": -122.348012,
      "timestamp": 1563489268000,
      "description": "Auto Fire Alarm",
      "entries": 1,
      "neighborhood": "Broadview/Bitter Lake",
      "neighborhoodGroup": "Northwest",
      "unitCount": 2,
      "severity": 0,
      "units": "E39 L5",
      "address": "747 N 135th St"
    }
  },
  {
    "id_str": "F190075913",
    "created_at": "7/18/2019 3:33:26 PM",
    "derived": {
      "lat": 47.702577,
      "long": -122.328518,
      "timestamp": 1563489206000,
      "description": "Aid Response",
      "entries": 1,
      "neighborhood": "Northgate/Maple Leaf",
      "neighborhoodGroup": "North",
      "unitCount": 1,
      "severity": 0,
      "units": "E16",
      "address": "10200 1st Av Ne"
    }
  },
  {
    "id_str": "F190075912",
    "created_at": "7/18/2019 3:14:09 PM",
    "derived": {
      "lat": 47.609372,
      "long": -122.329777,
      "timestamp": 1563488049000,
      "description": "Auto Fire Alarm",
      "entries": 1,
      "neighborhood": "First Hill",
      "neighborhoodGroup": "East",
      "unitCount": 2,
      "severity": 0,
      "units": "E10 L1",
      "address": "800 Seneca St"
    }
  },
  {
    "id_str": "F190075911",
    "created_at": "7/18/2019 3:12:56 PM",
    "derived": {
      "lat": 47.623153,
      "long": -122.296667,
      "timestamp": 1563487976000,
      "description": "Aid Response",
      "entries": 1,
      "neighborhood": "Central Area/Squire Park",
      "neighborhoodGroup": "Central",
      "unitCount": 1,
      "severity": 0,
      "units": "E34",
      "address": "2720 E Madison St"
    }
  },
  {
    "id_str": "F190075910",
    "created_at": "7/18/2019 3:09:06 PM",
    "derived": {
      "lat": 47.604879,
      "long": -122.324007,
      "timestamp": 1563487746000,
      "description": "Auto Fire Alarm",
      "entries": 1,
      "neighborhood": "First Hill",
      "neighborhoodGroup": "East",
      "unitCount": 2,
      "severity": 0,
      "units": "E25 L1",
      "address": "908 Jefferson St"
    }
  },
  {
    "id_str": "F190075909",
    "created_at": "7/18/2019 3:08:50 PM",
    "derived": {
      "lat": 47.615789,
      "long": -122.336507,
      "timestamp": 1563487730000,
      "description": "Aid Response",
      "entries": 1,
      "neighborhood": "Cascade/Eastlake",
      "neighborhoodGroup": "Lake Union",
      "unitCount": 1,
      "severity": 0,
      "units": "A4",
      "address": "810 Virginia St"
    }
  },
  {
    "id_str": "F190075908",
    "created_at": "7/18/2019 3:03:35 PM",
    "derived": {
      "lat": 47.497784,
      "long": -122.266973,
      "timestamp": 1563487415000,
      "description": "Aid Response",
      "entries": 1,
      "neighborhood": "Rainier Beach",
      "neighborhoodGroup": "Southeast",
      "unitCount": 1,
      "severity": 0,
      "units": "E33",
      "address": "5324 S Wallace St"
    }
  },
  {
    "id_str": "F190075906",
    "created_at": "7/18/2019 3:02:08 PM",
    "derived": {
      "lat": 47.7024,
      "long": -122.360743,
      "timestamp": 1563487328000,
      "description": "Rescue Extrication",
      "entries": 5,
      "neighborhood": "North Beach/Blue Ridge",
      "neighborhoodGroup": "Ballard",
      "unitCount": 12,
      "severity": 2,
      "units": "A14 A31 B2 B4 B6 E24 E35 L8 M31 M44 R1 SAFT2",
      "address": "3rd Av Nw / Holman Rd Nw"
    }
  },
  {
    "id_str": "F190075904",
    "created_at": "7/18/2019 2:48:08 PM",
    "derived": {
      "lat": 47.521022,
      "long": -122.365894,
      "timestamp": 1563486488000,
      "description": "Aid Response",
      "entries": 1,
      "neighborhood": "Roxhill/Westwood",
      "neighborhoodGroup": "Delridge Neighborhoods",
      "unitCount": 1,
      "severity": 0,
      "units": "E37",
      "address": "Sw Barton St / 26th Av Sw"
    }
  },
  {
    "id_str": "F190075903",
    "created_at": "7/18/2019 2:47:41 PM",
    "derived": {
      "lat": 47.601683,
      "long": -122.311556,
      "timestamp": 1563486461000,
      "description": "Medic Response",
      "entries": 2,
      "neighborhood": "Central Area/Squire Park",
      "neighborhoodGroup": "Central",
      "unitCount": 3,
      "severity": 0,
      "units": "E6 L3 M10",
      "address": "1601 E Yesler Way"
    }
  },
  {
    "id_str": "F190075900",
    "created_at": "7/18/2019 2:26:49 PM",
    "derived": {
      "lat": 47.627192,
      "long": -122.356823,
      "timestamp": 1563485209000,
      "description": "Aid Response",
      "entries": 1,
      "neighborhood": "Queen Anne",
      "neighborhoodGroup": "Magnolia/Queen Anne",
      "unitCount": 1,
      "severity": 0,
      "units": "E8",
      "address": "11 W Aloha St"
    }
  },
  {
    "id_str": "F190075898",
    "created_at": "7/18/2019 2:25:10 PM",
    "derived": {
      "lat": 47.614106,
      "long": -122.310161,
      "timestamp": 1563485110000,
      "description": "Aid Response Yellow",
      "entries": 2,
      "neighborhood": "Central Area/Squire Park",
      "neighborhoodGroup": "Central",
      "unitCount": 2,
      "severity": 0,
      "units": "A25 E25",
      "address": "1501 17TH AV"
    }
  },
  {
    "id_str": "F190075897",
    "created_at": "7/18/2019 2:15:39 PM",
    "derived": {
      "lat": 47.730773,
      "long": -122.342355,
      "timestamp": 1563484539000,
      "description": "Aid Response",
      "entries": 1,
      "neighborhood": "Haller Lake",
      "neighborhoodGroup": "Northwest",
      "unitCount": 1,
      "severity": 0,
      "units": "E24",
      "address": "14047 Stone Av N"
    }
  },
  {
    "id_str": "F190075896",
    "created_at": "7/18/2019 2:08:45 PM",
    "derived": {
      "lat": 47.523311,
      "long": -122.2753,
      "timestamp": 1563484125000,
      "description": "MVI - Motor Vehicle Incident",
      "entries": 1,
      "neighborhood": "Rainier Beach",
      "neighborhoodGroup": "Southeast",
      "unitCount": 1,
      "severity": 0,
      "units": "E33",
      "address": "4550 S Henderson St"
    }
  },
  {
    "id_str": "F190075895",
    "created_at": "7/18/2019 2:05:39 PM",
    "derived": {
      "lat": 47.589017,
      "long": -122.380842,
      "timestamp": 1563483939000,
      "description": "Aid Response",
      "entries": 1,
      "neighborhood": "Alki/Admiral",
      "neighborhoodGroup": "Southwest",
      "unitCount": 1,
      "severity": 0,
      "units": "A14",
      "address": "1660 Harbor Av Sw"
    }
  },
  {
    "id_str": "F190075894",
    "created_at": "7/18/2019 2:05:29 PM",
    "derived": {
      "lat": 47.612578,
      "long": -122.341197,
      "timestamp": 1563483929000,
      "description": "Aid Response",
      "entries": 1,
      "neighborhood": "Cascade/Eastlake",
      "neighborhoodGroup": "Lake Union",
      "unitCount": 1,
      "severity": 0,
      "units": "A4",
      "address": "2024 3rd Av"
    }
  },
  {
    "id_str": "F190075893",
    "created_at": "7/18/2019 2:01:12 PM",
    "derived": {
      "lat": 47.549879,
      "long": -122.359868,
      "timestamp": 1563483672000,
      "description": "Aid Response",
      "entries": 1,
      "neighborhood": "Riverview",
      "neighborhoodGroup": "Delridge Neighborhoods",
      "unitCount": 1,
      "severity": 0,
      "units": "E11",
      "address": "5931 21st Av Sw"
    }
  },
  {
    "id_str": "F190075892",
    "created_at": "7/18/2019 1:51:18 PM",
    "derived": {
      "lat": 47.589017,
      "long": -122.380842,
      "timestamp": 1563483078000,
      "description": "Aid Response",
      "entries": 1,
      "neighborhood": "Alki/Admiral",
      "neighborhoodGroup": "Southwest",
      "unitCount": 1,
      "severity": 0,
      "units": "E29",
      "address": "1660 Harbor Av Sw"
    }
  },
  {
    "id_str": "F190075891",
    "created_at": "7/18/2019 1:50:43 PM",
    "derived": {
      "lat": 47.603517,
      "long": -122.318076,
      "timestamp": 1563483043000,
      "description": "Aid Response",
      "entries": 2,
      "neighborhood": "First Hill",
      "neighborhoodGroup": "East",
      "unitCount": 2,
      "severity": 0,
      "units": "A25 L3",
      "address": "1102 E Spruce St"
    }
  },
  {
    "id_str": "F190075888",
    "created_at": "7/18/2019 1:40:53 PM",
    "derived": {
      "lat": 47.599197,
      "long": -122.328968,
      "timestamp": 1563482453000,
      "description": "Medic Response",
      "entries": 2,
      "neighborhood": "Pioneer Square/International District",
      "neighborhoodGroup": "Downtown",
      "unitCount": 2,
      "severity": 0,
      "units": "A10 M1",
      "address": "400 S Jackson St"
    }
  },
  {
    "id_str": "F190075887",
    "created_at": "7/18/2019 1:37:07 PM",
    "derived": {
      "lat": 47.602172,
      "long": -122.330863,
      "timestamp": 1563482227000,
      "description": "Aid Response",
      "entries": 1,
      "neighborhood": "Downtown Commercial Core",
      "neighborhoodGroup": "Downtown",
      "unitCount": 1,
      "severity": 0,
      "units": "A10",
      "address": "517 3rd Av"
    }
  },
  {
    "id_str": "F190075885",
    "created_at": "7/18/2019 1:34:37 PM",
    "derived": {
      "lat": 47.602143,
      "long": -122.330836,
      "timestamp": 1563482077000,
      "description": "Aid Response",
      "entries": 1,
      "neighborhood": "Downtown Commercial Core",
      "neighborhoodGroup": "Downtown",
      "unitCount": 1,
      "severity": 0,
      "units": "A5",
      "address": "513 3rd Av"
    }
  },
  {
    "id_str": "F190075881",
    "created_at": "7/18/2019 1:27:37 PM",
    "derived": {
      "lat": 47.607979,
      "long": -122.333104,
      "timestamp": 1563481657000,
      "description": "Fuel Spill",
      "entries": 1,
      "neighborhood": "Downtown Commercial Core",
      "neighborhoodGroup": "Downtown",
      "unitCount": 1,
      "severity": 0,
      "units": "E5",
      "address": "5th Av / Seneca St"
    }
  },
  {
    "id_str": "F190075880",
    "created_at": "7/18/2019 1:23:26 PM",
    "derived": {
      "lat": 47.542439,
      "long": -122.280606,
      "timestamp": 1563481406000,
      "description": "Aid Response",
      "entries": 2,
      "neighborhood": "Columbia City",
      "neighborhoodGroup": "Southeast",
      "unitCount": 1,
      "severity": 0,
      "units": "E28",
      "address": "4219 S Holly St"
    }
  },
  {
    "id_str": "F190075879",
    "created_at": "7/18/2019 1:17:41 PM",
    "derived": {
      "lat": 47.620313,
      "long": -122.32088,
      "timestamp": 1563481061000,
      "description": "Aid Response",
      "entries": 1,
      "neighborhood": "Capitol Hill",
      "neighborhoodGroup": "East",
      "unitCount": 1,
      "severity": 0,
      "units": "E25",
      "address": "235 Broadway E"
    }
  },
  {
    "id_str": "F190075877",
    "created_at": "7/18/2019 1:16:42 PM",
    "derived": {
      "lat": 47.62118,
      "long": -122.314685,
      "timestamp": 1563481002000,
      "description": "Aid Response",
      "entries": 1,
      "neighborhood": "Capitol Hill",
      "neighborhoodGroup": "East",
      "unitCount": 1,
      "severity": 0,
      "units": "A25",
      "address": "308 14th Av E"
    }
  },
  {
    "id_str": "F190075875",
    "created_at": "7/18/2019 1:09:08 PM",
    "derived": {
      "lat": 47.661582,
      "long": -122.313125,
      "timestamp": 1563480548000,
      "description": "Aid Response",
      "entries": 1,
      "neighborhood": "University District",
      "neighborhoodGroup": "Northeast",
      "unitCount": 1,
      "severity": 0,
      "units": "E31",
      "address": "4535 University Way Ne"
    }
  },
  {
    "id_str": "F190075874",
    "created_at": "7/18/2019 1:06:29 PM",
    "derived": {
      "lat": 47.598288,
      "long": -122.331581,
      "timestamp": 1563480389000,
      "description": "Aid Response",
      "entries": 1,
      "neighborhood": "Duwamish/SODO",
      "neighborhoodGroup": "Greater Duwamish",
      "unitCount": 1,
      "severity": 0,
      "units": "A10",
      "address": "S King St / 2nd Av S"
    }
  },
  {
    "id_str": "F190075873",
    "created_at": "7/18/2019 12:59:47 PM",
    "derived": {
      "lat": 47.524181,
      "long": -122.357781,
      "timestamp": 1563479987000,
      "description": "Aid Response",
      "entries": 1,
      "neighborhood": "Roxhill/Westwood",
      "neighborhoodGroup": "Delridge Neighborhoods",
      "unitCount": 1,
      "severity": 0,
      "units": "E11",
      "address": "8856 18th Av Sw"
    }
  },
  {
    "id_str": "F190075872",
    "created_at": "7/18/2019 12:58:15 PM",
    "derived": {
      "lat": 47.708684,
      "long": -122.301275,
      "timestamp": 1563479895000,
      "description": "Medic Response",
      "entries": 1,
      "neighborhood": "Olympic Hills/Victory Heights",
      "neighborhoodGroup": "North",
      "unitCount": 2,
      "severity": 0,
      "units": "E39 M17",
      "address": "11038 Lake City Way Ne"
    }
  },
  {
    "id_str": "F190075871",
    "created_at": "7/18/2019 12:52:43 PM",
    "derived": {
      "lat": 47.610768,
      "long": -122.335352,
      "timestamp": 1563479563000,
      "description": "Aid Response",
      "entries": 1,
      "neighborhood": "First Hill",
      "neighborhoodGroup": "East",
      "unitCount": 1,
      "severity": 0,
      "units": "A2",
      "address": "520 Pike St"
    }
  },
  {
    "id_str": "F190075869",
    "created_at": "7/18/2019 12:51:08 PM",
    "derived": {
      "lat": 47.605358,
      "long": -122.32994,
      "timestamp": 1563479468000,
      "description": "Medic Response",
      "entries": 1,
      "neighborhood": "First Hill",
      "neighborhoodGroup": "East",
      "unitCount": 2,
      "severity": 0,
      "units": "A4 M28",
      "address": "550 Columbia St"
    }
  },
  {
    "id_str": "F190075868",
    "created_at": "7/18/2019 12:49:12 PM",
    "derived": {
      "lat": 47.61055,
      "long": -122.329318,
      "timestamp": 1563479352000,
      "description": "Medic Response",
      "entries": 1,
      "neighborhood": "First Hill",
      "neighborhoodGroup": "East",
      "unitCount": 2,
      "severity": 0,
      "units": "A5 M10",
      "address": "900 University St"
    }
  },
  {
    "id_str": "F190075867",
    "created_at": "7/18/2019 12:48:42 PM",
    "derived": {
      "lat": 47.611563,
      "long": -122.316779,
      "timestamp": 1563479322000,
      "description": "Aid Response",
      "entries": 1,
      "neighborhood": "First Hill",
      "neighborhoodGroup": "East",
      "unitCount": 1,
      "severity": 0,
      "units": "A25",
      "address": "1110 E Spring St"
    }
  },
  {
    "id_str": "F190075865",
    "created_at": "7/18/2019 12:44:59 PM",
    "derived": {
      "lat": 47.58633,
      "long": -122.304239,
      "timestamp": 1563479099000,
      "description": "Aid Response",
      "entries": 1,
      "neighborhood": "North Beacon Hill/Jefferson Park",
      "neighborhoodGroup": "Greater Duwamish",
      "unitCount": 1,
      "severity": 0,
      "units": "E30",
      "address": "1900 Rainier Av S"
    }
  },
  {
    "id_str": "F190075864",
    "created_at": "7/18/2019 12:37:24 PM",
    "derived": {
      "lat": 47.579811,
      "long": -122.334201,
      "timestamp": 1563478644000,
      "description": "Aid Response",
      "entries": 1,
      "neighborhood": "Duwamish/SODO",
      "neighborhoodGroup": "Greater Duwamish",
      "unitCount": 1,
      "severity": 0,
      "units": "A14",
      "address": "2700 1st Av S"
    }
  },
  {
    "id_str": "F190075862",
    "created_at": "7/18/2019 12:26:29 PM",
    "derived": {
      "lat": 47.693461,
      "long": -122.344556,
      "timestamp": 1563477989000,
      "description": "Aid Response",
      "entries": 1,
      "neighborhood": "Licton Springs",
      "neighborhoodGroup": "Northwest",
      "unitCount": 1,
      "severity": 0,
      "units": "A31",
      "address": "8900 Aurora Av N"
    }
  },
  {
    "id_str": "F190075861",
    "created_at": "7/18/2019 12:23:05 PM",
    "derived": {
      "lat": 47.672342,
      "long": -122.286899,
      "timestamp": 1563477785000,
      "description": "Illegal Burn",
      "entries": 1,
      "neighborhood": "Ravenna/Bryant",
      "neighborhoodGroup": "Northeast",
      "unitCount": 1,
      "severity": 0,
      "units": "E38",
      "address": "6022 38th Av Ne"
    }
  },
  {
    "id_str": "F190075858",
    "created_at": "7/18/2019 12:17:53 PM",
    "derived": {
      "lat": 47.610972,
      "long": -122.340465,
      "timestamp": 1563477473000,
      "description": "Automatic Medical Alarm",
      "entries": 1,
      "neighborhood": "Belltown",
      "neighborhoodGroup": "Downtown",
      "unitCount": 1,
      "severity": 0,
      "units": "A4",
      "address": "1902 2nd Av"
    }
  },
  {
    "id_str": "F190075856",
    "created_at": "7/18/2019 12:10:57 PM",
    "derived": {
      "lat": 47.602172,
      "long": -122.330863,
      "timestamp": 1563477057000,
      "description": "Medic Response",
      "entries": 5,
      "neighborhood": "Downtown Commercial Core",
      "neighborhoodGroup": "Downtown",
      "unitCount": 5,
      "severity": 1,
      "units": "A10 A5 E10 E5 M10",
      "address": "517 3rd Av"
    }
  },
  {
    "id_str": "F190075852",
    "created_at": "7/18/2019 11:50:45 AM",
    "derived": {
      "lat": 47.610214,
      "long": -122.336683,
      "timestamp": 1563475845000,
      "description": "Aid Response",
      "entries": 2,
      "neighborhood": "Downtown Commercial Core",
      "neighborhoodGroup": "Downtown",
      "unitCount": 2,
      "severity": 0,
      "units": "E5 M10",
      "address": "1501 4th Av"
    }
  },
  {
    "id_str": "F190075851",
    "created_at": "7/18/2019 11:49:43 AM",
    "derived": {
      "lat": 47.611207,
      "long": -122.337592,
      "timestamp": 1563475783000,
      "description": "Aid Response",
      "entries": 1,
      "neighborhood": "Downtown Commercial Core",
      "neighborhoodGroup": "Downtown",
      "unitCount": 1,
      "severity": 0,
      "units": "A4",
      "address": "4th Av / Pine St"
    }
  },
  {
    "id_str": "F190075849",
    "created_at": "7/18/2019 11:47:50 AM",
    "derived": {
      "lat": 47.559112,
      "long": -122.362898,
      "timestamp": 1563475670000,
      "description": "Aid Response",
      "entries": 1,
      "neighborhood": "Riverview",
      "neighborhoodGroup": "Delridge Neighborhoods",
      "unitCount": 1,
      "severity": 0,
      "units": "E36",
      "address": "4818 Delridge Way Sw"
    }
  },
  {
    "id_str": "F190075846",
    "created_at": "7/18/2019 11:40:30 AM",
    "derived": {
      "lat": 47.551681,
      "long": -122.377655,
      "timestamp": 1563475230000,
      "description": "Aid Response Yellow",
      "entries": 1,
      "neighborhood": "Fauntleroy/Seaview",
      "neighborhoodGroup": "Southwest",
      "unitCount": 1,
      "severity": 0,
      "units": "E37",
      "address": "5649 36th Av Sw"
    }
  },
  {
    "id_str": "F190075845",
    "created_at": "7/18/2019 11:38:50 AM",
    "derived": {
      "lat": 47.558988,
      "long": -122.376234,
      "timestamp": 1563475130000,
      "description": "Medic Response",
      "entries": 1,
      "neighborhood": "West Seattle Junction/Genesee Hill",
      "neighborhoodGroup": "Southwest",
      "unitCount": 2,
      "severity": 0,
      "units": "E32 M32",
      "address": "4831 35TH AV SW"
    }
  },
  {
    "id_str": "F190075844",
    "created_at": "7/18/2019 11:37:26 AM",
    "derived": {
      "lat": 47.566517,
      "long": -122.32673,
      "timestamp": 1563475046000,
      "description": "Illegal Burn",
      "entries": 1,
      "neighborhood": "Duwamish/SODO",
      "neighborhoodGroup": "Greater Duwamish",
      "unitCount": 1,
      "severity": 0,
      "units": "E13",
      "address": "6th Av S / S Industrial Way"
    }
  },
  {
    "id_str": "F190075843",
    "created_at": "7/18/2019 11:36:58 AM",
    "derived": {
      "lat": 47.558988,
      "long": -122.376234,
      "timestamp": 1563475018000,
      "description": "Aid Response",
      "entries": 1,
      "neighborhood": "West Seattle Junction/Genesee Hill",
      "neighborhoodGroup": "Southwest",
      "unitCount": 1,
      "severity": 0,
      "units": "L11",
      "address": "4831 35th Av Sw"
    }
  },
  {
    "id_str": "F190075842",
    "created_at": "7/18/2019 11:34:30 AM",
    "derived": {
      "lat": 47.660059,
      "long": -122.315475,
      "timestamp": 1563474870000,
      "description": "Aid Response",
      "entries": 1,
      "neighborhood": "University District",
      "neighborhoodGroup": "Northeast",
      "unitCount": 1,
      "severity": 0,
      "units": "E17",
      "address": "4333 12th Av Ne"
    }
  },
  {
    "id_str": "F190075840",
    "created_at": "7/18/2019 11:30:01 AM",
    "derived": {
      "lat": 47.614322,
      "long": -122.319451,
      "timestamp": 1563474601000,
      "description": "Aid Response",
      "entries": 1,
      "neighborhood": "Capitol Hill",
      "neighborhoodGroup": "East",
      "unitCount": 1,
      "severity": 0,
      "units": "A5",
      "address": "1521 10th Av"
    }
  },
  {
    "id_str": "F190075838",
    "created_at": "7/18/2019 11:27:43 AM",
    "derived": {
      "lat": 47.708426,
      "long": -122.301355,
      "timestamp": 1563474463000,
      "description": "Aid Response",
      "entries": 1,
      "neighborhood": "Olympic Hills/Victory Heights",
      "neighborhoodGroup": "North",
      "unitCount": 1,
      "severity": 0,
      "units": "E40",
      "address": "11000 Lake City Way Ne"
    }
  },
  {
    "id_str": "F190075837",
    "created_at": "7/18/2019 11:26:19 AM",
    "derived": {
      "lat": 47.718989,
      "long": -122.295405,
      "timestamp": 1563474379000,
      "description": "Aid Response",
      "entries": 1,
      "neighborhood": "Olympic Hills/Victory Heights",
      "neighborhoodGroup": "North",
      "unitCount": 1,
      "severity": 0,
      "units": "E39",
      "address": "12360 Lake City Way Ne"
    }
  },
  {
    "id_str": "F190075835",
    "created_at": "7/18/2019 11:24:03 AM",
    "derived": {
      "lat": 47.708609,
      "long": -122.325576,
      "timestamp": 1563474243000,
      "description": "Auto Fire Alarm",
      "entries": 1,
      "neighborhood": "Northgate/Maple Leaf",
      "neighborhoodGroup": "North",
      "unitCount": 2,
      "severity": 0,
      "units": "E24 L6",
      "address": "328 Ne Northgate Way"
    }
  },
  {
    "id_str": "F190075834",
    "created_at": "7/18/2019 11:19:37 AM",
    "derived": {
      "lat": 47.61545,
      "long": -122.33073,
      "timestamp": 1563473977000,
      "description": "Auto Fire Alarm",
      "entries": 1,
      "neighborhood": "First Hill",
      "neighborhoodGroup": "East",
      "unitCount": 2,
      "severity": 0,
      "units": "E25 L10",
      "address": "1100 Olive Way"
    }
  },
  {
    "id_str": "F190075833",
    "created_at": "7/18/2019 11:14:37 AM",
    "derived": {
      "lat": 47.600875,
      "long": -122.328963,
      "timestamp": 1563473677000,
      "description": "Aid Response",
      "entries": 3,
      "neighborhood": "Pioneer Square/International District",
      "neighborhoodGroup": "Downtown",
      "unitCount": 3,
      "severity": 0,
      "units": "A10 A14 R1",
      "address": "400 S Washington St"
    }
  },
  {
    "id_str": "F190075831",
    "created_at": "7/18/2019 11:09:25 AM",
    "derived": {
      "lat": 47.613247,
      "long": -122.327187,
      "timestamp": 1563473365000,
      "description": "Aid Response",
      "entries": 1,
      "neighborhood": "Capitol Hill",
      "neighborhoodGroup": "East",
      "unitCount": 1,
      "severity": 0,
      "units": "A25",
      "address": "1431 Minor Av"
    }
  },
  {
    "id_str": "F190075830",
    "created_at": "7/18/2019 11:09:13 AM",
    "derived": {
      "lat": 47.626215,
      "long": -122.329199,
      "timestamp": 1563473353000,
      "description": "Aid Response",
      "entries": 1,
      "neighborhood": "Cascade/Eastlake",
      "neighborhoodGroup": "Lake Union",
      "unitCount": 1,
      "severity": 0,
      "units": "A2",
      "address": "825 Eastlake Av E"
    }
  },
  {
    "id_str": "F190075826",
    "created_at": "7/18/2019 11:01:31 AM",
    "derived": {
      "lat": 47.545266,
      "long": -122.296889,
      "timestamp": 1563472891000,
      "description": "Automatic Medical Alarm",
      "entries": 1,
      "neighborhood": "South Beacon Hill/NewHolly",
      "neighborhoodGroup": "Greater Duwamish",
      "unitCount": 1,
      "severity": 0,
      "units": "E27",
      "address": "6406 28th Av S"
    }
  },
  {
    "id_str": "F190075825",
    "created_at": "7/18/2019 10:56:50 AM",
    "derived": {
      "lat": 47.54539,
      "long": -122.369473,
      "timestamp": 1563472610000,
      "description": "Aid Response",
      "entries": 2,
      "neighborhood": "High Point",
      "neighborhoodGroup": "Delridge Neighborhoods",
      "unitCount": 2,
      "severity": 0,
      "units": "E11 E37",
      "address": "6435 29th Av Sw"
    }
  },
  {
    "id_str": "F190075824",
    "created_at": "7/18/2019 10:55:53 AM",
    "derived": {
      "lat": 47.615877,
      "long": -122.35052,
      "timestamp": 1563472553000,
      "description": "Automatic Medical Alarm",
      "entries": 1,
      "neighborhood": "Belltown",
      "neighborhoodGroup": "Downtown",
      "unitCount": 1,
      "severity": 0,
      "units": "A4",
      "address": "111 Cedar St"
    }
  },
  {
    "id_str": "F190075823",
    "created_at": "7/18/2019 10:55:28 AM",
    "derived": {
      "lat": 47.604625,
      "long": -122.32697,
      "timestamp": 1563472528000,
      "description": "Illegal Burn",
      "entries": 1,
      "neighborhood": "First Hill",
      "neighborhoodGroup": "East",
      "unitCount": 1,
      "severity": 0,
      "units": "L1",
      "address": "7th Av / James St"
    }
  },
  {
    "id_str": "F190075822",
    "created_at": "7/18/2019 10:50:41 AM",
    "derived": {
      "lat": 47.726864,
      "long": -122.348012,
      "timestamp": 1563472241000,
      "description": "Aid Response",
      "entries": 1,
      "neighborhood": "Broadview/Bitter Lake",
      "neighborhoodGroup": "Northwest",
      "unitCount": 1,
      "severity": 0,
      "units": "A31",
      "address": "747 N 135th St"
    }
  },
  {
    "id_str": "F190075821",
    "created_at": "7/18/2019 10:49:20 AM",
    "derived": {
      "lat": 47.544669,
      "long": -122.373777,
      "timestamp": 1563472160000,
      "description": "Aid Response Yellow",
      "entries": 1,
      "neighborhood": "High Point",
      "neighborhoodGroup": "Delridge Neighborhoods",
      "unitCount": 1,
      "severity": 0,
      "units": "E37",
      "address": "3204 Sw Morgan St"
    }
  },
  {
    "id_str": "F190075819",
    "created_at": "7/18/2019 10:39:48 AM",
    "derived": {
      "lat": 47.633499,
      "long": -122.376195,
      "timestamp": 1563471588000,
      "description": "Aid Response",
      "entries": 1,
      "neighborhood": "Interbay",
      "neighborhoodGroup": "Magnolia/Queen Anne",
      "unitCount": 1,
      "severity": 0,
      "units": "E20",
      "address": "1601 15th Av W"
    }
  },
  {
    "id_str": "F190075817",
    "created_at": "7/18/2019 10:34:02 AM",
    "derived": {
      "lat": 47.544599,
      "long": -122.318719,
      "timestamp": 1563471242000,
      "description": "Auto Fire Alarm",
      "entries": 1,
      "neighborhood": "Georgetown",
      "neighborhoodGroup": "Greater Duwamish",
      "unitCount": 2,
      "severity": 0,
      "units": "E27 L12",
      "address": "6526 Ellis Av S"
    }
  },
  {
    "id_str": "F190075816",
    "created_at": "7/18/2019 10:31:55 AM",
    "derived": {
      "lat": 47.730569,
      "long": -122.347758,
      "timestamp": 1563471115000,
      "description": "Medic Response",
      "entries": 2,
      "neighborhood": "Broadview/Bitter Lake",
      "neighborhoodGroup": "Northwest",
      "unitCount": 2,
      "severity": 0,
      "units": "E24 M17",
      "address": "14002 Linden Av N"
    }
  },
  {
    "id_str": "F190075814",
    "created_at": "7/18/2019 10:30:41 AM",
    "derived": {
      "lat": 47.561488,
      "long": -122.27071,
      "timestamp": 1563471041000,
      "description": "Aid Response",
      "entries": 1,
      "neighborhood": "Columbia City",
      "neighborhoodGroup": "Southeast",
      "unitCount": 1,
      "severity": 0,
      "units": "E28",
      "address": "4623 50th Av S"
    }
  },
  {
    "id_str": "F190075813",
    "created_at": "7/18/2019 10:26:06 AM",
    "derived": {
      "lat": 47.608268,
      "long": -122.330056,
      "timestamp": 1563470766000,
      "description": "Aid Response",
      "entries": 1,
      "neighborhood": "First Hill",
      "neighborhoodGroup": "East",
      "unitCount": 1,
      "severity": 0,
      "units": "A10",
      "address": "715 Spring St"
    }
  },
  {
    "id_str": "F190075810",
    "created_at": "7/18/2019 10:09:04 AM",
    "derived": {
      "lat": 47.66707,
      "long": -122.301946,
      "timestamp": 1563469744000,
      "description": "Aid Response",
      "entries": 1,
      "neighborhood": "Ravenna/Bryant",
      "neighborhoodGroup": "Northeast",
      "unitCount": 1,
      "severity": 0,
      "units": "E38",
      "address": "5300 24th Av Ne"
    }
  },
  {
    "id_str": "F190075809",
    "created_at": "7/18/2019 10:08:31 AM",
    "derived": {
      "lat": 47.611729,
      "long": -122.296223,
      "timestamp": 1563469711000,
      "description": "Aid Response",
      "entries": 1,
      "neighborhood": "Central Area/Squire Park",
      "neighborhoodGroup": "Central",
      "unitCount": 1,
      "severity": 0,
      "units": "A25",
      "address": "1126 M L King Jr Way"
    }
  },
  {
    "id_str": "F190075805",
    "created_at": "7/18/2019 9:50:06 AM",
    "derived": {
      "lat": 47.559071,
      "long": -122.271945,
      "timestamp": 1563468606000,
      "description": "Aid Response",
      "entries": 1,
      "neighborhood": "Seward Park",
      "neighborhoodGroup": "Southeast",
      "unitCount": 1,
      "severity": 0,
      "units": "E28",
      "address": "4828 49th Av S"
    }
  },
  {
    "id_str": "F190075804",
    "created_at": "7/18/2019 9:38:18 AM",
    "derived": {
      "lat": 47.60368,
      "long": -122.318103,
      "timestamp": 1563467898000,
      "description": "Auto Fire Alarm",
      "entries": 1,
      "neighborhood": "First Hill",
      "neighborhoodGroup": "East",
      "unitCount": 2,
      "severity": 0,
      "units": "E6 L1",
      "address": "220 11th Av"
    }
  },
  {
    "id_str": "F190075803",
    "created_at": "7/18/2019 9:36:44 AM",
    "derived": {
      "lat": 47.6588,
      "long": -122.306573,
      "timestamp": 1563467804000,
      "description": "Aid Response",
      "entries": 2,
      "neighborhood": "University District",
      "neighborhoodGroup": "Northeast",
      "unitCount": 2,
      "severity": 0,
      "units": "E17 L9",
      "address": "1915 Ne Chelan Ln"
    }
  },
  {
    "id_str": "F190075802",
    "created_at": "7/18/2019 9:35:41 AM",
    "derived": {
      "lat": 47.6069,
      "long": -122.329051,
      "timestamp": 1563467741000,
      "description": "Aid Response",
      "entries": 1,
      "neighborhood": "First Hill",
      "neighborhoodGroup": "East",
      "unitCount": 1,
      "severity": 0,
      "units": "A10",
      "address": "904 7th Av"
    }
  },
  {
    "id_str": "F190075801",
    "created_at": "7/18/2019 9:33:32 AM",
    "derived": {
      "lat": 47.652551,
      "long": -122.367851,
      "timestamp": 1563467612000,
      "description": "Aid Response",
      "entries": 1,
      "neighborhood": "Queen Anne",
      "neighborhoodGroup": "Magnolia/Queen Anne",
      "unitCount": 1,
      "severity": 0,
      "units": "E9",
      "address": "831 W Nickerson St"
    }
  },
  {
    "id_str": "F190075800",
    "created_at": "7/18/2019 9:31:15 AM",
    "derived": {
      "lat": 47.64247,
      "long": -122.300321,
      "timestamp": 1563467475000,
      "description": "Automatic Fire Alarm Resd",
      "entries": 1,
      "neighborhood": "Montlake/Portage Bay",
      "neighborhoodGroup": "Northeast",
      "unitCount": 1,
      "severity": 0,
      "units": "E22",
      "address": "2553 25th Av E"
    }
  },
  {
    "id_str": "F190075798",
    "created_at": "7/18/2019 9:27:24 AM",
    "derived": {
      "lat": 47.728533,
      "long": -122.293652,
      "timestamp": 1563467244000,
      "description": "Investigate Out Of Service",
      "entries": 1,
      "neighborhood": "Cedar Park/Meadowbrook",
      "neighborhoodGroup": "North",
      "unitCount": 1,
      "severity": 0,
      "units": "E40",
      "address": "13751 32nd Av Ne"
    }
  },
  {
    "id_str": "F190075797",
    "created_at": "7/18/2019 9:15:54 AM",
    "derived": {
      "lat": 47.623214,
      "long": -122.339751,
      "timestamp": 1563466554000,
      "description": "Aid Response",
      "entries": 1,
      "neighborhood": "Cascade/Eastlake",
      "neighborhoodGroup": "Lake Union",
      "unitCount": 1,
      "severity": 0,
      "units": "A4",
      "address": "500 9th Av N"
    }
  },
  {
    "id_str": "F190075796",
    "created_at": "7/18/2019 9:12:23 AM",
    "derived": {
      "lat": 47.61444,
      "long": -122.324463,
      "timestamp": 1563466343000,
      "description": "Aid Response",
      "entries": 1,
      "neighborhood": "Capitol Hill",
      "neighborhoodGroup": "East",
      "unitCount": 1,
      "severity": 0,
      "units": "E34",
      "address": "1531 Belmont Av"
    }
  },
  {
    "id_str": "F190075795",
    "created_at": "7/18/2019 9:10:24 AM",
    "derived": {
      "lat": 47.671652,
      "long": -122.393335,
      "timestamp": 1563466224000,
      "description": "Medic Response",
      "entries": 1,
      "neighborhood": "Sunset Hill/Loyal Heights",
      "neighborhoodGroup": "Ballard",
      "unitCount": 2,
      "severity": 0,
      "units": "E35 M17",
      "address": "2834 Nw 59th St"
    }
  },
  {
    "id_str": "F190075794",
    "created_at": "7/18/2019 9:10:20 AM",
    "derived": {
      "lat": 47.630906,
      "long": -122.373947,
      "timestamp": 1563466220000,
      "description": "Aid Response",
      "entries": 1,
      "neighborhood": "Interbay",
      "neighborhoodGroup": "Magnolia/Queen Anne",
      "unitCount": 1,
      "severity": 0,
      "units": "E20",
      "address": "1426 Elliott Av W"
    }
  },
  {
    "id_str": "F190075792",
    "created_at": "7/18/2019 9:04:56 AM",
    "derived": {
      "lat": 47.517023,
      "long": -122.38927,
      "timestamp": 1563465896000,
      "description": "Aid Response",
      "entries": 1,
      "neighborhood": "Arbor Heights",
      "neighborhoodGroup": "Southwest",
      "unitCount": 1,
      "severity": 0,
      "units": "E11",
      "address": "4411 Sw Roxbury Pl"
    }
  },
  {
    "id_str": "F190075791",
    "created_at": "7/18/2019 9:01:21 AM",
    "derived": {
      "lat": 47.601986,
      "long": -122.32914,
      "timestamp": 1563465681000,
      "description": "Aid Response",
      "entries": 1,
      "neighborhood": "Downtown Commercial Core",
      "neighborhoodGroup": "Downtown",
      "unitCount": 1,
      "severity": 0,
      "units": "A5",
      "address": "420 4TH AV"
    }
  },
  {
    "id_str": "F190075790",
    "created_at": "7/18/2019 8:51:02 AM",
    "derived": {
      "lat": 47.720021,
      "long": -122.324486,
      "timestamp": 1563465062000,
      "description": "MVI Freeway",
      "entries": 1,
      "neighborhood": "Haller Lake",
      "neighborhoodGroup": "Northwest",
      "unitCount": 3,
      "severity": 0,
      "units": "A2 E24 E39",
      "address": "Sb I5 At 130"
    }
  },
  {
    "id_str": "F190075788",
    "created_at": "7/18/2019 8:47:00 AM",
    "derived": {
      "lat": 47.66749,
      "long": -122.383093,
      "timestamp": 1563464820000,
      "description": "Medic Response, 7 per Rule",
      "entries": 3,
      "neighborhood": "Ballard",
      "neighborhoodGroup": "Ballard",
      "unitCount": 3,
      "severity": 0,
      "units": "E18 L8 M31",
      "address": "5433 Leary Av Nw"
    }
  },
  {
    "id_str": "F190075787",
    "created_at": "7/18/2019 8:39:51 AM",
    "derived": {
      "lat": 47.64777,
      "long": -122.353323,
      "timestamp": 1563464391000,
      "description": "MVI - Motor Vehicle Incident",
      "entries": 1,
      "neighborhood": "Queen Anne",
      "neighborhoodGroup": "Magnolia/Queen Anne",
      "unitCount": 1,
      "severity": 0,
      "units": "E9",
      "address": "198 Nickerson St"
    }
  },
  {
    "id_str": "F190075785",
    "created_at": "7/18/2019 8:31:42 AM",
    "derived": {
      "lat": 47.588437,
      "long": -122.315981,
      "timestamp": 1563463902000,
      "description": "MVI - Motor Vehicle Incident",
      "entries": 1,
      "neighborhood": "North Beacon Hill/Jefferson Park",
      "neighborhoodGroup": "Greater Duwamish",
      "unitCount": 1,
      "severity": 0,
      "units": "E13",
      "address": "13th Av S / S Massachusetts St"
    }
  },
  {
    "id_str": "F190075784",
    "created_at": "7/18/2019 8:28:57 AM",
    "derived": {
      "lat": 47.61762,
      "long": -122.310139,
      "timestamp": 1563463737000,
      "description": "Aid Response",
      "entries": 1,
      "neighborhood": "Central Area/Squire Park",
      "neighborhoodGroup": "Central",
      "unitCount": 1,
      "severity": 0,
      "units": "E34",
      "address": "1802 17th Av"
    }
  },
  {
    "id_str": "F190075782",
    "created_at": "7/18/2019 8:21:05 AM",
    "derived": {
      "lat": 47.588437,
      "long": -122.315981,
      "timestamp": 1563463265000,
      "description": "1RED 1 Unit",
      "entries": 1,
      "neighborhood": "North Beacon Hill/Jefferson Park",
      "neighborhoodGroup": "Greater Duwamish",
      "unitCount": 1,
      "severity": 0,
      "units": "R1",
      "address": "1300 S MASSACHUSETTS ST"
    }
  },
  {
    "id_str": "F190075780",
    "created_at": "7/18/2019 8:16:35 AM",
    "derived": {
      "lat": 47.57947,
      "long": -122.312116,
      "timestamp": 1563462995000,
      "description": "Aid Response",
      "entries": 1,
      "neighborhood": "North Beacon Hill/Jefferson Park",
      "neighborhoodGroup": "Greater Duwamish",
      "unitCount": 1,
      "severity": 0,
      "units": "E30",
      "address": "1600 S Roberto Maestas Fest St"
    }
  },
  {
    "id_str": "F190075779",
    "created_at": "7/18/2019 8:16:12 AM",
    "derived": {
      "lat": 47.65991,
      "long": -122.316615,
      "timestamp": 1563462972000,
      "description": "Auto Fire Alarm",
      "entries": 1,
      "neighborhood": "University District",
      "neighborhoodGroup": "Northeast",
      "unitCount": 2,
      "severity": 0,
      "units": "E17 L9",
      "address": "4311 11th Av Ne"
    }
  },
  {
    "id_str": "F190075777",
    "created_at": "7/18/2019 8:12:42 AM",
    "derived": {
      "lat": 47.548859,
      "long": -122.316505,
      "timestamp": 1563462762000,
      "description": "Aid Response",
      "entries": 1,
      "neighborhood": "Georgetown",
      "neighborhoodGroup": "Greater Duwamish",
      "unitCount": 1,
      "severity": 0,
      "units": "E27",
      "address": "6101 Airport Way S"
    }
  },
  {
    "id_str": "F190075774",
    "created_at": "7/18/2019 8:09:16 AM",
    "derived": {
      "lat": 47.567668,
      "long": -122.329235,
      "timestamp": 1563462556000,
      "description": "Illegal Burn",
      "entries": 1,
      "neighborhood": "Duwamish/SODO",
      "neighborhoodGroup": "Greater Duwamish",
      "unitCount": 1,
      "severity": 0,
      "units": "E13",
      "address": "4th Av S / S Industrial Way"
    }
  },
  {
    "id_str": "F190075775",
    "created_at": "7/18/2019 8:09:15 AM",
    "derived": {
      "lat": 47.588437,
      "long": -122.315981,
      "timestamp": 1563462555000,
      "description": "MVI - Motor Vehicle Incident",
      "entries": 1,
      "neighborhood": "North Beacon Hill/Jefferson Park",
      "neighborhoodGroup": "Greater Duwamish",
      "unitCount": 1,
      "severity": 0,
      "units": "E30",
      "address": "13th Av S / S Massachusetts St"
    }
  },
  {
    "id_str": "F190075773",
    "created_at": "7/18/2019 8:07:55 AM",
    "derived": {
      "lat": 47.608444,
      "long": -122.331995,
      "timestamp": 1563462475000,
      "description": "Auto Fire Alarm",
      "entries": 2,
      "neighborhood": "First Hill",
      "neighborhoodGroup": "East",
      "unitCount": 2,
      "severity": 0,
      "units": "E5 L1",
      "address": "1200 6th Av"
    }
  },
  {
    "id_str": "F190075772",
    "created_at": "7/18/2019 8:07:35 AM",
    "derived": {
      "lat": 47.679483,
      "long": -122.312005,
      "timestamp": 1563462455000,
      "description": "Automatic Fire Alarm Resd",
      "entries": 1,
      "neighborhood": "Ravenna/Bryant",
      "neighborhoodGroup": "Northeast",
      "unitCount": 1,
      "severity": 0,
      "units": "E16",
      "address": "7012 15th Av Ne"
    }
  },
  {
    "id_str": "F190075769",
    "created_at": "7/18/2019 7:56:34 AM",
    "derived": {
      "lat": 47.62863,
      "long": -122.281354,
      "timestamp": 1563461794000,
      "description": "Automatic Fire Alarm Resd",
      "entries": 1,
      "neighborhood": "Madison Park",
      "neighborhoodGroup": "East",
      "unitCount": 1,
      "severity": 0,
      "units": "E34",
      "address": "1108 Mcgilvra Blvd E"
    }
  },
  {
    "id_str": "F190075768",
    "created_at": "7/18/2019 7:55:52 AM",
    "derived": {
      "lat": 47.574386,
      "long": -122.336788,
      "timestamp": 1563461752000,
      "description": "Aid Response",
      "entries": 1,
      "neighborhood": "Duwamish/SODO",
      "neighborhoodGroup": "Greater Duwamish",
      "unitCount": 1,
      "severity": 0,
      "units": "A14",
      "address": "Colorado Av S / S Horton St"
    }
  },
  {
    "id_str": "F190075767",
    "created_at": "7/18/2019 7:52:37 AM",
    "derived": {
      "lat": 47.723218,
      "long": -122.348195,
      "timestamp": 1563461557000,
      "description": "Aid Response",
      "entries": 2,
      "neighborhood": "Broadview/Bitter Lake",
      "neighborhoodGroup": "Northwest",
      "unitCount": 2,
      "severity": 0,
      "units": "E35 E9",
      "address": "13000 Linden Av N"
    }
  },
  {
    "id_str": "F190075766",
    "created_at": "7/18/2019 7:52:08 AM",
    "derived": {
      "lat": 47.558988,
      "long": -122.376234,
      "timestamp": 1563461528000,
      "description": "Aid Response",
      "entries": 1,
      "neighborhood": "West Seattle Junction/Genesee Hill",
      "neighborhoodGroup": "Southwest",
      "unitCount": 1,
      "severity": 0,
      "units": "E32",
      "address": "4831 35th Av Sw"
    }
  },
  {
    "id_str": "F190075765",
    "created_at": "7/18/2019 7:42:40 AM",
    "derived": {
      "lat": 47.604841,
      "long": -122.324097,
      "timestamp": 1563460960000,
      "description": "Medic Response",
      "entries": 1,
      "neighborhood": "First Hill",
      "neighborhoodGroup": "East",
      "unitCount": 2,
      "severity": 0,
      "units": "A10 M1",
      "address": "9TH AV / JEFFERSON ST"
    }
  },
  {
    "id_str": "F190075764",
    "created_at": "7/18/2019 7:32:49 AM",
    "derived": {
      "lat": 47.726864,
      "long": -122.348012,
      "timestamp": 1563460369000,
      "description": "Aid Response",
      "entries": 1,
      "neighborhood": "Broadview/Bitter Lake",
      "neighborhoodGroup": "Northwest",
      "unitCount": 1,
      "severity": 0,
      "units": "E24",
      "address": "747 N 135th St"
    }
  },
  {
    "id_str": "F190075763",
    "created_at": "7/18/2019 7:31:03 AM",
    "derived": {
      "lat": 47.600709,
      "long": -122.332877,
      "timestamp": 1563460263000,
      "description": "Aid Response",
      "entries": 1,
      "neighborhood": "Pioneer Square/International District",
      "neighborhoodGroup": "Downtown",
      "unitCount": 1,
      "severity": 0,
      "units": "A5",
      "address": "220 Occidental Av S"
    }
  },
  {
    "id_str": "F190075760",
    "created_at": "7/18/2019 7:19:21 AM",
    "derived": {
      "lat": 47.679478,
      "long": -122.322726,
      "timestamp": 1563459561000,
      "description": "Auto Fire Alarm",
      "entries": 1,
      "neighborhood": "Green Lake",
      "neighborhoodGroup": "Northwest",
      "unitCount": 2,
      "severity": 0,
      "units": "E16 L9",
      "address": "505 Ne 70th St"
    }
  },
  {
    "id_str": "F190075759",
    "created_at": "7/18/2019 7:18:26 AM",
    "derived": {
      "lat": 47.61409,
      "long": -122.337592,
      "timestamp": 1563459506000,
      "description": "Aid Response",
      "entries": 1,
      "neighborhood": "Cascade/Eastlake",
      "neighborhoodGroup": "Lake Union",
      "unitCount": 1,
      "severity": 0,
      "units": "A2",
      "address": "1942 Westlake Av"
    }
  },
  {
    "id_str": "F190075758",
    "created_at": "7/18/2019 7:13:17 AM",
    "derived": {
      "lat": 47.60509,
      "long": -122.32586,
      "timestamp": 1563459197000,
      "description": "MVI - Motor Vehicle Incident",
      "entries": 1,
      "neighborhood": "First Hill",
      "neighborhoodGroup": "East",
      "unitCount": 1,
      "severity": 0,
      "units": "E10",
      "address": "8th Av / James St"
    }
  },
  {
    "id_str": "F190075754",
    "created_at": "7/18/2019 7:03:08 AM",
    "derived": {
      "lat": 47.640679,
      "long": -122.37616,
      "timestamp": 1563458588000,
      "description": "Aid Response",
      "entries": 1,
      "neighborhood": "Interbay",
      "neighborhoodGroup": "Magnolia/Queen Anne",
      "unitCount": 1,
      "severity": 0,
      "units": "E20",
      "address": "15th Av W / W Wheeler St"
    }
  },
  {
    "id_str": "F190075752",
    "created_at": "7/18/2019 6:54:53 AM",
    "derived": {
      "lat": 47.610972,
      "long": -122.340465,
      "timestamp": 1563458093000,
      "description": "Aid Response Yellow",
      "entries": 1,
      "neighborhood": "Belltown",
      "neighborhoodGroup": "Downtown",
      "unitCount": 1,
      "severity": 0,
      "units": "A2",
      "address": "1902 2nd Av"
    }
  },
  {
    "id_str": "F190075751",
    "created_at": "7/18/2019 6:54:49 AM",
    "derived": {
      "lat": 47.60705,
      "long": -122.335324,
      "timestamp": 1563458089000,
      "description": "Aid Response",
      "entries": 1,
      "neighborhood": "Downtown Commercial Core",
      "neighborhoodGroup": "Downtown",
      "unitCount": 1,
      "severity": 0,
      "units": "A10",
      "address": "1201 3rd Av"
    }
  },
  {
    "id_str": "F190075746",
    "created_at": "7/18/2019 6:22:11 AM",
    "derived": {
      "lat": 47.716846,
      "long": -122.34489,
      "timestamp": 1563456131000,
      "description": "Aid Response",
      "entries": 1,
      "neighborhood": "Broadview/Bitter Lake",
      "neighborhoodGroup": "Northwest",
      "unitCount": 1,
      "severity": 0,
      "units": "E35",
      "address": "12045 Aurora Av N"
    }
  },
  {
    "id_str": "F190075744",
    "created_at": "7/18/2019 6:14:26 AM",
    "derived": {
      "lat": 47.705096,
      "long": -122.344695,
      "timestamp": 1563455666000,
      "description": "Aid Response",
      "entries": 1,
      "neighborhood": "Licton Springs",
      "neighborhoodGroup": "Northwest",
      "unitCount": 1,
      "severity": 0,
      "units": "E24",
      "address": "10507 Aurora Av N"
    }
  },
  {
    "id_str": "F190075739",
    "created_at": "7/18/2019 5:49:20 AM",
    "derived": {
      "lat": 47.689113,
      "long": -122.355301,
      "timestamp": 1563454160000,
      "description": "Aid Response",
      "entries": 1,
      "neighborhood": "Greenwood/Phinney Ridge",
      "neighborhoodGroup": "Northwest",
      "unitCount": 1,
      "severity": 0,
      "units": "E21",
      "address": "Greenwood Av N / N 83rd St"
    }
  },
  {
    "id_str": "F190075738",
    "created_at": "7/18/2019 5:44:21 AM",
    "derived": {
      "lat": 47.612577,
      "long": -122.342956,
      "timestamp": 1563453861000,
      "description": "Aid Response",
      "entries": 1,
      "neighborhood": "Belltown",
      "neighborhoodGroup": "Downtown",
      "unitCount": 1,
      "severity": 0,
      "units": "A2",
      "address": "211 Lenora St"
    }
  },
  {
    "id_str": "F190075736",
    "created_at": "7/18/2019 5:24:32 AM",
    "derived": {
      "lat": 47.602272,
      "long": -122.327883,
      "timestamp": 1563452672000,
      "description": "Aid Response",
      "entries": 1,
      "neighborhood": "First Hill",
      "neighborhoodGroup": "East",
      "unitCount": 1,
      "severity": 0,
      "units": "A5",
      "address": "401 5th Av"
    }
  },
  {
    "id_str": "F190075735",
    "created_at": "7/18/2019 5:17:58 AM",
    "derived": {
      "lat": 47.582838,
      "long": -122.386485,
      "timestamp": 1563452278000,
      "description": "Aid Response Yellow",
      "entries": 1,
      "neighborhood": "Alki/Admiral",
      "neighborhoodGroup": "Southwest",
      "unitCount": 1,
      "severity": 0,
      "units": "E32",
      "address": "2326 California Av Sw"
    }
  },
  {
    "id_str": "F190075734",
    "created_at": "7/18/2019 5:10:37 AM",
    "derived": {
      "lat": 47.571115,
      "long": -122.406805,
      "timestamp": 1563451837000,
      "description": "Aid Response",
      "entries": 1,
      "neighborhood": "Alki/Admiral",
      "neighborhoodGroup": "Southwest",
      "unitCount": 1,
      "severity": 0,
      "units": "E29",
      "address": "5773 Sw Orleans St"
    }
  },
  {
    "id_str": "F190075733",
    "created_at": "7/18/2019 4:24:41 AM",
    "derived": {
      "lat": 47.682298,
      "long": -122.344134,
      "timestamp": 1563449081000,
      "description": "Aid Response",
      "entries": 1,
      "neighborhood": "Green Lake",
      "neighborhoodGroup": "Northwest",
      "unitCount": 1,
      "severity": 0,
      "units": "E21",
      "address": "7317 Keen Way N"
    }
  },
  {
    "id_str": "F190075732",
    "created_at": "7/18/2019 4:24:41 AM",
    "derived": {
      "lat": 47.520126,
      "long": -122.259197,
      "timestamp": 1563449081000,
      "description": "Aid Response",
      "entries": 1,
      "neighborhood": "Rainier Beach",
      "neighborhoodGroup": "Southeast",
      "unitCount": 1,
      "severity": 0,
      "units": "E33",
      "address": "9551 Rainier Av S"
    }
  },
  {
    "id_str": "F190075731",
    "created_at": "7/18/2019 4:11:10 AM",
    "derived": {
      "lat": 47.619759,
      "long": -122.35283,
      "timestamp": 1563448270000,
      "description": "Multiple Medic Resp 14 Per",
      "entries": 1,
      "neighborhood": "Queen Anne",
      "neighborhoodGroup": "Magnolia/Queen Anne",
      "unitCount": 7,
      "severity": 1,
      "units": "A2 B2 E2 L4 M1 M10 M44",
      "address": "200 2nd Av N"
    }
  },
  {
    "id_str": "F190075730",
    "created_at": "7/18/2019 3:45:23 AM",
    "derived": {
      "lat": 47.644374,
      "long": -122.346913,
      "timestamp": 1563446723000,
      "description": "Aid Response",
      "entries": 1,
      "neighborhood": "Queen Anne",
      "neighborhoodGroup": "Magnolia/Queen Anne",
      "unitCount": 1,
      "severity": 0,
      "units": "E9",
      "address": "2717 Dexter Av N"
    }
  },
  {
    "id_str": "F190075728",
    "created_at": "7/18/2019 3:12:52 AM",
    "derived": {
      "lat": 47.632317,
      "long": -122.356036,
      "timestamp": 1563444772000,
      "description": "Aid Response",
      "entries": 1,
      "neighborhood": "Queen Anne",
      "neighborhoodGroup": "Magnolia/Queen Anne",
      "unitCount": 1,
      "severity": 0,
      "units": "E8",
      "address": "18 Galer St"
    }
  },
  {
    "id_str": "F190075727",
    "created_at": "7/18/2019 2:47:32 AM",
    "derived": {
      "lat": 47.535512,
      "long": -122.361136,
      "timestamp": 1563443252000,
      "description": "Aid Response",
      "entries": 1,
      "neighborhood": "High Point",
      "neighborhoodGroup": "Delridge Neighborhoods",
      "unitCount": 1,
      "severity": 0,
      "units": "E11",
      "address": "Delridge Way Sw / Sw Webster St"
    }
  },
  {
    "id_str": "F190075726",
    "created_at": "7/18/2019 2:32:13 AM",
    "derived": {
      "lat": 47.511575,
      "long": -122.381655,
      "timestamp": 1563442333000,
      "description": "Medic Response",
      "entries": 2,
      "neighborhood": "Arbor Heights",
      "neighborhoodGroup": "Southwest",
      "unitCount": 2,
      "severity": 0,
      "units": "E37 M10",
      "address": "10245 39th Av Sw"
    }
  },
  {
    "id_str": "F190075725",
    "created_at": "7/18/2019 2:28:59 AM",
    "derived": {
      "lat": 47.599201,
      "long": -122.331578,
      "timestamp": 1563442139000,
      "description": "Aid Response",
      "entries": 1,
      "neighborhood": "Duwamish/SODO",
      "neighborhoodGroup": "Greater Duwamish",
      "unitCount": 1,
      "severity": 0,
      "units": "A10",
      "address": "2nd Av S / S Jackson St"
    }
  },
  {
    "id_str": "F190075724",
    "created_at": "7/18/2019 2:28:37 AM",
    "derived": {
      "lat": 47.696113,
      "long": -122.355359,
      "timestamp": 1563442117000,
      "description": "Medic Response, 7 per Rule",
      "entries": 2,
      "neighborhood": "Greenwood/Phinney Ridge",
      "neighborhoodGroup": "Northwest",
      "unitCount": 3,
      "severity": 0,
      "units": "E21 E35 M31",
      "address": "9215 Greenwood Av N"
    }
  },
  {
    "id_str": "F190075722",
    "created_at": "7/18/2019 2:05:39 AM",
    "derived": {
      "lat": 47.730773,
      "long": -122.342355,
      "timestamp": 1563440739000,
      "description": "Aid Response Yellow",
      "entries": 1,
      "neighborhood": "Haller Lake",
      "neighborhoodGroup": "Northwest",
      "unitCount": 1,
      "severity": 0,
      "units": "E24",
      "address": "14047 Stone Av N"
    }
  },
  {
    "id_str": "F190075720",
    "created_at": "7/18/2019 1:27:22 AM",
    "derived": {
      "lat": 47.560074,
      "long": -122.381457,
      "timestamp": 1563438442000,
      "description": "Auto Fire Alarm",
      "entries": 1,
      "neighborhood": "West Seattle Junction/Genesee Hill",
      "neighborhoodGroup": "Southwest",
      "unitCount": 4,
      "severity": 0,
      "units": "B7 E32 E36 L11",
      "address": "4755 Fauntleroy Way Sw"
    }
  },
  {
    "id_str": "F190075719",
    "created_at": "7/18/2019 1:23:08 AM",
    "derived": {
      "lat": 47.631771,
      "long": -122.355639,
      "timestamp": 1563438188000,
      "description": "Aid Response",
      "entries": 1,
      "neighborhood": "Queen Anne",
      "neighborhoodGroup": "Magnolia/Queen Anne",
      "unitCount": 1,
      "severity": 0,
      "units": "E8",
      "address": "1424 1st Av N"
    }
  },
  {
    "id_str": "F190075717",
    "created_at": "7/18/2019 1:04:41 AM",
    "derived": {
      "lat": 47.730773,
      "long": -122.342355,
      "timestamp": 1563437081000,
      "description": "Aid Response Yellow",
      "entries": 1,
      "neighborhood": "Haller Lake",
      "neighborhoodGroup": "Northwest",
      "unitCount": 1,
      "severity": 0,
      "units": "E24",
      "address": "14047 Stone Av N"
    }
  },
  {
    "id_str": "F190075716",
    "created_at": "7/18/2019 12:53:54 AM",
    "derived": {
      "lat": 47.535404,
      "long": -122.326716,
      "timestamp": 1563436434000,
      "description": "Scenes Of Violence 7",
      "entries": 1,
      "neighborhood": "South Park",
      "neighborhoodGroup": "Greater Duwamish",
      "unitCount": 5,
      "severity": 1,
      "units": "B7 E26 E27 M32 M44",
      "address": "604 S Riverside Dr"
    }
  },
  {
    "id_str": "F190075714",
    "created_at": "7/18/2019 12:45:55 AM",
    "derived": {
      "lat": 47.702956,
      "long": -122.277666,
      "timestamp": 1563435955000,
      "description": "Car Fire",
      "entries": 1,
      "neighborhood": "Wedgwood/View Ridge",
      "neighborhoodGroup": "Northeast",
      "unitCount": 1,
      "severity": 0,
      "units": "E40",
      "address": "Ne 103rd St / Sand Point Way Ne"
    }
  },
  {
    "id_str": "F190075713",
    "created_at": "7/18/2019 12:28:46 AM",
    "derived": {
      "lat": 47.542238,
      "long": -122.272642,
      "timestamp": 1563434926000,
      "description": "Aid Response",
      "entries": 1,
      "neighborhood": "Seward Park",
      "neighborhoodGroup": "Southeast",
      "unitCount": 1,
      "severity": 0,
      "units": "E28",
      "address": "6727 Rainier Av S"
    }
  },
  {
    "id_str": "F190075712",
    "created_at": "7/18/2019 12:27:07 AM",
    "derived": {
      "lat": 47.609685,
      "long": -122.334666,
      "timestamp": 1563434827000,
      "description": "MVI - Motor Vehicle Incident",
      "entries": 1,
      "neighborhood": "Downtown Commercial Core",
      "neighborhoodGroup": "Downtown",
      "unitCount": 1,
      "severity": 0,
      "units": "E2",
      "address": "5th Av / Union St"
    }
  },
  {
    "id_str": "F190075711",
    "created_at": "7/18/2019 12:24:56 AM",
    "derived": {
      "lat": 47.682803,
      "long": -122.321332,
      "timestamp": 1563434696000,
      "description": "MVI - Motor Vehicle Incident",
      "entries": 1,
      "neighborhood": "Green Lake",
      "neighborhoodGroup": "Northwest",
      "unitCount": 3,
      "severity": 0,
      "units": "A25 E16 E31",
      "address": "Nb I5 At 75"
    }
  },
  {
    "id_str": "F190075710",
    "created_at": "7/18/2019 12:17:25 AM",
    "derived": {
      "lat": 47.603073,
      "long": -122.33557,
      "timestamp": 1563434245000,
      "description": "Aid Response",
      "entries": 1,
      "neighborhood": "Downtown Commercial Core",
      "neighborhoodGroup": "Downtown",
      "unitCount": 1,
      "severity": 0,
      "units": "E5",
      "address": "808 Post Av"
    }
  },
  {
    "id_str": "F190075704",
    "created_at": "7/17/2019 11:45:22 PM",
    "derived": {
      "lat": 47.719423,
      "long": -122.314043,
      "timestamp": 1563432322000,
      "description": "Aid Response",
      "entries": 1,
      "neighborhood": "Haller Lake",
      "neighborhoodGroup": "Northwest",
      "unitCount": 1,
      "severity": 0,
      "units": "E39",
      "address": "14th Av Ne / Ne 125th St"
    }
  },
  {
    "id_str": "F190075703",
    "created_at": "7/17/2019 11:23:25 PM",
    "derived": {
      "lat": 47.527191,
      "long": -122.355069,
      "timestamp": 1563431005000,
      "description": "Aid Response",
      "entries": 1,
      "neighborhood": "Highland Park",
      "neighborhoodGroup": "Delridge Neighborhoods",
      "unitCount": 1,
      "severity": 0,
      "units": "E11",
      "address": "8527 16th Av Sw"
    }
  },
  {
    "id_str": "F190075702",
    "created_at": "7/17/2019 11:10:31 PM",
    "derived": {
      "lat": 47.615877,
      "long": -122.35052,
      "timestamp": 1563430231000,
      "description": "Aid Response Yellow",
      "entries": 1,
      "neighborhood": "Belltown",
      "neighborhoodGroup": "Downtown",
      "unitCount": 1,
      "severity": 0,
      "units": "A2",
      "address": "111 Cedar St"
    }
  },
  {
    "id_str": "F190075701",
    "created_at": "7/17/2019 10:51:05 PM",
    "derived": {
      "lat": 47.690303,
      "long": -122.306854,
      "timestamp": 1563429065000,
      "description": "Scenes Of Violence 7",
      "entries": 1,
      "neighborhood": "Wedgwood/View Ridge",
      "neighborhoodGroup": "Northeast",
      "unitCount": 5,
      "severity": 1,
      "units": "B6 E16 E40 M17 M44",
      "address": "8500 20th Av Ne"
    }
  },
  {
    "id_str": "F190075699",
    "created_at": "7/17/2019 10:46:31 PM",
    "derived": {
      "lat": 47.617198,
      "long": -122.335129,
      "timestamp": 1563428791000,
      "description": "Aid Response",
      "entries": 1,
      "neighborhood": "Cascade/Eastlake",
      "neighborhoodGroup": "Lake Union",
      "unitCount": 1,
      "severity": 0,
      "units": "A2",
      "address": "2020 Terry Av"
    }
  },
  {
    "id_str": "F190075698",
    "created_at": "7/17/2019 10:33:32 PM",
    "derived": {
      "lat": 47.666428,
      "long": -122.311916,
      "timestamp": 1563428012000,
      "description": "MVI - Motor Vehicle Incident",
      "entries": 1,
      "neighborhood": "University District",
      "neighborhoodGroup": "Northeast",
      "unitCount": 1,
      "severity": 0,
      "units": "E17",
      "address": "5200 15th Av Ne"
    }
  },
  {
    "id_str": "F190075697",
    "created_at": "7/17/2019 10:27:36 PM",
    "derived": {
      "lat": 47.611553,
      "long": -122.311479,
      "timestamp": 1563427656000,
      "description": "Auto Fire Alarm",
      "entries": 1,
      "neighborhood": "Central Area/Squire Park",
      "neighborhoodGroup": "Central",
      "unitCount": 2,
      "severity": 0,
      "units": "E25 L10",
      "address": "1103 16th Av"
    }
  },
  {
    "id_str": "F190075696",
    "created_at": "7/17/2019 10:20:26 PM",
    "derived": {
      "lat": 47.539605,
      "long": -122.387273,
      "timestamp": 1563427226000,
      "description": "Medic Response",
      "entries": 1,
      "neighborhood": "Fauntleroy/Seaview",
      "neighborhoodGroup": "Southwest",
      "unitCount": 2,
      "severity": 0,
      "units": "E37 M32",
      "address": "7130 CALIFORNIA AV SW"
    }
  },
  {
    "id_str": "F190075693",
    "created_at": "7/17/2019 10:12:35 PM",
    "derived": {
      "lat": 47.708611,
      "long": -122.325928,
      "timestamp": 1563426755000,
      "description": "AFA4 - Auto Alarm 2 + 1 + 1",
      "entries": 2,
      "neighborhood": "Northgate/Maple Leaf",
      "neighborhoodGroup": "North",
      "unitCount": 5,
      "severity": 1,
      "units": "B4 E17 E31 E39 L5",
      "address": "302 Ne Northgate Way"
    }
  },
  {
    "id_str": "F190075692",
    "created_at": "7/17/2019 10:09:25 PM",
    "derived": {
      "lat": 47.526457,
      "long": -122.320229,
      "timestamp": 1563426565000,
      "description": "Aid Response",
      "entries": 1,
      "neighborhood": "South Park",
      "neighborhoodGroup": "Greater Duwamish",
      "unitCount": 1,
      "severity": 0,
      "units": "E26",
      "address": "1004 S Cloverdale St"
    }
  },
  {
    "id_str": "F190075689",
    "created_at": "7/17/2019 10:00:48 PM",
    "derived": {
      "lat": 47.627745,
      "long": -122.33213,
      "timestamp": 1563426048000,
      "description": "Auto Fire Alarm",
      "entries": 1,
      "neighborhood": "Cascade/Eastlake",
      "neighborhoodGroup": "Lake Union",
      "unitCount": 2,
      "severity": 0,
      "units": "E2 L4",
      "address": "1000 Fairview Av N"
    }
  },
  {
    "id_str": "F190075690",
    "created_at": "7/17/2019 10:00:46 PM",
    "derived": {
      "lat": 47.611606,
      "long": -122.333354,
      "timestamp": 1563426046000,
      "description": "Aid Response",
      "entries": 1,
      "neighborhood": "First Hill",
      "neighborhoodGroup": "East",
      "unitCount": 1,
      "severity": 0,
      "units": "A2",
      "address": "700 Pike St"
    }
  },
  {
    "id_str": "F190075688",
    "created_at": "7/17/2019 9:52:57 PM",
    "derived": {
      "lat": 47.568046,
      "long": -122.322673,
      "timestamp": 1563425577000,
      "description": "Aid Response",
      "entries": 1,
      "neighborhood": "Duwamish/SODO",
      "neighborhoodGroup": "Greater Duwamish",
      "unitCount": 1,
      "severity": 0,
      "units": "A14",
      "address": "4003 Airport Way S"
    }
  },
  {
    "id_str": "F190075687",
    "created_at": "7/17/2019 9:47:19 PM",
    "derived": {
      "lat": 47.67834,
      "long": -122.32895,
      "timestamp": 1563425239000,
      "description": "Aid Response",
      "entries": 1,
      "neighborhood": "Green Lake",
      "neighborhoodGroup": "Northwest",
      "unitCount": 1,
      "severity": 0,
      "units": "E16",
      "address": "6720 East Green Lake Way N"
    }
  },
  {
    "id_str": "F190075686",
    "created_at": "7/17/2019 9:45:42 PM",
    "derived": {
      "lat": 47.600863,
      "long": -122.295845,
      "timestamp": 1563425142000,
      "description": "Medic Response, 6 per Rule",
      "entries": 1,
      "neighborhood": "Madrona/Leschi",
      "neighborhoodGroup": "Central",
      "unitCount": 3,
      "severity": 0,
      "units": "E6 L3 M1",
      "address": "28TH AV S / S WASHINGTON ST"
    }
  },
  {
    "id_str": "F190075685",
    "created_at": "7/17/2019 9:40:28 PM",
    "derived": {
      "lat": 47.538872,
      "long": -122.284744,
      "timestamp": 1563424828000,
      "description": "Medic Response",
      "entries": 1,
      "neighborhood": "South Beacon Hill/NewHolly",
      "neighborhoodGroup": "Greater Duwamish",
      "unitCount": 2,
      "severity": 0,
      "units": "E28 M28",
      "address": "7101 38th Av S"
    }
  },
  {
    "id_str": "F190075684",
    "created_at": "7/17/2019 9:40:05 PM",
    "derived": {
      "lat": 47.670187,
      "long": -122.387587,
      "timestamp": 1563424805000,
      "description": "Aid Response",
      "entries": 1,
      "neighborhood": "Sunset Hill/Loyal Heights",
      "neighborhoodGroup": "Ballard",
      "unitCount": 1,
      "severity": 0,
      "units": "E18",
      "address": "5700 24th Av Nw"
    }
  },
  {
    "id_str": "F190075683",
    "created_at": "7/17/2019 9:36:28 PM",
    "derived": {
      "lat": 47.539433,
      "long": -122.320138,
      "timestamp": 1563424588000,
      "description": "Aid Response",
      "entries": 1,
      "neighborhood": "Georgetown",
      "neighborhoodGroup": "Greater Duwamish",
      "unitCount": 1,
      "severity": 0,
      "units": "E27",
      "address": "1020 S Myrtle St"
    }
  },
  {
    "id_str": "F190075680",
    "created_at": "7/17/2019 9:34:23 PM",
    "derived": {
      "lat": 47.594356,
      "long": -122.310367,
      "timestamp": 1563424463000,
      "description": "Aid Response",
      "entries": 1,
      "neighborhood": "North Beacon Hill/Jefferson Park",
      "neighborhoodGroup": "Greater Duwamish",
      "unitCount": 1,
      "severity": 0,
      "units": "A10",
      "address": "901 Rainier Av S"
    }
  },
  {
    "id_str": "F190075679",
    "created_at": "7/17/2019 9:22:18 PM",
    "derived": {
      "lat": 47.521679,
      "long": -122.264284,
      "timestamp": 1563423738000,
      "description": "Aid Response",
      "entries": 1,
      "neighborhood": "Rainier Beach",
      "neighborhoodGroup": "Southeast",
      "unitCount": 1,
      "severity": 0,
      "units": "E33",
      "address": "9061 Seward Park Av S"
    }
  },
  {
    "id_str": "F190075678",
    "created_at": "7/17/2019 9:20:02 PM",
    "derived": {
      "lat": 47.571853,
      "long": -122.293193,
      "timestamp": 1563423602000,
      "description": "Aid Response Yellow",
      "entries": 1,
      "neighborhood": "Columbia City",
      "neighborhoodGroup": "Southeast",
      "unitCount": 1,
      "severity": 0,
      "units": "E30",
      "address": "3501 Rainier Av S"
    }
  },
  {
    "id_str": "F190075677",
    "created_at": "7/17/2019 9:17:39 PM",
    "derived": {
      "lat": 47.624005,
      "long": -122.334284,
      "timestamp": 1563423459000,
      "description": "Aid Response",
      "entries": 1,
      "neighborhood": "Cascade/Eastlake",
      "neighborhoodGroup": "Lake Union",
      "unitCount": 1,
      "severity": 0,
      "units": "E2",
      "address": "527 Fairview Av N"
    }
  },
  {
    "id_str": "F190075676",
    "created_at": "7/17/2019 9:08:59 PM",
    "derived": {
      "lat": 47.624412,
      "long": -122.301154,
      "timestamp": 1563422939000,
      "description": "Aid Response",
      "entries": 1,
      "neighborhood": "Central Area/Squire Park",
      "neighborhoodGroup": "Central",
      "unitCount": 1,
      "severity": 0,
      "units": "E34",
      "address": "604 24th Av E"
    }
  },
  {
    "id_str": "F190075675",
    "created_at": "7/17/2019 9:08:06 PM",
    "derived": {
      "lat": 47.573131,
      "long": -122.37816,
      "timestamp": 1563422886000,
      "description": "Aid Response",
      "entries": 1,
      "neighborhood": "West Seattle Junction/Genesee Hill",
      "neighborhoodGroup": "Southwest",
      "unitCount": 1,
      "severity": 0,
      "units": "E32",
      "address": "37th Av Sw / Sw Hinds St"
    }
  },
  {
    "id_str": "F190075671",
    "created_at": "7/17/2019 8:59:27 PM",
    "derived": {
      "lat": 47.613497,
      "long": -122.346355,
      "timestamp": 1563422367000,
      "description": "Medic Response",
      "entries": 1,
      "neighborhood": "Belltown",
      "neighborhoodGroup": "Downtown",
      "unitCount": 2,
      "severity": 0,
      "units": "A2 M10",
      "address": "118 Bell St"
    }
  },
  {
    "id_str": "F190075670",
    "created_at": "7/17/2019 8:56:52 PM",
    "derived": {
      "lat": 47.600194,
      "long": -122.330541,
      "timestamp": 1563422212000,
      "description": "Aid Response",
      "entries": 1,
      "neighborhood": "Pioneer Square/International District",
      "neighborhoodGroup": "Downtown",
      "unitCount": 1,
      "severity": 0,
      "units": "A5",
      "address": "318 2nd Av Et S"
    }
  },
  {
    "id_str": "F190075668",
    "created_at": "7/17/2019 8:56:04 PM",
    "derived": {
      "lat": 47.707545,
      "long": -122.374409,
      "timestamp": 1563422164000,
      "description": "Brush Fire",
      "entries": 1,
      "neighborhood": "North Beach/Blue Ridge",
      "neighborhoodGroup": "Ballard",
      "unitCount": 1,
      "severity": 0,
      "units": "E35",
      "address": "1415 Nw Woodbine Way"
    }
  },
  {
    "id_str": "F190075667",
    "created_at": "7/17/2019 8:55:02 PM",
    "derived": {
      "lat": 47.663322,
      "long": -122.298474,
      "timestamp": 1563422102000,
      "description": "Aid Response",
      "entries": 1,
      "neighborhood": "Ravenna/Bryant",
      "neighborhoodGroup": "Northeast",
      "unitCount": 1,
      "severity": 0,
      "units": "E38",
      "address": "2656 Ne University Village St"
    }
  },
  {
    "id_str": "F190075666",
    "created_at": "7/17/2019 8:51:17 PM",
    "derived": {
      "lat": 47.612941,
      "long": -122.30244,
      "timestamp": 1563421877000,
      "description": "Aid Response",
      "entries": 1,
      "neighborhood": "Central Area/Squire Park",
      "neighborhoodGroup": "Central",
      "unitCount": 1,
      "severity": 0,
      "units": "A25",
      "address": "2320 E UNION ST"
    }
  },
  {
    "id_str": "F190075664",
    "created_at": "7/17/2019 8:48:14 PM",
    "derived": {
      "lat": 47.573131,
      "long": -122.37816,
      "timestamp": 1563421694000,
      "description": "MVI - Motor Vehicle Incident",
      "entries": 1,
      "neighborhood": "West Seattle Junction/Genesee Hill",
      "neighborhoodGroup": "Southwest",
      "unitCount": 1,
      "severity": 0,
      "units": "E32",
      "address": "37th Av Sw / Sw Hinds St"
    }
  },
  {
    "id_str": "F190075663",
    "created_at": "7/17/2019 8:46:02 PM",
    "derived": {
      "lat": 47.595835,
      "long": -122.325068,
      "timestamp": 1563421562000,
      "description": "Rescue Elevator",
      "entries": 1,
      "neighborhood": "Pioneer Square/International District",
      "neighborhoodGroup": "Downtown",
      "unitCount": 1,
      "severity": 0,
      "units": "L1",
      "address": "800 Maynard Av S"
    }
  },
  {
    "id_str": "F190075661",
    "created_at": "7/17/2019 8:41:18 PM",
    "derived": {
      "lat": 47.601973,
      "long": -122.322467,
      "timestamp": 1563421278000,
      "description": "Aid Response",
      "entries": 1,
      "neighborhood": "First Hill",
      "neighborhoodGroup": "East",
      "unitCount": 1,
      "severity": 0,
      "units": "A10",
      "address": "125 8th Av"
    }
  },
  {
    "id_str": "F190075659",
    "created_at": "7/17/2019 8:26:34 PM",
    "derived": {
      "lat": 47.661467,
      "long": -122.368768,
      "timestamp": 1563420394000,
      "description": "Aid Response",
      "entries": 1,
      "neighborhood": "Ballard",
      "neighborhoodGroup": "Ballard",
      "unitCount": 1,
      "severity": 0,
      "units": "E18",
      "address": "915 Nw 45th St"
    }
  },
  {
    "id_str": "F190075658",
    "created_at": "7/17/2019 8:23:54 PM",
    "derived": {
      "lat": 47.625477,
      "long": -122.304725,
      "timestamp": 1563420234000,
      "description": "4RED - 2 + 1 + 1",
      "entries": 1,
      "neighborhood": "Miller Park",
      "neighborhoodGroup": "East",
      "unitCount": 4,
      "severity": 0,
      "units": "B2 E25 E34 L3",
      "address": "733 21st Av E"
    }
  },
  {
    "id_str": "F190075657",
    "created_at": "7/17/2019 8:22:55 PM",
    "derived": {
      "lat": 47.610299,
      "long": -122.339831,
      "timestamp": 1563420175000,
      "description": "Aid Response",
      "entries": 1,
      "neighborhood": "Downtown Commercial Core",
      "neighborhoodGroup": "Downtown",
      "unitCount": 1,
      "severity": 0,
      "units": "A4",
      "address": "1610 2nd Av"
    }
  },
  {
    "id_str": "F190075654",
    "created_at": "7/17/2019 8:21:32 PM",
    "derived": {
      "lat": 47.608979,
      "long": -122.337089,
      "timestamp": 1563420092000,
      "description": "Medic Response, 6 per Rule",
      "entries": 2,
      "neighborhood": "Downtown Commercial Core",
      "neighborhoodGroup": "Downtown",
      "unitCount": 4,
      "severity": 0,
      "units": "A2 E5 M17 M44",
      "address": "1423 3rd Av"
    }
  },
  {
    "id_str": "F190075653",
    "created_at": "7/17/2019 8:19:43 PM",
    "derived": {
      "lat": 47.652148,
      "long": -122.387582,
      "timestamp": 1563419983000,
      "description": "Medic Response",
      "entries": 1,
      "neighborhood": "Interbay",
      "neighborhoodGroup": "Magnolia/Queen Anne",
      "unitCount": 2,
      "severity": 0,
      "units": "E20 M18",
      "address": "3601 24th Av W"
    }
  },
  {
    "id_str": "F190075652",
    "created_at": "7/17/2019 8:14:55 PM",
    "derived": {
      "lat": 47.617013,
      "long": -122.330851,
      "timestamp": 1563419695000,
      "description": "Rescue Elevator",
      "entries": 1,
      "neighborhood": "Cascade/Eastlake",
      "neighborhoodGroup": "Lake Union",
      "unitCount": 1,
      "severity": 0,
      "units": "L10",
      "address": "1823 Minor Av"
    }
  },
  {
    "id_str": "F190075650",
    "created_at": "7/17/2019 8:14:09 PM",
    "derived": {
      "lat": 47.602172,
      "long": -122.330863,
      "timestamp": 1563419649000,
      "description": "Medic Response",
      "entries": 2,
      "neighborhood": "Downtown Commercial Core",
      "neighborhoodGroup": "Downtown",
      "unitCount": 3,
      "severity": 0,
      "units": "A5 L1 M17",
      "address": "517 3rd Av"
    }
  },
  {
    "id_str": "F190075649",
    "created_at": "7/17/2019 8:13:56 PM",
    "derived": {
      "lat": 47.597883,
      "long": -122.333263,
      "timestamp": 1563419636000,
      "description": "Medic Response",
      "entries": 1,
      "neighborhood": "Duwamish/SODO",
      "neighborhoodGroup": "Greater Duwamish",
      "unitCount": 2,
      "severity": 0,
      "units": "E10 M1",
      "address": "547 Occidental Av S"
    }
  },
  {
    "id_str": "F190075651",
    "created_at": "7/17/2019 8:13:44 PM",
    "derived": {
      "lat": 47.702746,
      "long": -122.363403,
      "timestamp": 1563419624000,
      "description": "Medic Response",
      "entries": 1,
      "neighborhood": "North Beach/Blue Ridge",
      "neighborhoodGroup": "Ballard",
      "unitCount": 2,
      "severity": 0,
      "units": "E35 M31",
      "address": "6th Av Nw / Nw 100th Pl"
    }
  },
  {
    "id_str": "F190075646",
    "created_at": "7/17/2019 8:10:39 PM",
    "derived": {
      "lat": 47.617316,
      "long": -122.347229,
      "timestamp": 1563419439000,
      "description": "Aid Response Yellow",
      "entries": 1,
      "neighborhood": "Cascade/Eastlake",
      "neighborhoodGroup": "Lake Union",
      "unitCount": 1,
      "severity": 0,
      "units": "A4",
      "address": "2614 4th Av"
    }
  },
  {
    "id_str": "F190075647",
    "created_at": "7/17/2019 8:10:35 PM",
    "derived": {
      "lat": 47.708611,
      "long": -122.325928,
      "timestamp": 1563419435000,
      "description": "Aid Response",
      "entries": 1,
      "neighborhood": "Northgate/Maple Leaf",
      "neighborhoodGroup": "North",
      "unitCount": 1,
      "severity": 0,
      "units": "A31",
      "address": "302 Ne Northgate Way"
    }
  },
  {
    "id_str": "F190075645",
    "created_at": "7/17/2019 8:07:30 PM",
    "derived": {
      "lat": 47.531281,
      "long": -122.275875,
      "timestamp": 1563419250000,
      "description": "Medic Response",
      "entries": 2,
      "neighborhood": "Rainier Beach",
      "neighborhoodGroup": "Southeast",
      "unitCount": 3,
      "severity": 0,
      "units": "E26 E28 M28",
      "address": "7909 45th Av S"
    }
  },
  {
    "id_str": "F190075644",
    "created_at": "7/17/2019 8:02:42 PM",
    "derived": {
      "lat": 47.669758,
      "long": -122.311889,
      "timestamp": 1563418962000,
      "description": "Rescue Elevator",
      "entries": 1,
      "neighborhood": "University District",
      "neighborhoodGroup": "Northeast",
      "unitCount": 1,
      "severity": 0,
      "units": "L9",
      "address": "5625 15th Av Ne"
    }
  },
  {
    "id_str": "F190075642",
    "created_at": "7/17/2019 8:00:02 PM",
    "derived": {
      "lat": 47.602985,
      "long": -122.328535,
      "timestamp": 1563418802000,
      "description": "Medic Response",
      "entries": 1,
      "neighborhood": "First Hill",
      "neighborhoodGroup": "East",
      "unitCount": 2,
      "severity": 0,
      "units": "A10 M10",
      "address": "500 5th Av"
    }
  },
  {
    "id_str": "F190075641",
    "created_at": "7/17/2019 7:57:32 PM",
    "derived": {
      "lat": 47.606088,
      "long": -122.332909,
      "timestamp": 1563418652000,
      "description": "Medic Response",
      "entries": 1,
      "neighborhood": "Downtown Commercial Core",
      "neighborhoodGroup": "Downtown",
      "unitCount": 2,
      "severity": 0,
      "units": "A5 M1",
      "address": "1000 4th Av"
    }
  },
  {
    "id_str": "F190075640",
    "created_at": "7/17/2019 7:55:46 PM",
    "derived": {
      "lat": 47.58396,
      "long": -122.386425,
      "timestamp": 1563418546000,
      "description": "Medic Response",
      "entries": 1,
      "neighborhood": "Alki/Admiral",
      "neighborhoodGroup": "Southwest",
      "unitCount": 2,
      "severity": 0,
      "units": "E29 M32",
      "address": "2204 California Av Sw"
    }
  },
  {
    "id_str": "F190075638",
    "created_at": "7/17/2019 7:43:59 PM",
    "derived": {
      "lat": 47.569771,
      "long": -122.290699,
      "timestamp": 1563417839000,
      "description": "MVI - Motor Vehicle Incident",
      "entries": 2,
      "neighborhood": "Columbia City",
      "neighborhoodGroup": "Southeast",
      "unitCount": 2,
      "severity": 0,
      "units": "E30 L3",
      "address": "RAINIER AV S / LETITIA AV S"
    }
  },
  {
    "id_str": "F190075637",
    "created_at": "7/17/2019 7:41:22 PM",
    "derived": {
      "lat": 47.513098,
      "long": -122.263913,
      "timestamp": 1563417682000,
      "description": "Medic Response",
      "entries": 3,
      "neighborhood": "Rainier Beach",
      "neighborhoodGroup": "Southeast",
      "unitCount": 3,
      "severity": 0,
      "units": "E26 M28 M32",
      "address": "9815 Renton Av S"
    }
  },
  {
    "id_str": "F190075636",
    "created_at": "7/17/2019 7:38:30 PM",
    "derived": {
      "lat": 47.567092,
      "long": -122.317245,
      "timestamp": 1563417510000,
      "description": "Aid Response Yellow",
      "entries": 1,
      "neighborhood": "Duwamish/SODO",
      "neighborhoodGroup": "Greater Duwamish",
      "unitCount": 1,
      "severity": 0,
      "units": "E13",
      "address": "4114 12TH AV S"
    }
  },
  {
    "id_str": "F190075635",
    "created_at": "7/17/2019 7:36:32 PM",
    "derived": {
      "lat": 47.660704,
      "long": -122.340672,
      "timestamp": 1563417392000,
      "description": "Medic Response",
      "entries": 2,
      "neighborhood": "Wallingford",
      "neighborhoodGroup": "Lake Union",
      "unitCount": 2,
      "severity": 0,
      "units": "E9 M17",
      "address": "4455 Interlake Av N"
    }
  },
  {
    "id_str": "F190075633",
    "created_at": "7/17/2019 7:27:26 PM",
    "derived": {
      "lat": 47.716271,
      "long": -122.371618,
      "timestamp": 1563416846000,
      "description": "Automatic Fire Alarm Resd",
      "entries": 1,
      "neighborhood": "Broadview/Bitter Lake",
      "neighborhoodGroup": "Northwest",
      "unitCount": 1,
      "severity": 0,
      "units": "E24",
      "address": "12033 12th Av Nw"
    }
  },
  {
    "id_str": "F190075632",
    "created_at": "7/17/2019 7:27:21 PM",
    "derived": {
      "lat": 47.551928,
      "long": -122.387043,
      "timestamp": 1563416841000,
      "description": "1RED 1 Unit",
      "entries": 1,
      "neighborhood": "Fauntleroy/Seaview",
      "neighborhoodGroup": "Southwest",
      "unitCount": 1,
      "severity": 0,
      "units": "E32",
      "address": "5630 California Av Sw"
    }
  },
  {
    "id_str": "F190075631",
    "created_at": "7/17/2019 7:18:16 PM",
    "derived": {
      "lat": 47.666619,
      "long": -122.311913,
      "timestamp": 1563416296000,
      "description": "Medic Response, 6 per Rule",
      "entries": 1,
      "neighborhood": "University District",
      "neighborhoodGroup": "Northeast",
      "unitCount": 3,
      "severity": 0,
      "units": "E17 E31 M17",
      "address": "5228 15th Av Ne"
    }
  },
  {
    "id_str": "F190075630",
    "created_at": "7/17/2019 7:17:52 PM",
    "derived": {
      "lat": 47.69398,
      "long": -122.38112,
      "timestamp": 1563416272000,
      "description": "Aid Response",
      "entries": 1,
      "neighborhood": "North Beach/Blue Ridge",
      "neighborhoodGroup": "Ballard",
      "unitCount": 1,
      "severity": 0,
      "units": "E35",
      "address": "1916 Nw 89th St"
    }
  },
  {
    "id_str": "F190075629",
    "created_at": "7/17/2019 7:11:54 PM",
    "derived": {
      "lat": 47.603521,
      "long": -122.320742,
      "timestamp": 1563415914000,
      "description": "Aid Response",
      "entries": 1,
      "neighborhood": "First Hill",
      "neighborhoodGroup": "East",
      "unitCount": 1,
      "severity": 0,
      "units": "A10",
      "address": "Broadway / E Spruce St"
    }
  },
  {
    "id_str": "F190075627",
    "created_at": "7/17/2019 7:09:14 PM",
    "derived": {
      "lat": 47.614953,
      "long": -122.335295,
      "timestamp": 1563415754000,
      "description": "Medic Response",
      "entries": 2,
      "neighborhood": "Cascade/Eastlake",
      "neighborhoodGroup": "Lake Union",
      "unitCount": 2,
      "severity": 0,
      "units": "A4 M32",
      "address": "8th Av / Stewart St"
    }
  },
  {
    "id_str": "F190075626",
    "created_at": "7/17/2019 7:06:48 PM",
    "derived": {
      "lat": 47.602985,
      "long": -122.328535,
      "timestamp": 1563415608000,
      "description": "Medic Response, 6 per Rule",
      "entries": 3,
      "neighborhood": "First Hill",
      "neighborhoodGroup": "East",
      "unitCount": 3,
      "severity": 0,
      "units": "A5 E10 M10",
      "address": "5th Av / Jefferson St"
    }
  },
  {
    "id_str": "F190075622",
    "created_at": "7/17/2019 6:57:47 PM",
    "derived": {
      "lat": 47.6146,
      "long": -122.342634,
      "timestamp": 1563415067000,
      "description": "Auto Fire Alarm",
      "entries": 1,
      "neighborhood": "Cascade/Eastlake",
      "neighborhoodGroup": "Lake Union",
      "unitCount": 2,
      "severity": 0,
      "units": "E2 L4",
      "address": "2201 4th Av"
    }
  },
  {
    "id_str": "F190075621",
    "created_at": "7/17/2019 6:56:44 PM",
    "derived": {
      "lat": 47.731516,
      "long": -122.315417,
      "timestamp": 1563415004000,
      "description": "4RED - 2 + 1 + 1",
      "entries": 1,
      "neighborhood": "Olympic Hills/Victory Heights",
      "neighborhoodGroup": "North",
      "unitCount": 4,
      "severity": 0,
      "units": "B4 E24 E39 L5",
      "address": "14030 12th Av Ne"
    }
  },
  {
    "id_str": "F190075620",
    "created_at": "7/17/2019 6:54:16 PM",
    "derived": {
      "lat": 47.60368,
      "long": -122.318103,
      "timestamp": 1563414856000,
      "description": "Medic Response",
      "entries": 1,
      "neighborhood": "First Hill",
      "neighborhoodGroup": "East",
      "unitCount": 2,
      "severity": 0,
      "units": "A25 M1",
      "address": "220 11th Av"
    }
  },
  {
    "id_str": "F190075619",
    "created_at": "7/17/2019 6:52:41 PM",
    "derived": {
      "lat": 47.544669,
      "long": -122.373777,
      "timestamp": 1563414761000,
      "description": "Aid Response",
      "entries": 1,
      "neighborhood": "High Point",
      "neighborhoodGroup": "Delridge Neighborhoods",
      "unitCount": 1,
      "severity": 0,
      "units": "E37",
      "address": "3204 Sw Morgan St"
    }
  },
  {
    "id_str": "F190075616",
    "created_at": "7/17/2019 6:45:02 PM",
    "derived": {
      "lat": 47.549374,
      "long": -122.263952,
      "timestamp": 1563414302000,
      "description": "Medic Response",
      "entries": 1,
      "neighborhood": "Seward Park",
      "neighborhoodGroup": "Southeast",
      "unitCount": 2,
      "severity": 0,
      "units": "L12 M28",
      "address": "5945 Wilson Av S"
    }
  },
  {
    "id_str": "F190075615",
    "created_at": "7/17/2019 6:45:01 PM",
    "derived": {
      "lat": 47.678042,
      "long": -122.393462,
      "timestamp": 1563414301000,
      "description": "Automatic Fire Alarm False",
      "entries": 1,
      "neighborhood": "Sunset Hill/Loyal Heights",
      "neighborhoodGroup": "Ballard",
      "unitCount": 1,
      "severity": 0,
      "units": "E18",
      "address": "2837 Nw 68th St"
    }
  },
  {
    "id_str": "F190075614",
    "created_at": "7/17/2019 6:40:56 PM",
    "derived": {
      "lat": 47.608821,
      "long": -122.340013,
      "timestamp": 1563414056000,
      "description": "Aid Response",
      "entries": 1,
      "neighborhood": "Downtown Commercial Core",
      "neighborhoodGroup": "Downtown",
      "unitCount": 1,
      "severity": 0,
      "units": "E5",
      "address": "1ST AV / PIKE ST"
    }
  },
  {
    "id_str": "F190075610",
    "created_at": "7/17/2019 6:33:37 PM",
    "derived": {
      "lat": 47.582978,
      "long": -122.301682,
      "timestamp": 1563413617000,
      "description": "Aid Response",
      "entries": 2,
      "neighborhood": "Mt. Baker/North Rainier",
      "neighborhoodGroup": "Southeast",
      "unitCount": 2,
      "severity": 0,
      "units": "A25 E13",
      "address": "2329 Rainier Av S"
    }
  },
  {
    "id_str": "F190075607",
    "created_at": "7/17/2019 6:32:21 PM",
    "derived": {
      "lat": 47.601696,
      "long": -122.285352,
      "timestamp": 1563413541000,
      "description": "Marine Fire On Shore",
      "entries": 1,
      "neighborhood": "Madrona/Leschi",
      "neighborhoodGroup": "Central",
      "unitCount": 24,
      "severity": 2,
      "units": "A10 AIR10 B5 B6 DEP1 E10 E2 E25 E30 E34 E36 E5 FIREBOAT FRB5 L1 L10 L3 M1 MAR5 MRN1 PTRL4 REHAB1 SAFT2 STAF10",
      "address": "102 Lakeside Av"
    }
  },
  {
    "id_str": "F190075608",
    "created_at": "7/17/2019 6:32:13 PM",
    "derived": {
      "lat": 47.579184,
      "long": -122.334202,
      "timestamp": 1563413533000,
      "description": "Medic Response, 6 per Rule",
      "entries": 2,
      "neighborhood": "Duwamish/SODO",
      "neighborhoodGroup": "Greater Duwamish",
      "unitCount": 3,
      "severity": 0,
      "units": "A5 E32 M10",
      "address": "2759 1st Av S"
    }
  },
  {
    "id_str": "F190075606",
    "created_at": "7/17/2019 6:29:47 PM",
    "derived": {
      "lat": 47.601696,
      "long": -122.285352,
      "timestamp": 1563413387000,
      "description": "Marine Recon Response",
      "entries": 1,
      "neighborhood": "Madrona/Leschi",
      "neighborhoodGroup": "Central",
      "unitCount": 4,
      "severity": 0,
      "units": "A14 B2 E6 R1",
      "address": "102 Lakeside Av"
    }
  },
  {
    "id_str": "F190075605",
    "created_at": "7/17/2019 6:24:56 PM",
    "derived": {
      "lat": 47.612182,
      "long": -122.338543,
      "timestamp": 1563413096000,
      "description": "Aid Response",
      "entries": 1,
      "neighborhood": "Cascade/Eastlake",
      "neighborhoodGroup": "Lake Union",
      "unitCount": 1,
      "severity": 0,
      "units": "A4",
      "address": "4th Av / Olive Way"
    }
  },
  {
    "id_str": "F190075604",
    "created_at": "7/17/2019 6:24:42 PM",
    "derived": {
      "lat": 47.550638,
      "long": -122.258093,
      "timestamp": 1563413082000,
      "description": "Aid Response",
      "entries": 1,
      "neighborhood": "Seward Park",
      "neighborhoodGroup": "Southeast",
      "unitCount": 1,
      "severity": 0,
      "units": "E28",
      "address": "5898 Lake Washington Blvd S"
    }
  },
  {
    "id_str": "F190075603",
    "created_at": "7/17/2019 6:17:59 PM",
    "derived": {
      "lat": 47.551689,
      "long": -122.317047,
      "timestamp": 1563412679000,
      "description": "1RED 1 Unit",
      "entries": 1,
      "neighborhood": "Beacon Hill",
      "neighborhoodGroup": "Greater Duwamish",
      "unitCount": 1,
      "severity": 0,
      "units": "R1",
      "address": "Sb I5 At Albro"
    }
  },
  {
    "id_str": "F190075602",
    "created_at": "7/17/2019 6:17:40 PM",
    "derived": {
      "lat": 47.557051,
      "long": -122.288126,
      "timestamp": 1563412660000,
      "description": "Aid Response",
      "entries": 1,
      "neighborhood": "Columbia City",
      "neighborhoodGroup": "Southeast",
      "unitCount": 1,
      "severity": 0,
      "units": "L12",
      "address": "3551 S Hudson St"
    }
  },
  {
    "id_str": "F190075601",
    "created_at": "7/17/2019 6:15:36 PM",
    "derived": {
      "lat": 47.632618,
      "long": -122.342281,
      "timestamp": 1563412536000,
      "description": "Rescue Elevator",
      "entries": 1,
      "neighborhood": "Queen Anne",
      "neighborhoodGroup": "Magnolia/Queen Anne",
      "unitCount": 1,
      "severity": 0,
      "units": "L4",
      "address": "1511 Dexter Av N"
    }
  },