[
  {
    "id_str": "F190078421",
    "created_at": "7/24/2019 4:59:26 PM",
    "derived": {
      "lat": 47.597788,
      "long": -122.333263,
      "timestamp": 1564012766000,
      "description": "Aid Response",
      "address": "558 OCCIDENTAL AV S,Seattle,WA",
      "units": "A10",
      "entries": 1,
      "neighborhood": "Duwamish/SODO",
      "neighborhoodGroup": "Greater Duwamish"
    }
  },
  {
    "id_str": "F190078419",
    "created_at": "7/24/2019 4:59:16 PM",
    "derived": {
      "lat": 47.621487,
      "long": -122.347597,
      "timestamp": 1564012756000,
      "description": "Medic Response",
      "address": "325 5th Av N,Seattle,WA",
      "units": "A2 M1",
      "entries": 1,
      "neighborhood": "Cascade/Eastlake",
      "neighborhoodGroup": "Lake Union"
    }
  },
  {
    "id_str": "F190078420",
    "created_at": "7/24/2019 4:59:12 PM",
    "derived": {
      "lat": 47.690434,
      "long": -122.31223,
      "timestamp": 1564012752000,
      "description": "Medic Response",
      "address": "8511 15th Av Ne,Seattle,WA",
      "units": "E40 M17",
      "entries": 1,
      "neighborhood": "Northgate/Maple Leaf",
      "neighborhoodGroup": "North"
    }
  },
  {
    "id_str": "F190078417",
    "created_at": "7/24/2019 4:57:37 PM",
    "derived": {
      "lat": 47.619651,
      "long": -122.325294,
      "timestamp": 1564012657000,
      "description": "Aid Response",
      "address": "200 Summit Av E,Seattle,WA",
      "units": "A2 A4",
      "entries": 2,
      "neighborhood": "Capitol Hill",
      "neighborhoodGroup": "East"
    }
  },
  {
    "id_str": "F190078416",
    "created_at": "7/24/2019 4:56:02 PM",
    "derived": {
      "lat": 47.648468,
      "long": -122.376109,
      "timestamp": 1564012562000,
      "description": "Aid Response",
      "address": "15th Av W Nb Off Rp / W Dravus St,Seattle,WA",
      "units": "E20",
      "entries": 1,
      "neighborhood": "Interbay",
      "neighborhoodGroup": "Magnolia/Queen Anne"
    }
  },
  {
    "id_str": "F190078414",
    "created_at": "7/24/2019 4:52:13 PM",
    "derived": {
      "lat": 47.618554,
      "long": -122.343368,
      "timestamp": 1564012333000,
      "description": "Bark Fire",
      "address": "7th Av / Denny Way,Seattle,WA",
      "units": "E2",
      "entries": 1,
      "neighborhood": "Cascade/Eastlake",
      "neighborhoodGroup": "Lake Union"
    }
  },
  {
    "id_str": "F190078413",
    "created_at": "7/24/2019 4:48:17 PM",
    "derived": {
      "lat": 47.619677,
      "long": -122.311397,
      "timestamp": 1564012097000,
      "description": "Medic Response",
      "address": "201 16th Av E,Seattle,WA",
      "units": "L10 M10",
      "entries": 1,
      "neighborhood": "Miller Park",
      "neighborhoodGroup": "East"
    }
  },
  {
    "id_str": "F190078412",
    "created_at": "7/24/2019 4:47:52 PM",
    "derived": {
      "lat": 47.612987,
      "long": -122.322093,
      "timestamp": 1564012072000,
      "description": "Aid Response",
      "address": "1401 Harvard Av,Seattle,WA",
      "units": "E25",
      "entries": 1,
      "neighborhood": "Capitol Hill",
      "neighborhoodGroup": "East"
    }
  },
  {
    "id_str": "F190078411",
    "created_at": "7/24/2019 4:47:19 PM",
    "derived": {
      "lat": 47.657086,
      "long": -122.342356,
      "timestamp": 1564012039000,
      "description": "Auto Fire Alarm",
      "address": "4120 Stone Way N,Seattle,WA",
      "units": "E9 L9",
      "entries": 1,
      "neighborhood": "Wallingford",
      "neighborhoodGroup": "Lake Union"
    }
  },
  {
    "id_str": "F190078410",
    "created_at": "7/24/2019 4:45:23 PM",
    "derived": {
      "lat": 47.690655,
      "long": -122.365993,
      "timestamp": 1564011923000,
      "description": "Aid Response",
      "address": "Nw 85th St / 8th Av Nw,Seattle,WA",
      "units": "E35",
      "entries": 1,
      "neighborhood": "Greenwood/Phinney Ridge",
      "neighborhoodGroup": "Northwest"
    }
  },
  {
    "id_str": "F190078408",
    "created_at": "7/24/2019 4:28:38 PM",
    "derived": {
      "lat": 47.659838,
      "long": -122.28816,
      "timestamp": 1564010918000,
      "description": "Aid Response",
      "address": "3707 Ne 43rd St,Seattle,WA",
      "units": "E38",
      "entries": 1,
      "neighborhood": "Laurelhurst/Sand Point",
      "neighborhoodGroup": "Northeast"
    }
  },
  {
    "id_str": "F190078407",
    "created_at": "7/24/2019 4:27:23 PM",
    "derived": {
      "lat": 47.608584,
      "long": -122.340581,
      "timestamp": 1564010843000,
      "description": "Aid Response",
      "address": "85 Pike St,Seattle,WA",
      "units": "A4",
      "entries": 1,
      "neighborhood": "Downtown Commercial Core",
      "neighborhoodGroup": "Downtown"
    }
  },
  {
    "id_str": "F190078405",
    "created_at": "7/24/2019 4:18:21 PM",
    "derived": {
      "lat": 47.634092,
      "long": -122.342284,
      "timestamp": 1564010301000,
      "description": "Auto Fire Alarm",
      "address": "1713 Dexter Av N,Seattle,WA",
      "units": "E9 L4",
      "entries": 1,
      "neighborhood": "Queen Anne",
      "neighborhoodGroup": "Magnolia/Queen Anne"
    }
  },
  {
    "id_str": "F190078406",
    "created_at": "7/24/2019 4:18:18 PM",
    "derived": {
      "lat": 47.578187,
      "long": -122.292997,
      "timestamp": 1564010298000,
      "description": "Aid Response",
      "address": "2823 31st Av S,Seattle,WA",
      "units": "L3",
      "entries": 1,
      "neighborhood": "Mt. Baker/North Rainier",
      "neighborhoodGroup": "Southeast"
    }
  },
  {
    "id_str": "F190078404",
    "created_at": "7/24/2019 4:16:06 PM",
    "derived": {
      "lat": 47.581017,
      "long": -122.313803,
      "timestamp": 1564010166000,
      "description": "Medic Response, 6 per Rule",
      "address": "Beacon Av S / S Bayview St,Seattle,WA",
      "units": "A25 E13 E30 M1",
      "entries": 2,
      "neighborhood": "North Beacon Hill/Jefferson Park",
      "neighborhoodGroup": "Greater Duwamish"
    }
  },
  {
    "id_str": "F190078402",
    "created_at": "7/24/2019 4:04:07 PM",
    "derived": {
      "lat": 47.61874,
      "long": -122.320854,
      "timestamp": 1564009447000,
      "description": "Aid Response",
      "address": "100 Broadway E,Seattle,WA",
      "units": "A25",
      "entries": 1,
      "neighborhood": "Capitol Hill",
      "neighborhoodGroup": "East"
    }
  },
  {
    "id_str": "F190078401",
    "created_at": "7/24/2019 4:03:47 PM",
    "derived": {
      "lat": 47.520401,
      "long": -122.272876,
      "timestamp": 1564009427000,
      "description": "Medic Response",
      "address": "9236 Renton Av S,Seattle,WA",
      "units": "E33 M28",
      "entries": 1,
      "neighborhood": "Rainier Beach",
      "neighborhoodGroup": "Southeast"
    }
  },
  {
    "id_str": "F190078400",
    "created_at": "7/24/2019 4:02:58 PM",
    "derived": {
      "lat": 47.726707,
      "long": -122.303259,
      "timestamp": 1564009378000,
      "description": "Aid Response",
      "address": "13516 23rd Pl Ne,Seattle,WA",
      "units": "E39 M17",
      "entries": 1,
      "neighborhood": "Olympic Hills/Victory Heights",
      "neighborhoodGroup": "North"
    }
  },
  {
    "id_str": "F190078399",
    "created_at": "7/24/2019 4:01:44 PM",
    "derived": {
      "lat": 47.67834,
      "long": -122.32895,
      "timestamp": 1564009304000,
      "description": "Aid Response",
      "address": "6720 East Green Lake Way N,Seattle,WA",
      "units": "E16",
      "entries": 1,
      "neighborhood": "Green Lake",
      "neighborhoodGroup": "Northwest"
    }
  },
  {
    "id_str": "F190078398",
    "created_at": "7/24/2019 4:01:12 PM",
    "derived": {
      "lat": 47.611207,
      "long": -122.337592,
      "timestamp": 1564009272000,
      "description": "Aid Response",
      "address": "400 Pine St,Seattle,WA",
      "units": "E2",
      "entries": 1,
      "neighborhood": "Downtown Commercial Core",
      "neighborhoodGroup": "Downtown"
    }
  },
  {
    "id_str": "F190078393",
    "created_at": "7/24/2019 3:46:10 PM",
    "derived": {
      "lat": 47.619736,
      "long": -122.331697,
      "timestamp": 1564008370000,
      "description": "Medic Response",
      "address": "207 Pontius Av N,Seattle,WA",
      "units": "A2 M10",
      "entries": 1,
      "neighborhood": "Cascade/Eastlake",
      "neighborhoodGroup": "Lake Union"
    }
  },
  {
    "id_str": "F190078392",
    "created_at": "7/24/2019 3:45:19 PM",
    "derived": {
      "lat": 47.53705,
      "long": -122.280473,
      "timestamp": 1564008319000,
      "description": "Automatic Medical Alarm",
      "address": "4219 S Othello St,Seattle,WA",
      "units": "E28",
      "entries": 1,
      "neighborhood": "Columbia City",
      "neighborhoodGroup": "Southeast"
    }
  },
  {
    "id_str": "F190078390",
    "created_at": "7/24/2019 3:44:07 PM",
    "derived": {
      "lat": 47.609433,
      "long": -122.341832,
      "timestamp": 1564008247000,
      "description": "Aid Response",
      "address": "1600 Pike Pl,Seattle,WA",
      "units": "A4",
      "entries": 1,
      "neighborhood": "Downtown Commercial Core",
      "neighborhoodGroup": "Downtown"
    }
  },
  {
    "id_str": "F190078389",
    "created_at": "7/24/2019 3:36:29 PM",
    "derived": {
      "lat": 47.52737,
      "long": -122.314918,
      "timestamp": 1564007789000,
      "description": "MVI - Motor Vehicle Incident",
      "address": "Dallas Av S / 16th Av S Br,Seattle,WA",
      "units": "E26 E27",
      "entries": 2,
      "neighborhood": "South Park",
      "neighborhoodGroup": "Greater Duwamish"
    }
  },
  {
    "id_str": "F190078388",
    "created_at": "7/24/2019 3:20:35 PM",
    "derived": {
      "lat": 47.604548,
      "long": -122.33457,
      "timestamp": 1564006835000,
      "description": "Aid Response",
      "address": "915 2nd Av,Seattle,WA",
      "units": "A5",
      "entries": 1,
      "neighborhood": "Downtown Commercial Core",
      "neighborhoodGroup": "Downtown"
    }
  },
  {
    "id_str": "F190078386",
    "created_at": "7/24/2019 3:15:20 PM",
    "derived": {
      "lat": 47.719422,
      "long": -122.313904,
      "timestamp": 1564006520000,
      "description": "Aid Response",
      "address": "1410 Ne 125th St,Seattle,WA",
      "units": "E39",
      "entries": 1,
      "neighborhood": "Haller Lake",
      "neighborhoodGroup": "Northwest"
    }
  },
  {
    "id_str": "F190078384",
    "created_at": "7/24/2019 3:09:13 PM",
    "derived": {
      "lat": 47.701459,
      "long": -122.273982,
      "timestamp": 1564006153000,
      "description": "Automatic Fire Alarm Resd",
      "address": "10011 Lake Shore Blvd Ne,Seattle,WA",
      "units": "E40",
      "entries": 1,
      "neighborhood": "Cedar Park/Meadowbrook",
      "neighborhoodGroup": "North"
    }
  },
  {
    "id_str": "F190078382",
    "created_at": "7/24/2019 3:05:48 PM",
    "derived": {
      "lat": 47.655305,
      "long": -122.307943,
      "timestamp": 1564005948000,
      "description": "Auto Fire Alarm",
      "address": "1840 Ne Grant Ln,Seattle,WA",
      "units": "E17 L9",
      "entries": 1,
      "neighborhood": "University District",
      "neighborhoodGroup": "Northeast"
    }
  },
  {
    "id_str": "F190078380",
    "created_at": "7/24/2019 2:58:11 PM",
    "derived": {
      "lat": 47.673083,
      "long": -122.36941,
      "timestamp": 1564005491000,
      "description": "Aid Response",
      "address": "952 Nw 61st St,Seattle,WA",
      "units": "A31 E18",
      "entries": 2,
      "neighborhood": "Whittier Heights",
      "neighborhoodGroup": "Ballard"
    }
  },
  {
    "id_str": "F190078379",
    "created_at": "7/24/2019 2:54:29 PM",
    "derived": {
      "lat": 47.701459,
      "long": -122.273982,
      "timestamp": 1564005269000,
      "description": "Automatic Fire Alarm Resd",
      "address": "10011 Lake Shore Blvd Ne,Seattle,WA",
      "units": "E40",
      "entries": 1,
      "neighborhood": "Cedar Park/Meadowbrook",
      "neighborhoodGroup": "North"
    }
  },
  {
    "id_str": "F190078377",
    "created_at": "7/24/2019 2:47:38 PM",
    "derived": {
      "lat": 47.606197,
      "long": -122.315404,
      "timestamp": 1564004858000,
      "description": "Medic Response",
      "address": "1305 E Jefferson St,Seattle,WA",
      "units": "A25 M1",
      "entries": 2,
      "neighborhood": "First Hill",
      "neighborhoodGroup": "East"
    }
  },
  {
    "id_str": "F190078375",
    "created_at": "7/24/2019 2:43:25 PM",
    "derived": {
      "lat": 47.604991,
      "long": -122.333174,
      "timestamp": 1564004605000,
      "description": "Aid Response Yellow",
      "address": "317 Marion St,Seattle,WA",
      "units": "A5",
      "entries": 1,
      "neighborhood": "Downtown Commercial Core",
      "neighborhoodGroup": "Downtown"
    }
  },
  {
    "id_str": "F190078374",
    "created_at": "7/24/2019 2:37:01 PM",
    "derived": {
      "lat": 47.606067,
      "long": -122.328243,
      "timestamp": 1564004221000,
      "description": "Investigate Out Of Service",
      "address": "703 Columbia St,Seattle,WA",
      "units": "E5",
      "entries": 1,
      "neighborhood": "First Hill",
      "neighborhoodGroup": "East"
    }
  },
  {
    "id_str": "F190078373",
    "created_at": "7/24/2019 2:36:09 PM",
    "derived": {
      "lat": 47.635198,
      "long": -122.394352,
      "timestamp": 1564004169000,
      "description": "Aid Response",
      "address": "2908 W Blaine St,Seattle,WA",
      "units": "E41",
      "entries": 1,
      "neighborhood": "Magnolia",
      "neighborhoodGroup": "Magnolia/Queen Anne"
    }
  },
  {
    "id_str": "F190078370",
    "created_at": "7/24/2019 2:32:29 PM",
    "derived": {
      "lat": 47.621076,
      "long": -122.320892,
      "timestamp": 1564003949000,
      "description": "Aid Response",
      "address": "Broadway E / E Thomas St,Seattle,WA",
      "units": "A25 E25",
      "entries": 2,
      "neighborhood": "Capitol Hill",
      "neighborhoodGroup": "East"
    }
  },
  {
    "id_str": "F190078368",
    "created_at": "7/24/2019 2:20:50 PM",
    "derived": {
      "lat": 47.615789,
      "long": -122.336507,
      "timestamp": 1564003250000,
      "description": "Medic Response",
      "address": "810 Virginia St,Seattle,WA",
      "units": "A2 M1",
      "entries": 2,
      "neighborhood": "Cascade/Eastlake",
      "neighborhoodGroup": "Lake Union"
    }
  },
  {
    "id_str": "F190078367",
    "created_at": "7/24/2019 2:17:15 PM",
    "derived": {
      "lat": 47.612958,
      "long": -122.337873,
      "timestamp": 1564003035000,
      "description": "Aid Response",
      "address": "5th Av / Stewart St,Seattle,WA",
      "units": "A4",
      "entries": 1,
      "neighborhood": "Cascade/Eastlake",
      "neighborhoodGroup": "Lake Union"
    }
  },
  {
    "id_str": "F190078366",
    "created_at": "7/24/2019 2:15:07 PM",
    "derived": {
      "lat": 47.656902,
      "long": -122.276688,
      "timestamp": 1564002907000,
      "description": "Aid Response",
      "address": "3919 48th Av Ne,Seattle,WA",
      "units": "E31",
      "entries": 1,
      "neighborhood": "Laurelhurst/Sand Point",
      "neighborhoodGroup": "Northeast"
    }
  },
  {
    "id_str": "F190078364",
    "created_at": "7/24/2019 2:10:04 PM",
    "derived": {
      "lat": 47.68844,
      "long": -122.290656,
      "timestamp": 1564002604000,
      "description": "MVI - Motor Vehicle Incident",
      "address": "Ne 82nd St / 35th Av Ne,Seattle,WA",
      "units": "E38",
      "entries": 1,
      "neighborhood": "Wedgwood/View Ridge",
      "neighborhoodGroup": "Northeast"
    }
  },
  {
    "id_str": "F190078363",
    "created_at": "7/24/2019 2:09:52 PM",
    "derived": {
      "lat": 47.599607,
      "long": -122.319635,
      "timestamp": 1564002592000,
      "description": "Medic Response",
      "address": "321 10th Av S,Seattle,WA",
      "units": "L3 M1",
      "entries": 1,
      "neighborhood": "Pioneer Square/International District",
      "neighborhoodGroup": "Downtown"
    }
  },
  {
    "id_str": "F190078361",
    "created_at": "7/24/2019 2:06:35 PM",
    "derived": {
      "lat": 47.593902,
      "long": -122.333268,
      "timestamp": 1564002395000,
      "description": "Aid Response",
      "address": "1016 Occidental Av S,Seattle,WA",
      "units": "A5",
      "entries": 1,
      "neighborhood": "Duwamish/SODO",
      "neighborhoodGroup": "Greater Duwamish"
    }
  },
  {
    "id_str": "F190078362",
    "created_at": "7/24/2019 2:06:08 PM",
    "derived": {
      "lat": 47.558663,
      "long": -122.288818,
      "timestamp": 1564002368000,
      "description": "Aid Response",
      "address": "3500 S Edmunds St,Seattle,WA",
      "units": "E30",
      "entries": 1,
      "neighborhood": "Columbia City",
      "neighborhoodGroup": "Southeast"
    }
  },
  {
    "id_str": "F190078360",
    "created_at": "7/24/2019 2:05:58 PM",
    "derived": {
      "lat": 47.607166,
      "long": -122.287218,
      "timestamp": 1564002358000,
      "description": "Automatic Fire Alarm Resd",
      "address": "610 36th Av,Seattle,WA",
      "units": "E6",
      "entries": 1,
      "neighborhood": "Madrona/Leschi",
      "neighborhoodGroup": "Central"
    }
  },
  {
    "id_str": "F190078358",
    "created_at": "7/24/2019 2:02:33 PM",
    "derived": {
      "lat": 47.529449,
      "long": -122.269988,
      "timestamp": 1564002153000,
      "description": "Scenes Of Violence 14",
      "address": "8320 Rainier Av S,Seattle,WA",
      "units": "A10 B2 B5 E28 E33 L12 M10 M28 M44 SAFT2",
      "entries": 1,
      "neighborhood": "Rainier Beach",
      "neighborhoodGroup": "Southeast"
    }
  },
  {
    "id_str": "F190078357",
    "created_at": "7/24/2019 2:02:18 PM",
    "derived": {
      "lat": 47.693268,
      "long": -122.276533,
      "timestamp": 1564002138000,
      "description": "Automatic Fire Alarm Resd",
      "address": "4660 Ne 89th St,Seattle,WA",
      "units": "E40",
      "entries": 1,
      "neighborhood": "Wedgwood/View Ridge",
      "neighborhoodGroup": "Northeast"
    }
  },
  {
    "id_str": "F190078356",
    "created_at": "7/24/2019 1:58:38 PM",
    "derived": {
      "lat": 47.562035,
      "long": -122.377452,
      "timestamp": 1564001918000,
      "description": "Aid Response",
      "address": "4600 36th Av Sw,Seattle,WA",
      "units": "E32",
      "entries": 1,
      "neighborhood": "West Seattle Junction/Genesee Hill",
      "neighborhoodGroup": "Southwest"
    }
  },
  {
    "id_str": "F190078353",
    "created_at": "7/24/2019 1:55:27 PM",
    "derived": {
      "lat": 47.577748,
      "long": -122.415512,
      "timestamp": 1564001727000,
      "description": "Aid Response",
      "address": "2960 Alki Av Sw,Seattle,WA",
      "units": "E29",
      "entries": 1,
      "neighborhood": "Alki/Admiral",
      "neighborhoodGroup": "Southwest"
    }
  },
  {
    "id_str": "F190078351",
    "created_at": "7/24/2019 1:45:26 PM",
    "derived": {
      "lat": 47.615616,
      "long": -122.334436,
      "timestamp": 1564001126000,
      "description": "Aid Response",
      "address": "1900 9th Av,Seattle,WA",
      "units": "E2",
      "entries": 1,
      "neighborhood": "Cascade/Eastlake",
      "neighborhoodGroup": "Lake Union"
    }
  },
  {
    "id_str": "F190078348",
    "created_at": "7/24/2019 1:42:10 PM",
    "derived": {
      "lat": 47.615586,
      "long": -122.344302,
      "timestamp": 1564000930000,
      "description": "Aid Response",
      "address": "2329 4th Av,Seattle,WA",
      "units": "A4",
      "entries": 1,
      "neighborhood": "Cascade/Eastlake",
      "neighborhoodGroup": "Lake Union"
    }
  },
  {
    "id_str": "F190078347",
    "created_at": "7/24/2019 1:41:50 PM",
    "derived": {
      "lat": 47.618957,
      "long": -122.315606,
      "timestamp": 1564000910000,
      "description": "Alarm Bell",
      "address": "116 13th Av E,Seattle,WA",
      "units": "E25 L10",
      "entries": 1,
      "neighborhood": "Capitol Hill",
      "neighborhoodGroup": "East"
    }
  },
  {
    "id_str": "F190078346",
    "created_at": "7/24/2019 1:27:05 PM",
    "derived": {
      "lat": 47.618412,
      "long": -122.355206,
      "timestamp": 1564000025000,
      "description": "Aid Response",
      "address": "94 Bay St,Seattle,WA",
      "units": "A2",
      "entries": 1,
      "neighborhood": "Belltown",
      "neighborhoodGroup": "Downtown"
    }
  },
  {
    "id_str": "F190078345",
    "created_at": "7/24/2019 1:18:50 PM",
    "derived": {
      "lat": 47.680037,
      "long": -122.262231,
      "timestamp": 1563999530000,
      "description": "Aid Response",
      "address": "7110 62nd Av Ne,Seattle,WA",
      "units": "E38",
      "entries": 1,
      "neighborhood": "Laurelhurst/Sand Point",
      "neighborhoodGroup": "Northeast"
    }
  },
  {
    "id_str": "F190078342",
    "created_at": "7/24/2019 1:09:58 PM",
    "derived": {
      "lat": 47.675978,
      "long": -122.347374,
      "timestamp": 1563998998000,
      "description": "Aid Response",
      "address": "WOODLAND PL N / N 65TH ST,Seattle,WA",
      "units": "E16",
      "entries": 1,
      "neighborhood": "Greenwood/Phinney Ridge",
      "neighborhoodGroup": "Northwest"
    }
  },
  {
    "id_str": "F190078341",
    "created_at": "7/24/2019 1:02:07 PM",
    "derived": {
      "lat": 47.668431,
      "long": -122.35441,
      "timestamp": 1563998527000,
      "description": "Aid Response",
      "address": "5500 Phinney Av N,Seattle,WA",
      "units": "E21",
      "entries": 1,
      "neighborhood": "Greenwood/Phinney Ridge",
      "neighborhoodGroup": "Northwest"
    }
  },
  {
    "id_str": "F190078339",
    "created_at": "7/24/2019 1:00:32 PM",
    "derived": {
      "lat": 47.540749,
      "long": -122.376538,
      "timestamp": 1563998432000,
      "description": "Aid Response",
      "address": "6916 35TH AV SW,Seattle,WA",
      "units": "E37",
      "entries": 1,
      "neighborhood": "High Point",
      "neighborhoodGroup": "Delridge Neighborhoods"
    }
  },
  {
    "id_str": "F190078337",
    "created_at": "7/24/2019 12:52:57 PM",
    "derived": {
      "lat": 47.577765,
      "long": -122.317361,
      "timestamp": 1563997977000,
      "description": "Aid Response",
      "address": "12th Av S / S Forest St,Seattle,WA",
      "units": "E13",
      "entries": 1,
      "neighborhood": "Duwamish/SODO",
      "neighborhoodGroup": "Greater Duwamish"
    }
  },
  {
    "id_str": "F190078335",
    "created_at": "7/24/2019 12:48:07 PM",
    "derived": {
      "lat": 47.70314,
      "long": -122.323148,
      "timestamp": 1563997687000,
      "description": "Aid Response",
      "address": "Ne 103rd St / 5th Av Ne,Seattle,WA",
      "units": "A31",
      "entries": 1,
      "neighborhood": "Northgate/Maple Leaf",
      "neighborhoodGroup": "North"
    }
  },
  {
    "id_str": "F190078331",
    "created_at": "7/24/2019 12:42:50 PM",
    "derived": {
      "lat": 47.611758,
      "long": -122.319348,
      "timestamp": 1563997370000,
      "description": "Aid Response",
      "address": "10th Av / E Madison St,Seattle,WA",
      "units": "A25",
      "entries": 1,
      "neighborhood": "Capitol Hill",
      "neighborhoodGroup": "East"
    }
  },
  {
    "id_str": "F190078329",
    "created_at": "7/24/2019 12:41:29 PM",
    "derived": {
      "lat": 47.691429,
      "long": -122.312208,
      "timestamp": 1563997289000,
      "description": "Aid Response",
      "address": "8640 15th Av Ne,Seattle,WA",
      "units": "E16",
      "entries": 1,
      "neighborhood": "Northgate/Maple Leaf",
      "neighborhoodGroup": "North"
    }
  },
  {
    "id_str": "F190078328",
    "created_at": "7/24/2019 12:32:31 PM",
    "derived": {
      "lat": 47.599258,
      "long": -122.305807,
      "timestamp": 1563996751000,
      "description": "Aid Response Yellow",
      "address": "2010 S Jackson St,Seattle,WA",
      "units": "A5",
      "entries": 1,
      "neighborhood": "Judkins Park",
      "neighborhoodGroup": "Central"
    }
  },
  {
    "id_str": "F190078327",
    "created_at": "7/24/2019 12:30:46 PM",
    "derived": {
      "lat": 47.549862,
      "long": -122.323614,
      "timestamp": 1563996646000,
      "description": "Aid Response",
      "address": "S Fidalgo St / Padilla Pl S,Seattle,WA",
      "units": "E27",
      "entries": 1,
      "neighborhood": "Georgetown",
      "neighborhoodGroup": "Greater Duwamish"
    }
  },
  {
    "id_str": "F190078325",
    "created_at": "7/24/2019 12:28:16 PM",
    "derived": {
      "lat": 47.612665,
      "long": -122.337394,
      "timestamp": 1563996496000,
      "description": "Aid Response",
      "address": "500 Olive Way,Seattle,WA",
      "units": "A4",
      "entries": 1,
      "neighborhood": "Downtown Commercial Core",
      "neighborhoodGroup": "Downtown"
    }
  },
  {
    "id_str": "F190078324",
    "created_at": "7/24/2019 12:24:47 PM",
    "derived": {
      "lat": 47.539127,
      "long": -122.33711,
      "timestamp": 1563996287000,
      "description": "Illegal Burn",
      "address": "7149 2nd Av Sw,Seattle,WA",
      "units": "E11",
      "entries": 1,
      "neighborhood": "South Park",
      "neighborhoodGroup": "Greater Duwamish"
    }
  },
  {
    "id_str": "F190078322",
    "created_at": "7/24/2019 12:16:13 PM",
    "derived": {
      "lat": 47.686942,
      "long": -122.344421,
      "timestamp": 1563995773000,
      "description": "Aid Response",
      "address": "1106 N 80th St,Seattle,WA",
      "units": "E21",
      "entries": 1,
      "neighborhood": "Green Lake",
      "neighborhoodGroup": "Northwest"
    }
  },
  {
    "id_str": "F190078321",
    "created_at": "7/24/2019 12:15:47 PM",
    "derived": {
      "lat": 47.7067,
      "long": -122.301164,
      "timestamp": 1563995747000,
      "description": "Aid Response",
      "address": "2539 Ne 107th St,Seattle,WA",
      "units": "E39",
      "entries": 1,
      "neighborhood": "Cedar Park/Meadowbrook",
      "neighborhoodGroup": "North"
    }
  },
  {
    "id_str": "F190078320",
    "created_at": "7/24/2019 12:04:57 PM",
    "derived": {
      "lat": 47.611557,
      "long": -122.330191,
      "timestamp": 1563995097000,
      "description": "Aid Response",
      "address": "903 Union St,Seattle,WA",
      "units": "A25",
      "entries": 1,
      "neighborhood": "First Hill",
      "neighborhoodGroup": "East"
    }
  },
  {
    "id_str": "F190078319",
    "created_at": "7/24/2019 12:04:37 PM",
    "derived": {
      "lat": 47.597488,
      "long": -122.311161,
      "timestamp": 1563995077000,
      "description": "Aid Response",
      "address": "1632 S Weller St,Seattle,WA",
      "units": "A5",
      "entries": 1,
      "neighborhood": "Judkins Park",
      "neighborhoodGroup": "Central"
    }
  },
  {
    "id_str": "F190078318",
    "created_at": "7/24/2019 12:03:30 PM",
    "derived": {
      "lat": 47.588391,
      "long": -122.37996,
      "timestamp": 1563995010000,
      "description": "Medic Response",
      "address": "1737 Harbor Av Sw,Seattle,WA",
      "units": "E29 M32",
      "entries": 1,
      "neighborhood": "Alki/Admiral",
      "neighborhoodGroup": "Southwest"
    }
  },
  {
    "id_str": "F190078316",
    "created_at": "7/24/2019 12:01:14 PM",
    "derived": {
      "lat": 47.667459,
      "long": -122.399723,
      "timestamp": 1563994874000,
      "description": "Food On The Stove",
      "address": "3232 Nw 54th St,Seattle,WA",
      "units": "L8",
      "entries": 1,
      "neighborhood": "Sunset Hill/Loyal Heights",
      "neighborhoodGroup": "Ballard"
    }
  },
  {
    "id_str": "F190078315",
    "created_at": "7/24/2019 11:59:16 AM",
    "derived": {
      "lat": 47.616754,
      "long": -122.316878,
      "timestamp": 1563994756000,
      "description": "Alarm Bell",
      "address": "1728 12th Av,Seattle,WA",
      "units": "E25 E6 L10",
      "entries": 2,
      "neighborhood": "Capitol Hill",
      "neighborhoodGroup": "East"
    }
  },
  {
    "id_str": "F190078314",
    "created_at": "7/24/2019 11:56:50 AM",
    "derived": {
      "lat": 47.705051,
      "long": -122.344694,
      "timestamp": 1563994610000,
      "description": "Aid Response",
      "address": "N 105th St / Aurora Av N,Seattle,WA",
      "units": "L6",
      "entries": 1,
      "neighborhood": "Licton Springs",
      "neighborhoodGroup": "Northwest"
    }
  },
  {
    "id_str": "F190078313",
    "created_at": "7/24/2019 11:54:21 AM",
    "derived": {
      "lat": 47.670904,
      "long": -122.378883,
      "timestamp": 1563994461000,
      "description": "Aid Response",
      "address": "Nw 58th St / 17th Av Nw,Seattle,WA",
      "units": "E18",
      "entries": 1,
      "neighborhood": "Ballard",
      "neighborhoodGroup": "Ballard"
    }
  },
  {
    "id_str": "F190078312",
    "created_at": "7/24/2019 11:50:29 AM",
    "derived": {
      "lat": 47.658315,
      "long": -122.313207,
      "timestamp": 1563994229000,
      "description": "Aid Response",
      "address": "University Way Ne / Ne 42nd St,Seattle,WA",
      "units": "E17 E22",
      "entries": 2,
      "neighborhood": "University District",
      "neighborhoodGroup": "Northeast"
    }
  },
  {
    "id_str": "F190078310",
    "created_at": "7/24/2019 11:42:52 AM",
    "derived": {
      "lat": 47.617077,
      "long": -122.32682,
      "timestamp": 1563993772000,
      "description": "Investigate Out Of Service",
      "address": "Bellevue Av / E Olive Way,Seattle,WA",
      "units": "E25",
      "entries": 1,
      "neighborhood": "Capitol Hill",
      "neighborhoodGroup": "East"
    }
  },
  {
    "id_str": "F190078309",
    "created_at": "7/24/2019 11:36:59 AM",
    "derived": {
      "lat": 47.542466,
      "long": -122.275011,
      "timestamp": 1563993419000,
      "description": "Automatic Medical Alarm",
      "address": "4628 S Holly St,Seattle,WA",
      "units": "L12",
      "entries": 1,
      "neighborhood": "Columbia City",
      "neighborhoodGroup": "Southeast"
    }
  },
  {
    "id_str": "F190078308",
    "created_at": "7/24/2019 11:35:03 AM",
    "derived": {
      "lat": 47.521244,
      "long": -122.336301,
      "timestamp": 1563993303000,
      "description": "Aid Response Yellow",
      "address": "9200 2nd Av Sw,Seattle,WA",
      "units": "E37",
      "entries": 1,
      "neighborhood": "Highland Park",
      "neighborhoodGroup": "Delridge Neighborhoods"
    }
  },
  {
    "id_str": "F190078307",
    "created_at": "7/24/2019 11:29:10 AM",
    "derived": {
      "lat": 47.515953,
      "long": -122.331862,
      "timestamp": 1563992950000,
      "description": "Medic Response",
      "address": "9701 Myers Way S,Seattle,WA",
      "units": "E27 L11 M28",
      "entries": 2
    }
  },
  {
    "id_str": "F190078306",
    "created_at": "7/24/2019 11:25:57 AM",
    "derived": {
      "lat": 47.696371,
      "long": -122.358042,
      "timestamp": 1563992757000,
      "description": "Automatic Fire Alarm Resd",
      "address": "9256 1st Av Nw,Seattle,WA",
      "units": "E35",
      "entries": 1,
      "neighborhood": "Greenwood/Phinney Ridge",
      "neighborhoodGroup": "Northwest"
    }
  },
  {
    "id_str": "F190078305",
    "created_at": "7/24/2019 11:24:56 AM",
    "derived": {
      "lat": 47.610387,
      "long": -122.341198,
      "timestamp": 1563992696000,
      "description": "Auto Fire Alarm",
      "address": "116 Stewart St,Seattle,WA",
      "units": "E2 L4",
      "entries": 1,
      "neighborhood": "Belltown",
      "neighborhoodGroup": "Downtown"
    }
  },
  {
    "id_str": "F190078304",
    "created_at": "7/24/2019 11:22:29 AM",
    "derived": {
      "lat": 47.661386,
      "long": -122.338313,
      "timestamp": 1563992549000,
      "description": "Aid Response",
      "address": "1629 N 45th St,Seattle,WA",
      "units": "E9",
      "entries": 1,
      "neighborhood": "Wallingford",
      "neighborhoodGroup": "Lake Union"
    }
  },
  {
    "id_str": "F190078302",
    "created_at": "7/24/2019 11:20:21 AM",
    "derived": {
      "lat": 47.607515,
      "long": -122.334213,
      "timestamp": 1563992421000,
      "description": "MVI - Motor Vehicle Incident",
      "address": "4th Av / Seneca St,Seattle,WA",
      "units": "E5",
      "entries": 1,
      "neighborhood": "Downtown Commercial Core",
      "neighborhoodGroup": "Downtown"
    }
  },
  {
    "id_str": "F190078298",
    "created_at": "7/24/2019 11:17:40 AM",
    "derived": {
      "lat": 47.663106,
      "long": -122.307217,
      "timestamp": 1563992260000,
      "description": "Auto Fire Alarm",
      "address": "4710 19th Av Ne,Seattle,WA",
      "units": "E17 L9",
      "entries": 1,
      "neighborhood": "University District",
      "neighborhoodGroup": "Northeast"
    }
  },
  {
    "id_str": "F190078297",
    "created_at": "7/24/2019 11:17:28 AM",
    "derived": {
      "lat": 47.522863,
      "long": -122.359142,
      "timestamp": 1563992248000,
      "description": "Aid Response",
      "address": "9000 20th Av Sw,Seattle,WA",
      "units": "E11",
      "entries": 1,
      "neighborhood": "Roxhill/Westwood",
      "neighborhoodGroup": "Delridge Neighborhoods"
    }
  },
  {
    "id_str": "F190078296",
    "created_at": "7/24/2019 11:15:37 AM",
    "derived": {
      "lat": 47.60534,
      "long": -122.327624,
      "timestamp": 1563992137000,
      "description": "Aid Response",
      "address": "7th Av / Cherry St,Seattle,WA",
      "units": "A10 A5",
      "entries": 2,
      "neighborhood": "First Hill",
      "neighborhoodGroup": "East"
    }
  },
  {
    "id_str": "F190078295",
    "created_at": "7/24/2019 11:14:26 AM",
    "derived": {
      "lat": 47.661262,
      "long": -122.311993,
      "timestamp": 1563992066000,
      "description": "Medic Response",
      "address": "15th Av Ne / Ne 45th St,Seattle,WA",
      "units": "E31",
      "entries": 1,
      "neighborhood": "University District",
      "neighborhoodGroup": "Northeast"
    }
  },
  {
    "id_str": "F190078294",
    "created_at": "7/24/2019 11:14:01 AM",
    "derived": {
      "lat": 47.661262,
      "long": -122.311993,
      "timestamp": 1563992041000,
      "description": "Aid Response",
      "address": "15TH AV NE / NE 45TH ST,Seattle,WA",
      "units": "E39",
      "entries": 1,
      "neighborhood": "University District",
      "neighborhoodGroup": "Northeast"
    }
  },
  {
    "id_str": "F190078292",
    "created_at": "7/24/2019 11:01:24 AM",
    "derived": {
      "lat": 47.641554,
      "long": -122.31795,
      "timestamp": 1563991284000,
      "description": "Medic Response",
      "address": "2417 11th Av E,Seattle,WA",
      "units": "E22 M1",
      "entries": 1,
      "neighborhood": "Montlake/Portage Bay",
      "neighborhoodGroup": "Northeast"
    }
  },
  {
    "id_str": "F190078291",
    "created_at": "7/24/2019 10:59:25 AM",
    "derived": {
      "lat": 47.506227,
      "long": -122.385247,
      "timestamp": 1563991165000,
      "description": "Aid Response Yellow",
      "address": "10823 42nd Av Sw,Seattle,WA",
      "units": "E37",
      "entries": 1,
      "neighborhood": "Arbor Heights",
      "neighborhoodGroup": "Southwest"
    }
  },
  {
    "id_str": "F190078290",
    "created_at": "7/24/2019 10:54:37 AM",
    "derived": {
      "lat": 47.712312,
      "long": -122.342124,
      "timestamp": 1563990877000,
      "description": "Aid Response",
      "address": "N 115th St / Stone Av N,Seattle,WA",
      "units": "A31",
      "entries": 1,
      "neighborhood": "Haller Lake",
      "neighborhoodGroup": "Northwest"
    }
  },
  {
    "id_str": "F190078286",
    "created_at": "7/24/2019 10:42:23 AM",
    "derived": {
      "lat": 47.611323,
      "long": -122.337698,
      "timestamp": 1563990143000,
      "description": "Rescue Elevator",
      "address": "1624 4th Av,Seattle,WA",
      "units": "L4",
      "entries": 1,
      "neighborhood": "Downtown Commercial Core",
      "neighborhoodGroup": "Downtown"
    }
  },
  {
    "id_str": "F190078285",
    "created_at": "7/24/2019 10:39:42 AM",
    "derived": {
      "lat": 47.555347,
      "long": -122.3776,
      "timestamp": 1563989982000,
      "description": "Aid Response",
      "address": "5229 36th Av Sw,Seattle,WA",
      "units": "L11",
      "entries": 1,
      "neighborhood": "West Seattle Junction/Genesee Hill",
      "neighborhoodGroup": "Southwest"
    }
  },
  {
    "id_str": "F190078284",
    "created_at": "7/24/2019 10:39:23 AM",
    "derived": {
      "lat": 47.563242,
      "long": -122.312741,
      "timestamp": 1563989963000,
      "description": "Auto Fire Alarm",
      "address": "1600 S Columbian Way,Seattle,WA",
      "units": "E30 L12",
      "entries": 1,
      "neighborhood": "North Beacon Hill/Jefferson Park",
      "neighborhoodGroup": "Greater Duwamish"
    }
  },
  {
    "id_str": "F190078283",
    "created_at": "7/24/2019 10:36:32 AM",
    "derived": {
      "lat": 47.673699,
      "long": -122.273811,
      "timestamp": 1563989792000,
      "description": "Automatic Fire Alarm Resd",
      "address": "6244 50th Av Ne,Seattle,WA",
      "units": "E16",
      "entries": 1,
      "neighborhood": "Ravenna/Bryant",
      "neighborhoodGroup": "Northeast"
    }
  },
  {
    "id_str": "F190078282",
    "created_at": "7/24/2019 10:34:47 AM",
    "derived": {
      "lat": 47.561845,
      "long": -122.310824,
      "timestamp": 1563989687000,
      "description": "Aid Response",
      "address": "1660 S Columbian Way,Seattle,WA",
      "units": "E13",
      "entries": 1,
      "neighborhood": "North Beacon Hill/Jefferson Park",
      "neighborhoodGroup": "Greater Duwamish"
    }
  },
  {
    "id_str": "F190078281",
    "created_at": "7/24/2019 10:32:51 AM",
    "derived": {
      "lat": 47.687408,
      "long": -122.265455,
      "timestamp": 1563989571000,
      "description": "Medic Response",
      "address": "8001 Sand Point Way Ne,Seattle,WA",
      "units": "E38 E39 M18",
      "entries": 1,
      "neighborhood": "Laurelhurst/Sand Point",
      "neighborhoodGroup": "Northeast"
    }
  },
  {
    "id_str": "F190078280",
    "created_at": "7/24/2019 10:31:21 AM",
    "derived": {
      "lat": 47.602158,
      "long": -122.330849,
      "timestamp": 1563989481000,
      "description": "Medic Response",
      "address": "515 3rd Av,Seattle,WA",
      "units": "A5 L1 M17",
      "entries": 1,
      "neighborhood": "Downtown Commercial Core",
      "neighborhoodGroup": "Downtown"
    }
  },
  {
    "id_str": "F190078278",
    "created_at": "7/24/2019 10:29:16 AM",
    "derived": {
      "lat": 47.571924,
      "long": -122.308253,
      "timestamp": 1563989356000,
      "description": "1RED 1 Unit",
      "address": "3601 BEACON AV S,Seattle,WA",
      "units": "E13",
      "entries": 1,
      "neighborhood": "North Beacon Hill/Jefferson Park",
      "neighborhoodGroup": "Greater Duwamish"
    }
  },
  {
    "id_str": "F190078276",
    "created_at": "7/24/2019 10:25:55 AM",
    "derived": {
      "lat": 47.609802,
      "long": -122.324029,
      "timestamp": 1563989155000,
      "description": "Aid Response",
      "address": "Madison St / Minor Av,Seattle,WA",
      "units": "L10",
      "entries": 1,
      "neighborhood": "First Hill",
      "neighborhoodGroup": "East"
    }
  },
  {
    "id_str": "F190078274",
    "created_at": "7/24/2019 10:24:50 AM",
    "derived": {
      "lat": 47.611553,
      "long": -122.311479,
      "timestamp": 1563989090000,
      "description": "Medic Response, 7 per Rule",
      "address": "1103 16th Av,Seattle,WA",
      "units": "A25 E25 M1 M10",
      "entries": 3,
      "neighborhood": "Central Area/Squire Park",
      "neighborhoodGroup": "Central"
    }
  },
  {
    "id_str": "F190078273",
    "created_at": "7/24/2019 10:24:14 AM",
    "derived": {
      "lat": 47.604739,
      "long": -122.336278,
      "timestamp": 1563989054000,
      "description": "Medic Response",
      "address": "1007 1st Av,Seattle,WA",
      "units": "E5 M1",
      "entries": 2,
      "neighborhood": "Downtown Commercial Core",
      "neighborhoodGroup": "Downtown"
    }
  },
  {
    "id_str": "F190078272",
    "created_at": "7/24/2019 10:21:55 AM",
    "derived": {
      "lat": 47.692573,
      "long": -122.375453,
      "timestamp": 1563988915000,
      "description": "Aid Response",
      "address": "8724 Mary Av Nw,Seattle,WA",
      "units": "A31",
      "entries": 1,
      "neighborhood": "North Beach/Blue Ridge",
      "neighborhoodGroup": "Ballard"
    }
  },
  {
    "id_str": "F190078271",
    "created_at": "7/24/2019 10:18:10 AM",
    "derived": {
      "lat": 47.576907,
      "long": -122.297049,
      "timestamp": 1563988690000,
      "description": "Aid Response",
      "address": "3005 Rainier Av S,Seattle,WA",
      "units": "E6",
      "entries": 1,
      "neighborhood": "Mt. Baker/North Rainier",
      "neighborhoodGroup": "Southeast"
    }
  },
  {
    "id_str": "F190078268",
    "created_at": "7/24/2019 10:07:31 AM",
    "derived": {
      "lat": 47.642084,
      "long": -122.351367,
      "timestamp": 1563988051000,
      "description": "Investigate Out Of Service",
      "address": "318 Halladay St,Seattle,WA",
      "units": "E9",
      "entries": 1,
      "neighborhood": "Queen Anne",
      "neighborhoodGroup": "Magnolia/Queen Anne"
    }
  },
  {
    "id_str": "F190078266",
    "created_at": "7/24/2019 9:56:26 AM",
    "derived": {
      "lat": 47.542234,
      "long": -122.276466,
      "timestamp": 1563987386000,
      "description": "Auto Fire Alarm",
      "address": "6725 45th Av S,Seattle,WA",
      "units": "E28 L12",
      "entries": 1,
      "neighborhood": "Columbia City",
      "neighborhoodGroup": "Southeast"
    }
  },
  {
    "id_str": "F190078263",
    "created_at": "7/24/2019 9:40:25 AM",
    "derived": {
      "lat": 47.687592,
      "long": -122.264685,
      "timestamp": 1563986425000,
      "description": "Aid Response",
      "address": "7861 62nd Av Ne,Seattle,WA",
      "units": "E38",
      "entries": 1,
      "neighborhood": "Laurelhurst/Sand Point",
      "neighborhoodGroup": "Northeast"
    }
  },
  {
    "id_str": "F190078262",
    "created_at": "7/24/2019 9:39:20 AM",
    "derived": {
      "lat": 47.633523,
      "long": -122.277157,
      "timestamp": 1563986360000,
      "description": "Medic Response",
      "address": "1630 43rd Av E,Seattle,WA",
      "units": "E34 M1",
      "entries": 1,
      "neighborhood": "Madison Park",
      "neighborhoodGroup": "East"
    }
  },
  {
    "id_str": "F190078261",
    "created_at": "7/24/2019 9:32:55 AM",
    "derived": {
      "lat": 47.674585,
      "long": -122.313123,
      "timestamp": 1563985975000,
      "description": "Aid Response",
      "address": "6317 14th Av Ne,Seattle,WA",
      "units": "E16",
      "entries": 1,
      "neighborhood": "University District",
      "neighborhoodGroup": "Northeast"
    }
  },
  {
    "id_str": "F190078260",
    "created_at": "7/24/2019 9:31:20 AM",
    "derived": {
      "lat": 47.520679,
      "long": -122.335803,
      "timestamp": 1563985880000,
      "description": "Aid Response Yellow",
      "address": "9230 2nd Av Sw,Seattle,WA",
      "units": "E26",
      "entries": 1
    }
  },
  {
    "id_str": "F190078259",
    "created_at": "7/24/2019 9:29:57 AM",
    "derived": {
      "lat": 47.612894,
      "long": -122.349666,
      "timestamp": 1563985797000,
      "description": "Rescue Elevator",
      "address": "2415 Elliott Av,Seattle,WA",
      "units": "L4",
      "entries": 2,
      "neighborhood": "Belltown",
      "neighborhoodGroup": "Downtown"
    }
  },
  {
    "id_str": "F190078253",
    "created_at": "7/24/2019 9:12:26 AM",
    "derived": {
      "lat": 47.72497,
      "long": -122.344996,
      "timestamp": 1563984746000,
      "description": "Aid Response",
      "address": "13241 Aurora Av N,Seattle,WA",
      "units": "E24",
      "entries": 1,
      "neighborhood": "Haller Lake",
      "neighborhoodGroup": "Northwest"
    }
  },
  {
    "id_str": "F190078252",
    "created_at": "7/24/2019 9:01:55 AM",
    "derived": {
      "lat": 47.614798,
      "long": -122.348918,
      "timestamp": 1563984115000,
      "description": "Aid Response",
      "address": "2519 1st Av,Seattle,WA",
      "units": "A4",
      "entries": 1,
      "neighborhood": "Belltown",
      "neighborhoodGroup": "Downtown"
    }
  },
  {
    "id_str": "F190078251",
    "created_at": "7/24/2019 9:01:35 AM",
    "derived": {
      "lat": 47.675783,
      "long": -122.31193,
      "timestamp": 1563984095000,
      "description": "Aid Response",
      "address": "Ne 65th St / 15th Av Ne,Seattle,WA",
      "units": "E16",
      "entries": 1,
      "neighborhood": "University District",
      "neighborhoodGroup": "Northeast"
    }
  },
  {
    "id_str": "F190078250",
    "created_at": "7/24/2019 8:58:56 AM",
    "derived": {
      "lat": 47.513443,
      "long": -122.264717,
      "timestamp": 1563983936000,
      "description": "Medic Response",
      "address": "9817 55th Av S,Seattle,WA",
      "units": "E33 M28",
      "entries": 1,
      "neighborhood": "Rainier Beach",
      "neighborhoodGroup": "Southeast"
    }
  },
  {
    "id_str": "F190078249",
    "created_at": "7/24/2019 8:55:05 AM",
    "derived": {
      "lat": 47.554937,
      "long": -122.282393,
      "timestamp": 1563983705000,
      "description": "Aid Response",
      "address": "5270 Rainier Av S,Seattle,WA",
      "units": "E28",
      "entries": 1,
      "neighborhood": "Columbia City",
      "neighborhoodGroup": "Southeast"
    }
  },
  {
    "id_str": "F190078247",
    "created_at": "7/24/2019 8:36:39 AM",
    "derived": {
      "lat": 47.721329,
      "long": -122.296339,
      "timestamp": 1563982599000,
      "description": "Aid Response Yellow",
      "address": "12740 30th Av Ne,Seattle,WA",
      "units": "E39",
      "entries": 1,
      "neighborhood": "Cedar Park/Meadowbrook",
      "neighborhoodGroup": "North"
    }
  },
  {
    "id_str": "F190078243",
    "created_at": "7/24/2019 8:20:27 AM",
    "derived": {
      "lat": 47.620903,
      "long": -122.346296,
      "timestamp": 1563981627000,
      "description": "Medic Response, 7 per Rule",
      "address": "Thomas St / Taylor Av N,Seattle,WA",
      "units": "E2 L4 M1",
      "entries": 2,
      "neighborhood": "Cascade/Eastlake",
      "neighborhoodGroup": "Lake Union"
    }
  },
  {
    "id_str": "F190078242",
    "created_at": "7/24/2019 8:16:33 AM",
    "derived": {
      "lat": 47.723388,
      "long": -122.344979,
      "timestamp": 1563981393000,
      "description": "Aid Response",
      "address": "13025 Aurora Av N,Seattle,WA",
      "units": "E24",
      "entries": 1,
      "neighborhood": "Haller Lake",
      "neighborhoodGroup": "Northwest"
    }
  },
  {
    "id_str": "F190078241",
    "created_at": "7/24/2019 8:16:21 AM",
    "derived": {
      "lat": 47.623472,
      "long": -122.358023,
      "timestamp": 1563981381000,
      "description": "Aid Response",
      "address": "516 1st Av W,Seattle,WA",
      "units": "A2",
      "entries": 1,
      "neighborhood": "Queen Anne",
      "neighborhoodGroup": "Magnolia/Queen Anne"
    }
  },
  {
    "id_str": "F190078238",
    "created_at": "7/24/2019 8:01:11 AM",
    "derived": {
      "lat": 47.505045,
      "long": -122.253115,
      "timestamp": 1563980471000,
      "description": "Aid Response",
      "address": "10711 Renton Av S,Seattle,WA",
      "units": "E28",
      "entries": 1,
      "neighborhood": "Rainier Beach",
      "neighborhoodGroup": "Southeast"
    }
  },
  {
    "id_str": "F190078237",
    "created_at": "7/24/2019 7:53:19 AM",
    "derived": {
      "lat": 47.716072,
      "long": -122.323492,
      "timestamp": 1563979999000,
      "description": "Aid Response",
      "address": "12036 5th Av Ne,Seattle,WA",
      "units": "E32 E39",
      "entries": 2,
      "neighborhood": "Haller Lake",
      "neighborhoodGroup": "Northwest"
    }
  },
  {
    "id_str": "F190078236",
    "created_at": "7/24/2019 7:45:07 AM",
    "derived": {
      "lat": 47.511564,
      "long": -122.253521,
      "timestamp": 1563979507000,
      "description": "Medic Response",
      "address": "10009 64th Av S,Seattle,WA",
      "units": "E33 M28",
      "entries": 1,
      "neighborhood": "Rainier Beach",
      "neighborhoodGroup": "Southeast"
    }
  },
  {
    "id_str": "F190078235",
    "created_at": "7/24/2019 7:33:43 AM",
    "derived": {
      "lat": 47.700404,
      "long": -122.375436,
      "timestamp": 1563978823000,
      "description": "Advised Incident",
      "address": "8724 MARY AV NW,Seattle,WA",
      "units": "E21 E35",
      "entries": 2,
      "neighborhood": "North Beach/Blue Ridge",
      "neighborhoodGroup": "Ballard"
    }
  },
  {
    "id_str": "F190078233",
    "created_at": "7/24/2019 7:24:35 AM",
    "derived": {
      "lat": 47.726707,
      "long": -122.303259,
      "timestamp": 1563978275000,
      "description": "Aid Response Yellow",
      "address": "13516 23rd Pl Ne,Seattle,WA",
      "units": "E39",
      "entries": 1,
      "neighborhood": "Olympic Hills/Victory Heights",
      "neighborhoodGroup": "North"
    }
  },
  {
    "id_str": "F190078231",
    "created_at": "7/24/2019 7:19:35 AM",
    "derived": {
      "lat": 47.602615,
      "long": -122.329418,
      "timestamp": 1563977975000,
      "description": "Aid Response",
      "address": "420 Jefferson St,Seattle,WA",
      "units": "A10",
      "entries": 1,
      "neighborhood": "Downtown Commercial Core",
      "neighborhoodGroup": "Downtown"
    }
  },
  {
    "id_str": "F190078230",
    "created_at": "7/24/2019 7:09:49 AM",
    "derived": {
      "lat": 47.690655,
      "long": -122.365993,
      "timestamp": 1563977389000,
      "description": "Aid Response",
      "address": "8th Av Nw / Nw 85th St,Seattle,WA",
      "units": "E35",
      "entries": 1,
      "neighborhood": "Greenwood/Phinney Ridge",
      "neighborhoodGroup": "Northwest"
    }
  },
  {
    "id_str": "F190078229",
    "created_at": "7/24/2019 7:08:35 AM",
    "derived": {
      "lat": 47.705096,
      "long": -122.344695,
      "timestamp": 1563977315000,
      "description": "Aid Response",
      "address": "10507 Aurora Av N,Seattle,WA",
      "units": "E24",
      "entries": 1,
      "neighborhood": "Licton Springs",
      "neighborhoodGroup": "Northwest"
    }
  },
  {
    "id_str": "F190078228",
    "created_at": "7/24/2019 7:05:04 AM",
    "derived": {
      "lat": 47.689888,
      "long": -122.344518,
      "timestamp": 1563977104000,
      "description": "Aid Response",
      "address": "8408 Aurora Av N,Seattle,WA",
      "units": "E21",
      "entries": 1,
      "neighborhood": "Green Lake",
      "neighborhoodGroup": "Northwest"
    }
  },
  {
    "id_str": "F190078227",
    "created_at": "7/24/2019 7:00:51 AM",
    "derived": {
      "lat": 47.627171,
      "long": -122.339622,
      "timestamp": 1563976851000,
      "description": "Aid Response",
      "address": "9th Av N / Westlake Av N,Seattle,WA",
      "units": "A2 E2",
      "entries": 2,
      "neighborhood": "Queen Anne",
      "neighborhoodGroup": "Magnolia/Queen Anne"
    }
  },
  {
    "id_str": "F190078226",
    "created_at": "7/24/2019 6:58:24 AM",
    "derived": {
      "lat": 47.616171,
      "long": -122.331417,
      "timestamp": 1563976704000,
      "description": "MVI - Motor Vehicle Incident",
      "address": "Boren Av / Howell St,Seattle,WA",
      "units": "E25",
      "entries": 1,
      "neighborhood": "Cascade/Eastlake",
      "neighborhoodGroup": "Lake Union"
    }
  },
  {
    "id_str": "F190078225",
    "created_at": "7/24/2019 6:48:02 AM",
    "derived": {
      "lat": 47.604615,
      "long": -122.32228,
      "timestamp": 1563976082000,
      "description": "Medic Response",
      "address": "1005 Terrace St,Seattle,WA",
      "units": "A5 M10",
      "entries": 1,
      "neighborhood": "First Hill",
      "neighborhoodGroup": "East"
    }
  },
  {
    "id_str": "F190078224",
    "created_at": "7/24/2019 6:44:37 AM",
    "derived": {
      "lat": 47.619877,
      "long": -122.331698,
      "timestamp": 1563975877000,
      "description": "Aid Response",
      "address": "219 Pontius Av N,Seattle,WA",
      "units": "A2",
      "entries": 1,
      "neighborhood": "Cascade/Eastlake",
      "neighborhoodGroup": "Lake Union"
    }
  },
  {
    "id_str": "F190078223",
    "created_at": "7/24/2019 6:41:39 AM",
    "derived": {
      "lat": 47.517354,
      "long": -122.354035,
      "timestamp": 1563975699000,
      "description": "Aid Response",
      "address": "15th Av Sw/sw Roxbury St,Seattle,WA",
      "units": "E11",
      "entries": 1
    }
  },
  {
    "id_str": "F190078221",
    "created_at": "7/24/2019 6:31:02 AM",
    "derived": {
      "lat": 47.634319,
      "long": -122.342285,
      "timestamp": 1563975062000,
      "description": "Water Job Minor",
      "address": "1735 Dexter Av N,Seattle,WA",
      "units": "L4",
      "entries": 1,
      "neighborhood": "Queen Anne",
      "neighborhoodGroup": "Magnolia/Queen Anne"
    }
  },
  {
    "id_str": "F190078220",
    "created_at": "7/24/2019 6:28:38 AM",
    "derived": {
      "lat": 47.602172,
      "long": -122.330863,
      "timestamp": 1563974918000,
      "description": "Aid Response",
      "address": "517 3rd Av,Seattle,WA",
      "units": "A10",
      "entries": 1,
      "neighborhood": "Downtown Commercial Core",
      "neighborhoodGroup": "Downtown"
    }
  },
  {
    "id_str": "F190078218",
    "created_at": "7/24/2019 6:21:41 AM",
    "derived": {
      "lat": 47.573549,
      "long": -122.32906,
      "timestamp": 1563974501000,
      "description": "Medic Response",
      "address": "3414 4th Av S,Seattle,WA",
      "units": "A14 M32",
      "entries": 2,
      "neighborhood": "Duwamish/SODO",
      "neighborhoodGroup": "Greater Duwamish"
    }
  },
  {
    "id_str": "F190078216",
    "created_at": "7/24/2019 6:12:22 AM",
    "derived": {
      "lat": 47.60252,
      "long": -122.329645,
      "timestamp": 1563973942000,
      "description": "Aid Response",
      "address": "500 4th Av,Seattle,WA",
      "units": "A5",
      "entries": 1,
      "neighborhood": "Downtown Commercial Core",
      "neighborhoodGroup": "Downtown"
    }
  },
  {
    "id_str": "F190078215",
    "created_at": "7/24/2019 5:58:33 AM",
    "derived": {
      "lat": 47.602306,
      "long": -122.332519,
      "timestamp": 1563973113000,
      "description": "Aid Response",
      "address": "2nd Av / James St,Seattle,WA",
      "units": "A10",
      "entries": 1,
      "neighborhood": "Downtown Commercial Core",
      "neighborhoodGroup": "Downtown"
    }
  },
  {
    "id_str": "F190078213",
    "created_at": "7/24/2019 5:53:50 AM",
    "derived": {
      "lat": 47.5674,
      "long": -122.370894,
      "timestamp": 1563972830000,
      "description": "Aid Response",
      "address": "3015 Sw Avalon Way,Seattle,WA",
      "units": "E36",
      "entries": 1,
      "neighborhood": "North Delridge",
      "neighborhoodGroup": "Delridge Neighborhoods"
    }
  },
  {
    "id_str": "F190078210",
    "created_at": "7/24/2019 5:07:19 AM",
    "derived": {
      "lat": 47.61528,
      "long": -122.306,
      "timestamp": 1563970039000,
      "description": "Aid Response",
      "address": "2014 E Pine St,Seattle,WA",
      "units": "A25",
      "entries": 1,
      "neighborhood": "Central Area/Squire Park",
      "neighborhoodGroup": "Central"
    }
  },
  {
    "id_str": "F190078209",
    "created_at": "7/24/2019 5:03:24 AM",
    "derived": {
      "lat": 47.716098,
      "long": -122.326149,
      "timestamp": 1563969804000,
      "description": "Aid Response",
      "address": "12033 3rd Av Ne,Seattle,WA",
      "units": "E24",
      "entries": 1,
      "neighborhood": "Haller Lake",
      "neighborhoodGroup": "Northwest"
    }
  },
  {
    "id_str": "F190078208",
    "created_at": "7/24/2019 5:01:29 AM",
    "derived": {
      "lat": 47.671649,
      "long": -122.390348,
      "timestamp": 1563969689000,
      "description": "Medic Response",
      "address": "2616 Nw 59th St,Seattle,WA",
      "units": "E18 M18",
      "entries": 1,
      "neighborhood": "Sunset Hill/Loyal Heights",
      "neighborhoodGroup": "Ballard"
    }
  },
  {
    "id_str": "F190078207",
    "created_at": "7/24/2019 4:42:46 AM",
    "derived": {
      "lat": 47.659861,
      "long": -122.276071,
      "timestamp": 1563968566000,
      "description": "Aid Response",
      "address": "4845 Ne 43rd St,Seattle,WA",
      "units": "E38",
      "entries": 1,
      "neighborhood": "Laurelhurst/Sand Point",
      "neighborhoodGroup": "Northeast"
    }
  },
  {
    "id_str": "F190078206",
    "created_at": "7/24/2019 4:35:23 AM",
    "derived": {
      "lat": 47.65996,
      "long": -122.342217,
      "timestamp": 1563968123000,
      "description": "Aid Response",
      "address": "4400 Stone Way N,Seattle,WA",
      "units": "E9",
      "entries": 1,
      "neighborhood": "Wallingford",
      "neighborhoodGroup": "Lake Union"
    }
  },
  {
    "id_str": "F190078203",
    "created_at": "7/24/2019 4:13:06 AM",
    "derived": {
      "lat": 47.697392,
      "long": -122.277641,
      "timestamp": 1563966786000,
      "description": "Medic Response",
      "address": "9504 Sand Point Way Ne,Seattle,WA",
      "units": "E40 M17",
      "entries": 1,
      "neighborhood": "Cedar Park/Meadowbrook",
      "neighborhoodGroup": "North"
    }
  },
  {
    "id_str": "F190078202",
    "created_at": "7/24/2019 3:56:25 AM",
    "derived": {
      "lat": 47.545436,
      "long": -122.387209,
      "timestamp": 1563965785000,
      "description": "Aid Response",
      "address": "6420 California Av Sw,Seattle,WA",
      "units": "E32",
      "entries": 1,
      "neighborhood": "Fauntleroy/Seaview",
      "neighborhoodGroup": "Southwest"
    }
  },
  {
    "id_str": "F190078200",
    "created_at": "7/24/2019 3:39:17 AM",
    "derived": {
      "lat": 47.590583,
      "long": -122.386183,
      "timestamp": 1563964757000,
      "description": "Medic Response",
      "address": "1501 California Av Sw,Seattle,WA",
      "units": "E29 M32",
      "entries": 2,
      "neighborhood": "Alki/Admiral",
      "neighborhoodGroup": "Southwest"
    }
  },
  {
    "id_str": "F190078199",
    "created_at": "7/24/2019 3:32:01 AM",
    "derived": {
      "lat": 47.659507,
      "long": -122.319782,
      "timestamp": 1563964321000,
      "description": "Medic Response, 7 per Rule",
      "address": "4306 8th Av Ne,Seattle,WA",
      "units": "E17 E31 M17",
      "entries": 1,
      "neighborhood": "Wallingford",
      "neighborhoodGroup": "Lake Union"
    }
  },
  {
    "id_str": "F190078198",
    "created_at": "7/24/2019 3:22:29 AM",
    "derived": {
      "lat": 47.721329,
      "long": -122.296339,
      "timestamp": 1563963749000,
      "description": "Automatic Medical Alarm",
      "address": "12740 30th Av Ne,Seattle,WA",
      "units": "E39",
      "entries": 1,
      "neighborhood": "Cedar Park/Meadowbrook",
      "neighborhoodGroup": "North"
    }
  },
  {
    "id_str": "F190078197",
    "created_at": "7/24/2019 3:20:35 AM",
    "derived": {
      "lat": 47.614089,
      "long": -122.325514,
      "timestamp": 1563963635000,
      "description": "Aid Response",
      "address": "Summit Av / E Pike St,Seattle,WA",
      "units": "A25",
      "entries": 1,
      "neighborhood": "Capitol Hill",
      "neighborhoodGroup": "East"
    }
  },
  {
    "id_str": "F190078196",
    "created_at": "7/24/2019 3:06:17 AM",
    "derived": {
      "lat": 47.717897,
      "long": -122.367675,
      "timestamp": 1563962777000,
      "description": "Automatic Medical Alarm",
      "address": "12208 9th Av Nw,Seattle,WA",
      "units": "E24",
      "entries": 1,
      "neighborhood": "Broadview/Bitter Lake",
      "neighborhoodGroup": "Northwest"
    }
  },
  {
    "id_str": "F190078195",
    "created_at": "7/24/2019 3:04:49 AM",
    "derived": {
      "lat": 47.6466,
      "long": -122.374878,
      "timestamp": 1563962689000,
      "description": "Aid Response",
      "address": "14th Av W / W Barrett St,Seattle,WA",
      "units": "E20",
      "entries": 1,
      "neighborhood": "Interbay",
      "neighborhoodGroup": "Magnolia/Queen Anne"
    }
  },
  {
    "id_str": "F190078193",
    "created_at": "7/24/2019 2:34:40 AM",
    "derived": {
      "lat": 47.566326,
      "long": -122.408773,
      "timestamp": 1563960880000,
      "description": "Aid Response",
      "address": "4163 Beach Dr Sw,Seattle,WA",
      "units": "E29",
      "entries": 1,
      "neighborhood": "Alki/Admiral",
      "neighborhoodGroup": "Southwest"
    }
  },
  {
    "id_str": "F190078192",
    "created_at": "7/24/2019 2:30:51 AM",
    "derived": {
      "lat": 47.661387,
      "long": -122.310857,
      "timestamp": 1563960651000,
      "description": "Aid Response",
      "address": "4515 16th Av Ne,Seattle,WA",
      "units": "E31",
      "entries": 1,
      "neighborhood": "University District",
      "neighborhoodGroup": "Northeast"
    }
  },
  {
    "id_str": "F190078190",
    "created_at": "7/24/2019 2:18:47 AM",
    "derived": {
      "lat": 47.614076,
      "long": -122.32078,
      "timestamp": 1563959927000,
      "description": "Aid Response",
      "address": "Broadway / E Pike St,Seattle,WA",
      "units": "A5",
      "entries": 1,
      "neighborhood": "Capitol Hill",
      "neighborhoodGroup": "East"
    }
  },
  {
    "id_str": "F190078189",
    "created_at": "7/24/2019 2:15:20 AM",
    "derived": {
      "lat": 47.608379,
      "long": -122.30762,
      "timestamp": 1563959720000,
      "description": "Aid Response",
      "address": "731 19th Av,Seattle,WA",
      "units": "A10",
      "entries": 1,
      "neighborhood": "Central Area/Squire Park",
      "neighborhoodGroup": "Central"
    }
  },
  {
    "id_str": "F190078188",
    "created_at": "7/24/2019 2:10:45 AM",
    "derived": {
      "lat": 47.629119,
      "long": -122.291047,
      "timestamp": 1563959445000,
      "description": "Fire in Single Family Res",
      "address": "1129 Parkside Dr E,Seattle,WA",
      "units": "A25 AIR10 B2 B6 DEP1 E22 E25 E34 E6 L1 L10 L3 M1 M44 MAR5 SAFT2 STAF10",
      "entries": 3,
      "neighborhood": "Madison Park",
      "neighborhoodGroup": "East"
    }
  },
  {
    "id_str": "F190078185",
    "created_at": "7/24/2019 1:46:17 AM",
    "derived": {
      "lat": 47.602172,
      "long": -122.330863,
      "timestamp": 1563957977000,
      "description": "Aid Response",
      "address": "517 3rd Av,Seattle,WA",
      "units": "A5",
      "entries": 1,
      "neighborhood": "Downtown Commercial Core",
      "neighborhoodGroup": "Downtown"
    }
  },
  {
    "id_str": "F190078184",
    "created_at": "7/24/2019 1:42:30 AM",
    "derived": {
      "lat": 47.719674,
      "long": -122.355539,
      "timestamp": 1563957750000,
      "description": "Aid Response",
      "address": "12509 GREENWOOD AV N,Seattle,WA",
      "units": "E24",
      "entries": 1,
      "neighborhood": "Broadview/Bitter Lake",
      "neighborhoodGroup": "Northwest"
    }
  },
  {
    "id_str": "F190078182",
    "created_at": "7/24/2019 1:32:46 AM",
    "derived": {
      "lat": 47.546011,
      "long": -122.294751,
      "timestamp": 1563957166000,
      "description": "Aid Response",
      "address": "6323 Shaffer Av S,Seattle,WA",
      "units": "E28",
      "entries": 1,
      "neighborhood": "South Beacon Hill/NewHolly",
      "neighborhoodGroup": "Greater Duwamish"
    }
  },
  {
    "id_str": "F190078180",
    "created_at": "7/24/2019 1:00:23 AM",
    "derived": {
      "lat": 47.609994,
      "long": -122.346301,
      "timestamp": 1563955223000,
      "description": "Medic Response",
      "address": "2100 Alaskan Way,Seattle,WA",
      "units": "A2 M1",
      "entries": 1,
      "neighborhood": "Belltown",
      "neighborhoodGroup": "Downtown"
    }
  },
  {
    "id_str": "F190078179",
    "created_at": "7/24/2019 12:58:12 AM",
    "derived": {
      "lat": 47.595541,
      "long": -122.298643,
      "timestamp": 1563955092000,
      "description": "Medic Response, 7 per Rule",
      "address": "2611 S Dearborn St,Seattle,WA",
      "units": "E6 L3 M10",
      "entries": 1,
      "neighborhood": "Madrona/Leschi",
      "neighborhoodGroup": "Central"
    }
  },
  {
    "id_str": "F190078177",
    "created_at": "7/24/2019 12:50:32 AM",
    "derived": {
      "lat": 47.540318,
      "long": -122.282693,
      "timestamp": 1563954632000,
      "description": "Medic Response",
      "address": "6940 M L King Jr Way S,Seattle,WA",
      "units": "E28 L12 M28",
      "entries": 2,
      "neighborhood": "South Beacon Hill/NewHolly",
      "neighborhoodGroup": "Greater Duwamish"
    }
  },
  {
    "id_str": "F190078175",
    "created_at": "7/24/2019 12:41:46 AM",
    "derived": {
      "lat": 47.692595,
      "long": -122.353952,
      "timestamp": 1563954106000,
      "description": "Aid Response",
      "address": "8731 Phinney Av N,Seattle,WA",
      "units": "E21",
      "entries": 1,
      "neighborhood": "Greenwood/Phinney Ridge",
      "neighborhoodGroup": "Northwest"
    }
  },
  {
    "id_str": "F190078173",
    "created_at": "7/24/2019 12:34:19 AM",
    "derived": {
      "lat": 47.533376,
      "long": -122.279665,
      "timestamp": 1563953659000,
      "description": "Activated CO Detector",
      "address": "4253 S Holden St,Seattle,WA",
      "units": "L12",
      "entries": 1,
      "neighborhood": "South Beacon Hill/NewHolly",
      "neighborhoodGroup": "Greater Duwamish"
    }
  },
  {
    "id_str": "F190078169",
    "created_at": "7/24/2019 12:19:38 AM",
    "derived": {
      "lat": 47.609943,
      "long": -122.337969,
      "timestamp": 1563952778000,
      "description": "Auto Fire Alarm",
      "address": "1520 3rd Av,Seattle,WA",
      "units": "E5 L4",
      "entries": 1,
      "neighborhood": "Downtown Commercial Core",
      "neighborhoodGroup": "Downtown"
    }
  },
  {
    "id_str": "F190078167",
    "created_at": "7/23/2019 11:55:13 PM",
    "derived": {
      "lat": 47.606439,
      "long": -122.329279,
      "timestamp": 1563951313000,
      "description": "Illegal Burn",
      "address": "SB I5 EXP AT CONVENTION CENTER,Seattle,WA",
      "units": "E17 E2",
      "entries": 2,
      "neighborhood": "First Hill",
      "neighborhoodGroup": "East"
    }
  },
  {
    "id_str": "F190078166",
    "created_at": "7/23/2019 11:51:00 PM",
    "derived": {
      "lat": 47.549748,
      "long": -122.286273,
      "timestamp": 1563951060000,
      "description": "Aid Response",
      "address": "5900 37th Av S,Seattle,WA",
      "units": "E28",
      "entries": 1,
      "neighborhood": "Columbia City",
      "neighborhoodGroup": "Southeast"
    }
  },
  {
    "id_str": "F190078165",
    "created_at": "7/23/2019 11:45:05 PM",
    "derived": {
      "lat": 47.678556,
      "long": -122.326837,
      "timestamp": 1563950705000,
      "description": "Rescue Elevator",
      "address": "6900 East Green Lake Way N,Seattle,WA",
      "units": "L9",
      "entries": 1,
      "neighborhood": "Green Lake",
      "neighborhoodGroup": "Northwest"
    }
  },
  {
    "id_str": "F190078160",
    "created_at": "7/23/2019 11:22:31 PM",
    "derived": {
      "lat": 47.562517,
      "long": -122.385455,
      "timestamp": 1563949351000,
      "description": "Medic Response",
      "address": "4540 42nd Av Sw,Seattle,WA",
      "units": "E32 M1",
      "entries": 1,
      "neighborhood": "West Seattle Junction/Genesee Hill",
      "neighborhoodGroup": "Southwest"
    }
  },
  {
    "id_str": "F190078158",
    "created_at": "7/23/2019 11:13:56 PM",
    "derived": {
      "lat": 47.601716,
      "long": -122.330265,
      "timestamp": 1563948836000,
      "description": "Aid Response",
      "address": "298 Yesler Way,Seattle,WA",
      "units": "A5",
      "entries": 1,
      "neighborhood": "Downtown Commercial Core",
      "neighborhoodGroup": "Downtown"
    }
  },
  {
    "id_str": "F190078156",
    "created_at": "7/23/2019 11:12:41 PM",
    "derived": {
      "lat": 47.663027,
      "long": -122.284774,
      "timestamp": 1563948761000,
      "description": "Aid Response",
      "address": "Sand Point Way Ne / 40th Av Ne,Seattle,WA",
      "units": "E38",
      "entries": 1,
      "neighborhood": "Laurelhurst/Sand Point",
      "neighborhoodGroup": "Northeast"
    }
  },
  {
    "id_str": "F190078154",
    "created_at": "7/23/2019 11:04:22 PM",
    "derived": {
      "lat": 47.697871,
      "long": -122.324504,
      "timestamp": 1563948262000,
      "description": "Aid Response",
      "address": "9519 4th Av Ne,Seattle,WA",
      "units": "E16",
      "entries": 1,
      "neighborhood": "Northgate/Maple Leaf",
      "neighborhoodGroup": "North"
    }
  },
  {
    "id_str": "F190078155",
    "created_at": "7/23/2019 11:04:05 PM",
    "derived": {
      "lat": 47.533698,
      "long": -122.363185,
      "timestamp": 1563948245000,
      "description": "Aid Response",
      "address": "2401 SW HOLDEN ST,Seattle,WA",
      "units": "E37",
      "entries": 1,
      "neighborhood": "High Point",
      "neighborhoodGroup": "Delridge Neighborhoods"
    }
  },
  {
    "id_str": "F190078152",
    "created_at": "7/23/2019 10:51:14 PM",
    "derived": {
      "lat": 47.72526,
      "long": -122.347901,
      "timestamp": 1563947474000,
      "description": "Aid Response",
      "address": "13280 Linden Av N,Seattle,WA",
      "units": "E39",
      "entries": 1,
      "neighborhood": "Broadview/Bitter Lake",
      "neighborhoodGroup": "Northwest"
    }
  },
  {
    "id_str": "F190078151",
    "created_at": "7/23/2019 10:47:51 PM",
    "derived": {
      "lat": 47.712602,
      "long": -122.351535,
      "timestamp": 1563947271000,
      "description": "Auto Fire Alarm",
      "address": "11530 Evanston Av N,Seattle,WA",
      "units": "E35 L8",
      "entries": 1,
      "neighborhood": "Broadview/Bitter Lake",
      "neighborhoodGroup": "Northwest"
    }
  },
  {
    "id_str": "F190078150",
    "created_at": "7/23/2019 10:39:38 PM",
    "derived": {
      "lat": 47.717312,
      "long": -122.372043,
      "timestamp": 1563946778000,
      "description": "Aid Response",
      "address": "1231 NW 121ST ST,Seattle,WA",
      "units": "E24",
      "entries": 1,
      "neighborhood": "Broadview/Bitter Lake",
      "neighborhoodGroup": "Northwest"
    }
  },
  {
    "id_str": "F190078149",
    "created_at": "7/23/2019 10:36:45 PM",
    "derived": {
      "lat": 47.548271,
      "long": -122.334309,
      "timestamp": 1563946605000,
      "description": "Medic Response",
      "address": "1st Av S / East Marginal Way S,Seattle,WA",
      "units": "E27 M32",
      "entries": 3,
      "neighborhood": "Georgetown",
      "neighborhoodGroup": "Greater Duwamish"
    }
  },
  {
    "id_str": "F190078148",
    "created_at": "7/23/2019 10:29:28 PM",
    "derived": {
      "lat": 47.533828,
      "long": -122.336281,
      "timestamp": 1563946168000,
      "description": "Medic Response",
      "address": "7800 1st Av S,Seattle,WA",
      "units": "E26 M32",
      "entries": 1,
      "neighborhood": "Highland Park",
      "neighborhoodGroup": "Delridge Neighborhoods"
    }
  },
  {
    "id_str": "F190078144",
    "created_at": "7/23/2019 10:04:46 PM",
    "derived": {
      "lat": 47.615789,
      "long": -122.336507,
      "timestamp": 1563944686000,
      "description": "Aid Response Yellow",
      "address": "810 Virginia St,Seattle,WA",
      "units": "A2",
      "entries": 1,
      "neighborhood": "Cascade/Eastlake",
      "neighborhoodGroup": "Lake Union"
    }
  },
  {
    "id_str": "F190078143",
    "created_at": "7/23/2019 9:55:35 PM",
    "derived": {
      "lat": 47.687298,
      "long": -122.336409,
      "timestamp": 1563944135000,
      "description": "Illegal Burn",
      "address": "8043 Wallingford Av N,Seattle,WA",
      "units": "E16",
      "entries": 1,
      "neighborhood": "Green Lake",
      "neighborhoodGroup": "Northwest"
    }
  },
  {
    "id_str": "F190078141",
    "created_at": "7/23/2019 9:54:45 PM",
    "derived": {
      "lat": 47.552107,
      "long": -122.316869,
      "timestamp": 1563944085000,
      "description": "Aid Response",
      "address": "Nb I5 At Spokane,Seattle,WA",
      "units": "A14 E27 E28",
      "entries": 1,
      "neighborhood": "Beacon Hill",
      "neighborhoodGroup": "Greater Duwamish"
    }
  },
  {
    "id_str": "F190078139",
    "created_at": "7/23/2019 9:52:07 PM",
    "derived": {
      "lat": 47.570068,
      "long": -122.361141,
      "timestamp": 1563943927000,
      "description": "Aid Response",
      "address": "3805 22ND AV SW,Seattle,WA",
      "units": "E36",
      "entries": 1,
      "neighborhood": "North Delridge",
      "neighborhoodGroup": "Delridge Neighborhoods"
    }
  },
  {
    "id_str": "F190078136",
    "created_at": "7/23/2019 9:41:45 PM",
    "derived": {
      "lat": 47.610743,
      "long": -122.338702,
      "timestamp": 1563943305000,
      "description": "Aid Response",
      "address": "3rd Av / Pine St,Seattle,WA",
      "units": "A2",
      "entries": 1,
      "neighborhood": "Downtown Commercial Core",
      "neighborhoodGroup": "Downtown"
    }
  },
  {
    "id_str": "F190078135",
    "created_at": "7/23/2019 9:39:36 PM",
    "derived": {
      "lat": 47.726864,
      "long": -122.348012,
      "timestamp": 1563943176000,
      "description": "Aid Response",
      "address": "747 N 135th St,Seattle,WA",
      "units": "E24",
      "entries": 1,
      "neighborhood": "Broadview/Bitter Lake",
      "neighborhoodGroup": "Northwest"
    }
  },
  {
    "id_str": "F190078132",
    "created_at": "7/23/2019 9:26:45 PM",
    "derived": {
      "lat": 47.650519,
      "long": -122.322094,
      "timestamp": 1563942405000,
      "description": "Aid Response",
      "address": "Eastlake Av E / Harvard Av E,Seattle,WA",
      "units": "E22",
      "entries": 1,
      "neighborhood": "Montlake/Portage Bay",
      "neighborhoodGroup": "Northeast"
    }
  },
  {
    "id_str": "F190078130",
    "created_at": "7/23/2019 9:12:42 PM",
    "derived": {
      "lat": 47.598117,
      "long": -122.333262,
      "timestamp": 1563941562000,
      "description": "Rescue Elevator",
      "address": "520 Occidental Av S,Seattle,WA",
      "units": "L1 L4",
      "entries": 2,
      "neighborhood": "Duwamish/SODO",
      "neighborhoodGroup": "Greater Duwamish"
    }
  },
  {
    "id_str": "F190078129",
    "created_at": "7/23/2019 9:10:50 PM",
    "derived": {
      "lat": 47.619665,
      "long": -122.307271,
      "timestamp": 1563941450000,
      "description": "Medic Response",
      "address": "1907 E John St,Seattle,WA",
      "units": "A25 M10",
      "entries": 1,
      "neighborhood": "Miller Park",
      "neighborhoodGroup": "East"
    }
  },
  {
    "id_str": "F190078127",
    "created_at": "7/23/2019 8:48:03 PM",
    "derived": {
      "lat": 47.545988,
      "long": -122.280849,
      "timestamp": 1563940083000,
      "description": "Rubbish Fire",
      "address": "42nd Av S / S Graham St,Seattle,WA",
      "units": "E28",
      "entries": 1,
      "neighborhood": "Columbia City",
      "neighborhoodGroup": "Southeast"
    }
  },
  {
    "id_str": "F190078126",
    "created_at": "7/23/2019 8:47:39 PM",
    "derived": {
      "lat": 47.606453,
      "long": -122.292609,
      "timestamp": 1563940059000,
      "description": "Automatic Fire Alarm Resd",
      "address": "533 31st Av,Seattle,WA",
      "units": "E25",
      "entries": 1,
      "neighborhood": "Central Area/Squire Park",
      "neighborhoodGroup": "Central"
    }
  },
  {
    "id_str": "F190078124",
    "created_at": "7/23/2019 8:46:32 PM",
    "derived": {
      "lat": 47.615659,
      "long": -122.318166,
      "timestamp": 1563939992000,
      "description": "Aid Response",
      "address": "1635 11th Av,Seattle,WA",
      "units": "A25",
      "entries": 1,
      "neighborhood": "Capitol Hill",
      "neighborhoodGroup": "East"
    }
  },
  {
    "id_str": "F190078119",
    "created_at": "7/23/2019 8:23:27 PM",
    "derived": {
      "lat": 47.52843,
      "long": -122.265689,
      "timestamp": 1563938607000,
      "description": "Automatic Fire Alarm Resd",
      "address": "8412 Duncan Av S,Seattle,WA",
      "units": "E33",
      "entries": 1,
      "neighborhood": "Rainier Beach",
      "neighborhoodGroup": "Southeast"
    }
  },
  {
    "id_str": "F190078118",
    "created_at": "7/23/2019 8:18:59 PM",
    "derived": {
      "lat": 47.578633,
      "long": -122.313353,
      "timestamp": 1563938339000,
      "description": "MVI - Motor Vehicle Incident",
      "address": "15th Av S / S Mcclellan St,Seattle,WA",
      "units": "E13",
      "entries": 1,
      "neighborhood": "North Beacon Hill/Jefferson Park",
      "neighborhoodGroup": "Greater Duwamish"
    }
  },
  {
    "id_str": "F190078115",
    "created_at": "7/23/2019 8:03:08 PM",
    "derived": {
      "lat": 47.602306,
      "long": -122.332519,
      "timestamp": 1563937388000,
      "description": "MVI - Motor Vehicle Incident",
      "address": "200 James St,Seattle,WA",
      "units": "E10",
      "entries": 1,
      "neighborhood": "Downtown Commercial Core",
      "neighborhoodGroup": "Downtown"
    }
  },
  {
    "id_str": "F190078114",
    "created_at": "7/23/2019 8:02:18 PM",
    "derived": {
      "lat": 47.517991,
      "long": -122.34925,
      "timestamp": 1563937338000,
      "description": "Aid Response",
      "address": "9439 11th Av Sw,Seattle,WA",
      "units": "E11",
      "entries": 1,
      "neighborhood": "Highland Park",
      "neighborhoodGroup": "Delridge Neighborhoods"
    }
  },
  {
    "id_str": "F190078113",
    "created_at": "7/23/2019 8:00:52 PM",
    "derived": {
      "lat": 47.618693,
      "long": -122.334256,
      "timestamp": 1563937252000,
      "description": "Aid Response Yellow",
      "address": "116 Fairview Av N,Seattle,WA",
      "units": "A4",
      "entries": 1,
      "neighborhood": "Cascade/Eastlake",
      "neighborhoodGroup": "Lake Union"
    }
  },
  {
    "id_str": "F190078112",
    "created_at": "7/23/2019 7:59:04 PM",
    "derived": {
      "lat": 47.604946,
      "long": -122.303705,
      "timestamp": 1563937144000,
      "description": "Investigate Out Of Service",
      "address": "2204 E Terrace St,Seattle,WA",
      "units": "E6",
      "entries": 1,
      "neighborhood": "Central Area/Squire Park",
      "neighborhoodGroup": "Central"
    }
  },
  {
    "id_str": "F190078111",
    "created_at": "7/23/2019 7:45:18 PM",
    "derived": {
      "lat": 47.602172,
      "long": -122.330863,
      "timestamp": 1563936318000,
      "description": "Medic Response",
      "address": "517 3rd Av,Seattle,WA",
      "units": "A5 L1 M17",
      "entries": 1,
      "neighborhood": "Downtown Commercial Core",
      "neighborhoodGroup": "Downtown"
    }
  },
  {
    "id_str": "F190078110",
    "created_at": "7/23/2019 7:44:29 PM",
    "derived": {
      "lat": 47.619219,
      "long": -122.326346,
      "timestamp": 1563936269000,
      "description": "Aid Response Yellow",
      "address": "418 E Loretta Pl,Seattle,WA",
      "units": "A25",
      "entries": 1,
      "neighborhood": "Capitol Hill",
      "neighborhoodGroup": "East"
    }
  },
  {
    "id_str": "F190078109",
    "created_at": "7/23/2019 7:42:25 PM",
    "derived": {
      "lat": 47.657309,
      "long": -122.304653,
      "timestamp": 1563936145000,
      "description": "Rescue Elevator",
      "address": "4110 East Stevens Way Ne,Seattle,WA",
      "units": "L10",
      "entries": 1,
      "neighborhood": "University District",
      "neighborhoodGroup": "Northeast"
    }
  },
  {
    "id_str": "F190078108",
    "created_at": "7/23/2019 7:29:57 PM",
    "derived": {
      "lat": 47.592399,
      "long": -122.327256,
      "timestamp": 1563935397000,
      "description": "Medic Response",
      "address": "503 S Royal Brougham Way,Seattle,WA",
      "units": "E10 M10",
      "entries": 2,
      "neighborhood": "Duwamish/SODO",
      "neighborhoodGroup": "Greater Duwamish"
    }
  },
  {
    "id_str": "F190078106",
    "created_at": "7/23/2019 7:29:05 PM",
    "derived": {
      "lat": 47.570782,
      "long": -122.292377,
      "timestamp": 1563935345000,
      "description": "Medic Response, 6 per Rule",
      "address": "3711 Rainier Av S,Seattle,WA",
      "units": "E13 E30 M28",
      "entries": 1,
      "neighborhood": "Columbia City",
      "neighborhoodGroup": "Southeast"
    }
  },
  {
    "id_str": "F190078102",
    "created_at": "7/23/2019 7:18:52 PM",
    "derived": {
      "lat": 47.669446,
      "long": -122.378884,
      "timestamp": 1563934732000,
      "description": "Aid Response",
      "address": "1701 Nw 56th St,Seattle,WA",
      "units": "L8",
      "entries": 1,
      "neighborhood": "Ballard",
      "neighborhoodGroup": "Ballard"
    }
  },
  {
    "id_str": "F190078101",
    "created_at": "7/23/2019 7:18:14 PM",
    "derived": {
      "lat": 47.693931,
      "long": -122.30552,
      "timestamp": 1563934694000,
      "description": "Auto Fire Alarm",
      "address": "9001 Lake City Way Ne,Seattle,WA",
      "units": "E40 L5",
      "entries": 1,
      "neighborhood": "Wedgwood/View Ridge",
      "neighborhoodGroup": "Northeast"
    }
  },
  {
    "id_str": "F190078100",
    "created_at": "7/23/2019 7:07:16 PM",
    "derived": {
      "lat": 47.609285,
      "long": -122.338904,
      "timestamp": 1563934036000,
      "description": "Medic Response",
      "address": "2ND AV / PIKE ST,Seattle,WA",
      "units": "E5 M1",
      "entries": 2,
      "neighborhood": "Downtown Commercial Core",
      "neighborhoodGroup": "Downtown"
    }
  },
  {
    "id_str": "F190078099",
    "created_at": "7/23/2019 7:06:31 PM",
    "derived": {
      "lat": 47.605346,
      "long": -122.319413,
      "timestamp": 1563933991000,
      "description": "Aid Response",
      "address": "415 10th Av,Seattle,WA",
      "units": "A10",
      "entries": 1,
      "neighborhood": "First Hill",
      "neighborhoodGroup": "East"
    }
  },
  {
    "id_str": "F190078096",
    "created_at": "7/23/2019 7:01:42 PM",
    "derived": {
      "lat": 47.606628,
      "long": -122.312857,
      "timestamp": 1563933702000,
      "description": "Aid Response",
      "address": "548 15th Av,Seattle,WA",
      "units": "E25",
      "entries": 1,
      "neighborhood": "First Hill",
      "neighborhoodGroup": "East"
    }
  },
  {
    "id_str": "F190078094",
    "created_at": "7/23/2019 6:59:41 PM",
    "derived": {
      "lat": 47.688716,
      "long": -122.337771,
      "timestamp": 1563933581000,
      "description": "Fire in Single Family Res",
      "address": "Densmore Av N / N 82nd St,Seattle,WA",
      "units": "A31 AIR10 B4 B6 DEP1 E16 E17 E21 E31 L10 L5 L8 M17 M44 MAR5 SAFT2 STAF10",
      "entries": 1,
      "neighborhood": "Green Lake",
      "neighborhoodGroup": "Northwest"
    }
  },
  {
    "id_str": "F190078093",
    "created_at": "7/23/2019 6:56:39 PM",
    "derived": {
      "lat": 47.565871,
      "long": -122.296451,
      "timestamp": 1563933399000,
      "description": "Aid Response",
      "address": "4138 M L King Jr Way S,Seattle,WA",
      "units": "E30",
      "entries": 1,
      "neighborhood": "Columbia City",
      "neighborhoodGroup": "Southeast"
    }
  },
  {
    "id_str": "F190078092",
    "created_at": "7/23/2019 6:54:40 PM",
    "derived": {
      "lat": 47.529104,
      "long": -122.269418,
      "timestamp": 1563933280000,
      "description": "Aid Response",
      "address": "8314 Wabash Av S,Seattle,WA",
      "units": "E33",
      "entries": 1,
      "neighborhood": "Rainier Beach",
      "neighborhoodGroup": "Southeast"
    }
  },
  {
    "id_str": "F190078091",
    "created_at": "7/23/2019 6:51:14 PM",
    "derived": {
      "lat": 47.601716,
      "long": -122.330265,
      "timestamp": 1563933074000,
      "description": "Aid Response",
      "address": "3rd Av / Yesler Way,Seattle,WA",
      "units": "A10",
      "entries": 1,
      "neighborhood": "Downtown Commercial Core",
      "neighborhoodGroup": "Downtown"
    }
  },
  {
    "id_str": "F190078090",
    "created_at": "7/23/2019 6:49:42 PM",
    "derived": {
      "lat": 47.613053,
      "long": -122.3299,
      "timestamp": 1563932982000,
      "description": "Aid Response",
      "address": "1011 PIKE ST,Seattle,WA",
      "units": "A25",
      "entries": 1,
      "neighborhood": "First Hill",
      "neighborhoodGroup": "East"
    }
  },
  {
    "id_str": "F190078087",
    "created_at": "7/23/2019 6:40:03 PM",
    "derived": {
      "lat": 47.602172,
      "long": -122.330863,
      "timestamp": 1563932403000,
      "description": "Aid Response",
      "address": "517 3rd Av,Seattle,WA",
      "units": "A5",
      "entries": 1,
      "neighborhood": "Downtown Commercial Core",
      "neighborhoodGroup": "Downtown"
    }
  },
  {
    "id_str": "F190078086",
    "created_at": "7/23/2019 6:35:40 PM",
    "derived": {
      "lat": 47.734135,
      "long": -122.336981,
      "timestamp": 1563932140000,
      "description": "1RED 1 Unit",
      "address": "N 145th St/wallingford Av N,Seattle,WA",
      "units": "E24",
      "entries": 1
    }
  },
  {
    "id_str": "F190078083",
    "created_at": "7/23/2019 6:25:41 PM",
    "derived": {
      "lat": 47.638695,
      "long": -122.376149,
      "timestamp": 1563931541000,
      "description": "Auto Fire Alarm",
      "address": "2208 15th Av W,Seattle,WA",
      "units": "E20 L8",
      "entries": 1,
      "neighborhood": "Interbay",
      "neighborhoodGroup": "Magnolia/Queen Anne"
    }
  },
  {
    "id_str": "F190078082",
    "created_at": "7/23/2019 6:09:14 PM",
    "derived": {
      "lat": 47.721329,
      "long": -122.296339,
      "timestamp": 1563930554000,
      "description": "Aid Response",
      "address": "12740 30th Av Ne,Seattle,WA",
      "units": "E39 L5",
      "entries": 2,
      "neighborhood": "Cedar Park/Meadowbrook",
      "neighborhoodGroup": "North"
    }
  },
  {
    "id_str": "F190078080",
    "created_at": "7/23/2019 5:58:38 PM",
    "derived": {
      "lat": 47.712312,
      "long": -122.342124,
      "timestamp": 1563929918000,
      "description": "Aid Response",
      "address": "N 115th St / Stone Av N,Seattle,WA",
      "units": "E35",
      "entries": 1,
      "neighborhood": "Haller Lake",
      "neighborhoodGroup": "Northwest"
    }
  },
  {
    "id_str": "F190078077",
    "created_at": "7/23/2019 5:41:24 PM",
    "derived": {
      "lat": 47.643374,
      "long": -122.356888,
      "timestamp": 1563928884000,
      "description": "Aid Response",
      "address": "2616 Queen Anne Av N,Seattle,WA",
      "units": "E8",
      "entries": 1,
      "neighborhood": "Queen Anne",
      "neighborhoodGroup": "Magnolia/Queen Anne"
    }
  },
  {
    "id_str": "F190078076",
    "created_at": "7/23/2019 5:40:56 PM",
    "derived": {
      "lat": 47.636444,
      "long": -122.340459,
      "timestamp": 1563928856000,
      "description": "MVI - Motor Vehicle Incident",
      "address": "Westlake Av N / Newton St,Seattle,WA",
      "units": "E9",
      "entries": 1,
      "neighborhood": "Queen Anne",
      "neighborhoodGroup": "Magnolia/Queen Anne"
    }
  },
  {
    "id_str": "F190078074",
    "created_at": "7/23/2019 5:35:35 PM",
    "derived": {
      "lat": 47.732314,
      "long": -122.350182,
      "timestamp": 1563928535000,
      "description": "Medic Response",
      "address": "722 N 143rd St,Seattle,WA",
      "units": "E24 M31",
      "entries": 1,
      "neighborhood": "Broadview/Bitter Lake",
      "neighborhoodGroup": "Northwest"
    }
  },
  {
    "id_str": "F190078071",
    "created_at": "7/23/2019 5:32:46 PM",
    "derived": {
      "lat": 47.714123,
      "long": -122.30267,
      "timestamp": 1563928366000,
      "description": "Aid Response",
      "address": "11740 24th Av Ne,Seattle,WA",
      "units": "E39 L5",
      "entries": 2,
      "neighborhood": "Olympic Hills/Victory Heights",
      "neighborhoodGroup": "North"
    }
  },
  {
    "id_str": "F190078070",
    "created_at": "7/23/2019 5:31:57 PM",
    "derived": {
      "lat": 47.701742,
      "long": -122.335029,
      "timestamp": 1563928317000,
      "description": "Aid Response",
      "address": "10049 College Way N,Seattle,WA",
      "units": "A31",
      "entries": 1,
      "neighborhood": "Licton Springs",
      "neighborhoodGroup": "Northwest"
    }
  },
  {
    "id_str": "F190078069",
    "created_at": "7/23/2019 5:31:17 PM",
    "derived": {
      "lat": 47.523307,
      "long": -122.269986,
      "timestamp": 1563928277000,
      "description": "MVI - Motor Vehicle Incident",
      "address": "Rainier Av S / S Henderson St,Seattle,WA",
      "units": "E28 E33",
      "entries": 2,
      "neighborhood": "Rainier Beach",
      "neighborhoodGroup": "Southeast"
    }
  },
  {
    "id_str": "F190078068",
    "created_at": "7/23/2019 5:28:33 PM",
    "derived": {
      "lat": 47.529015,
      "long": -122.376813,
      "timestamp": 1563928113000,
      "description": "Aid Response",
      "address": "3514 Sw Rose St,Seattle,WA",
      "units": "E37",
      "entries": 1,
      "neighborhood": "Roxhill/Westwood",
      "neighborhoodGroup": "Delridge Neighborhoods"
    }
  },
  {
    "id_str": "F190078067",
    "created_at": "7/23/2019 5:24:04 PM",
    "derived": {
      "lat": 47.661793,
      "long": -122.342128,
      "timestamp": 1563927844000,
      "description": "Aid Response",
      "address": "4555 Stone Way N,Seattle,WA",
      "units": "E9",
      "entries": 1,
      "neighborhood": "Wallingford",
      "neighborhoodGroup": "Lake Union"
    }
  },
  {
    "id_str": "F190078065",
    "created_at": "7/23/2019 5:18:05 PM",
    "derived": {
      "lat": 47.603682,
      "long": -122.319409,
      "timestamp": 1563927485000,
      "description": "Aid Response",
      "address": "220 10th Av,Seattle,WA",
      "units": "A25",
      "entries": 1,
      "neighborhood": "First Hill",
      "neighborhoodGroup": "East"
    }
  },
  {
    "id_str": "F190078066",
    "created_at": "7/23/2019 5:17:55 PM",
    "derived": {
      "lat": 47.618896,
      "long": -122.325288,
      "timestamp": 1563927475000,
      "description": "Rubbish Fire",
      "address": "SUMMIT AV E / E OLIVE WAY,Seattle,WA",
      "units": "E25",
      "entries": 1,
      "neighborhood": "Capitol Hill",
      "neighborhoodGroup": "East"
    }
  },
  {
    "id_str": "F190078064",
    "created_at": "7/23/2019 5:14:11 PM",
    "derived": {
      "lat": 47.600194,
      "long": -122.330541,
      "timestamp": 1563927251000,
      "description": "Medic Response",
      "address": "318 2nd Av Et S,Seattle,WA",
      "units": "A10 E10 M1 M44",
      "entries": 4,
      "neighborhood": "Pioneer Square/International District",
      "neighborhoodGroup": "Downtown"
    }
  },
  {
    "id_str": "F190078062",
    "created_at": "7/23/2019 5:11:05 PM",
    "derived": {
      "lat": 47.522351,
      "long": -122.27405,
      "timestamp": 1563927065000,
      "description": "Medic Response",
      "address": "4630 S Director St,Seattle,WA",
      "units": "E33 M28",
      "entries": 2,
      "neighborhood": "Rainier Beach",
      "neighborhoodGroup": "Southeast"
    }
  },
  {
    "id_str": "F190078063",
    "created_at": "7/23/2019 5:11:02 PM",
    "derived": {
      "lat": 47.731955,
      "long": -122.293832,
      "timestamp": 1563927062000,
      "description": "Aid Response",
      "address": "32ND AV NE / NE 143RD ST,Seattle,WA",
      "units": "L5",
      "entries": 1,
      "neighborhood": "Cedar Park/Meadowbrook",
      "neighborhoodGroup": "North"
    }
  }
]