[
  {
    "id_str": "F190106114",
    "created_at": "10/4/2019 4:56:09 PM",
    "lat": 47.614085,
    "long": -122.319447,
    "timestamp": 1570233369000,
    "description": "Aid Response",
    "entries": 1,
    "neighborhood": "Capitol Hill",
    "neighborhoodGroup": "East",
    "unitCount": 1,
    "severity": 0,
    "units": "E25",
    "address": "10th Av / E Pike St"
  },
  {
    "id_str": "F190106113",
    "created_at": "10/4/2019 4:41:42 PM",
    "lat": 47.677933,
    "long": -122.360475,
    "timestamp": 1570232502000,
    "description": "Investigate Out Of Service",
    "entries": 1,
    "neighborhood": "Greenwood/Phinney Ridge",
    "neighborhoodGroup": "Northwest",
    "unitCount": 1,
    "severity": 0,
    "units": "E21",
    "address": "6727 3rd Av Nw"
  },
  {
    "id_str": "F190106110",
    "created_at": "10/4/2019 4:33:39 PM",
    "lat": 47.631378,
    "long": -122.359203,
    "timestamp": 1570232019000,
    "description": "Automatic Medical Alarm",
    "entries": 1,
    "neighborhood": "Queen Anne",
    "neighborhoodGroup": "Magnolia/Queen Anne",
    "unitCount": 1,
    "severity": 0,
    "units": "L6",
    "address": "1407 2nd Av W"
  },
  {
    "id_str": "F190106109",
    "created_at": "10/4/2019 4:32:57 PM",
    "lat": 47.661393,
    "long": -122.347645,
    "timestamp": 1570231977000,
    "description": "Aid Response",
    "entries": 1,
    "neighborhood": "Fremont",
    "neighborhoodGroup": "Lake Union",
    "unitCount": 1,
    "severity": 0,
    "units": "E9",
    "address": "N 45th St / N Phinney Way"
  },
  {
    "id_str": "F190106111",
    "created_at": "10/4/2019 4:32:36 PM",
    "lat": 47.70318,
    "long": -122.328526,
    "timestamp": 1570231956000,
    "description": "Aid Response",
    "entries": 1,
    "neighborhood": "Northgate/Maple Leaf",
    "neighborhoodGroup": "North",
    "unitCount": 1,
    "severity": 0,
    "units": "E39",
    "address": "1st Av Ne / Ne 103rd St"
  },
  {
    "id_str": "F190106107",
    "created_at": "10/4/2019 4:27:40 PM",
    "lat": 47.546215,
    "long": -122.375056,
    "timestamp": 1570231660000,
    "description": "Auto Fire Alarm",
    "entries": 1,
    "neighborhood": "High Point",
    "neighborhoodGroup": "Delridge Neighborhoods",
    "unitCount": 2,
    "severity": 0,
    "units": "E32 L11",
    "address": "6339 34th Av Sw"
  },
  {
    "id_str": "F190106104",
    "created_at": "10/4/2019 4:12:20 PM",
    "lat": 47.605225,
    "long": -122.32075,
    "timestamp": 1570230740000,
    "description": "Medic Response",
    "entries": 2,
    "neighborhood": "First Hill",
    "neighborhoodGroup": "East",
    "unitCount": 3,
    "severity": 0,
    "units": "A25 M10 M17",
    "address": "401 Broadway"
  },
  {
    "id_str": "F190106103",
    "created_at": "10/4/2019 4:08:16 PM",
    "lat": 47.553398,
    "long": -122.278346,
    "timestamp": 1570230496000,
    "description": "Automatic Medical Alarm",
    "entries": 1,
    "neighborhood": "Columbia City",
    "neighborhoodGroup": "Southeast",
    "unitCount": 1,
    "severity": 0,
    "units": "E28",
    "address": "4441 S Brandon St"
  },
  {
    "id_str": "F190106102",
    "created_at": "10/4/2019 4:04:33 PM",
    "lat": 47.507906,
    "long": -122.37081,
    "timestamp": 1570230273000,
    "description": "Aid Response",
    "entries": 1,
    "unitCount": 1,
    "severity": 0,
    "units": "E37",
    "address": "10631 Seola Beach Dr Sw"
  },
  {
    "id_str": "F190106101",
    "created_at": "10/4/2019 3:53:53 PM",
    "lat": 47.60641,
    "long": -122.334739,
    "timestamp": 1570229633000,
    "description": "Aid Response",
    "entries": 1,
    "neighborhood": "Downtown Commercial Core",
    "neighborhoodGroup": "Downtown",
    "unitCount": 1,
    "severity": 0,
    "units": "A5",
    "address": "1111 3rd Av"
  },
  {
    "id_str": "F190106099",
    "created_at": "10/4/2019 3:52:31 PM",
    "lat": 47.692039,
    "long": -122.349929,
    "timestamp": 1570229551000,
    "description": "Medic Response",
    "entries": 2,
    "neighborhood": "Licton Springs",
    "neighborhoodGroup": "Northwest",
    "unitCount": 2,
    "severity": 0,
    "units": "A31 M31",
    "address": "8635 Fremont Av N"
  },
  {
    "id_str": "F190106100",
    "created_at": "10/4/2019 3:52:28 PM",
    "lat": 47.591635,
    "long": -122.298489,
    "timestamp": 1570229548000,
    "description": "Medic Response, 7 per Rule",
    "entries": 2,
    "neighborhood": "Mt. Baker/North Rainier",
    "neighborhoodGroup": "Southeast",
    "unitCount": 3,
    "severity": 0,
    "units": "E6 L3 M1",
    "address": "1321 26th Av S"
  },
  {
    "id_str": "F190106098",
    "created_at": "10/4/2019 3:51:09 PM",
    "lat": 47.673982,
    "long": -122.285805,
    "timestamp": 1570229469000,
    "description": "Medic Response",
    "entries": 1,
    "neighborhood": "Ravenna/Bryant",
    "neighborhoodGroup": "Northeast",
    "unitCount": 2,
    "severity": 0,
    "units": "E38 M17",
    "address": "6203 39th Av Ne"
  },
  {
    "id_str": "F190106097",
    "created_at": "10/4/2019 3:49:51 PM",
    "lat": 47.626322,
    "long": -122.348863,
    "timestamp": 1570229391000,
    "description": "Aid Response",
    "entries": 1,
    "neighborhood": "Queen Anne",
    "neighborhoodGroup": "Magnolia/Queen Anne",
    "unitCount": 1,
    "severity": 0,
    "units": "A4",
    "address": "805 4th Av N"
  },
  {
    "id_str": "F190106096",
    "created_at": "10/4/2019 3:43:11 PM",
    "lat": 47.572475,
    "long": -122.289911,
    "timestamp": 1570228991000,
    "description": "Aid Response",
    "entries": 1,
    "neighborhood": "Mt. Baker/North Rainier",
    "neighborhoodGroup": "Southeast",
    "unitCount": 1,
    "severity": 0,
    "units": "E30",
    "address": "S Hinds St / 34th Av S"
  },
  {
    "id_str": "F190106095",
    "created_at": "10/4/2019 3:41:12 PM",
    "lat": 47.57931,
    "long": -122.386621,
    "timestamp": 1570228872000,
    "description": "Aid Response",
    "entries": 1,
    "neighborhood": "West Seattle Junction/Genesee Hill",
    "neighborhoodGroup": "Southwest",
    "unitCount": 1,
    "severity": 0,
    "units": "E29",
    "address": "2700 California Av Sw"
  },
  {
    "id_str": "F190106094",
    "created_at": "10/4/2019 3:37:27 PM",
    "lat": 47.597492,
    "long": -122.31276,
    "timestamp": 1570228647000,
    "description": "Aid Response",
    "entries": 1,
    "neighborhood": "Judkins Park",
    "neighborhoodGroup": "Central",
    "unitCount": 1,
    "severity": 0,
    "units": "E6",
    "address": "Rainier Av S / S Weller St"
  },
  {
    "id_str": "F190106093",
    "created_at": "10/4/2019 3:24:42 PM",
    "lat": 47.61692,
    "long": -122.307407,
    "timestamp": 1570227882000,
    "description": "Aid Response Yellow",
    "entries": 1,
    "neighborhood": "Central Area/Squire Park",
    "neighborhoodGroup": "Central",
    "unitCount": 1,
    "severity": 0,
    "units": "E34",
    "address": "1722 19th Av"
  },
  {
    "id_str": "F190106090",
    "created_at": "10/4/2019 3:10:36 PM",
    "lat": 47.568791,
    "long": -122.37075,
    "timestamp": 1570227036000,
    "description": "Auto Fire Alarm",
    "entries": 1,
    "neighborhood": "North Delridge",
    "neighborhoodGroup": "Delridge Neighborhoods",
    "unitCount": 2,
    "severity": 0,
    "units": "E36 L11",
    "address": "2970 Sw Avalon Way"
  },
  {
    "id_str": "F190106089",
    "created_at": "10/4/2019 3:08:39 PM",
    "lat": 47.726864,
    "long": -122.348012,
    "timestamp": 1570226919000,
    "description": "Auto Fire Alarm",
    "entries": 1,
    "neighborhood": "Broadview/Bitter Lake",
    "neighborhoodGroup": "Northwest",
    "unitCount": 2,
    "severity": 0,
    "units": "E35 L9",
    "address": "747 N 135th St"
  },
  {
    "id_str": "F190106088",
    "created_at": "10/4/2019 3:07:48 PM",
    "lat": 47.655367,
    "long": -122.314358,
    "timestamp": 1570226868000,
    "description": "Aid Response",
    "entries": 1,
    "neighborhood": "University District",
    "neighborhoodGroup": "Northeast",
    "unitCount": 1,
    "severity": 0,
    "units": "E17",
    "address": "1307 Ne 40th St"
  },
  {
    "id_str": "F190106087",
    "created_at": "10/4/2019 3:07:16 PM",
    "lat": 47.708663,
    "long": -122.333993,
    "timestamp": 1570226836000,
    "description": "Aid Response",
    "entries": 1,
    "neighborhood": "Northgate/Maple Leaf",
    "neighborhoodGroup": "North",
    "unitCount": 1,
    "severity": 0,
    "units": "A31",
    "address": "2100 N Northgate Way"
  },
  {
    "id_str": "F190106086",
    "created_at": "10/4/2019 3:02:56 PM",
    "lat": 47.608622,
    "long": -122.320756,
    "timestamp": 1570226576000,
    "description": "Medic Response",
    "entries": 2,
    "neighborhood": "First Hill",
    "neighborhoodGroup": "East",
    "unitCount": 3,
    "severity": 0,
    "units": "L10 M10 M17",
    "address": "747 Broadway"
  },
  {
    "id_str": "F190106085",
    "created_at": "10/4/2019 3:01:05 PM",
    "lat": 47.63627,
    "long": -122.388135,
    "timestamp": 1570226465000,
    "description": "Aid Response",
    "entries": 1,
    "neighborhood": "Interbay",
    "neighborhoodGroup": "Magnolia/Queen Anne",
    "unitCount": 1,
    "severity": 0,
    "units": "E41",
    "address": "2348 W Plymouth St"
  },
  {
    "id_str": "F190106084",
    "created_at": "10/4/2019 3:01:03 PM",
    "lat": 47.583661,
    "long": -122.329054,
    "timestamp": 1570226463000,
    "description": "4RED - 2 + 1 + 1",
    "entries": 1,
    "neighborhood": "Duwamish/SODO",
    "neighborhoodGroup": "Greater Duwamish",
    "unitCount": 4,
    "severity": 0,
    "units": "B5 E10 E5 L1",
    "address": "2230 4th Av S"
  },
  {
    "id_str": "F190106083",
    "created_at": "10/4/2019 3:00:58 PM",
    "lat": 47.599206,
    "long": -122.334781,
    "timestamp": 1570226458000,
    "description": "Aid Response Yellow",
    "entries": 1,
    "neighborhood": "Duwamish/SODO",
    "neighborhoodGroup": "Greater Duwamish",
    "unitCount": 1,
    "severity": 0,
    "units": "A10",
    "address": "80 S Jackson St"
  },
  {
    "id_str": "F190106082",
    "created_at": "10/4/2019 2:55:25 PM",
    "lat": 47.571233,
    "long": -122.291003,
    "timestamp": 1570226125000,
    "description": "Aid Response",
    "entries": 1,
    "neighborhood": "Columbia City",
    "neighborhoodGroup": "Southeast",
    "unitCount": 1,
    "severity": 0,
    "units": "E30",
    "address": "3642 33rd Av S"
  },
  {
    "id_str": "F190106080",
    "created_at": "10/4/2019 2:52:04 PM",
    "lat": 47.607266,
    "long": -122.332451,
    "timestamp": 1570225924000,
    "description": "Aid Response",
    "entries": 1,
    "neighborhood": "Downtown Commercial Core",
    "neighborhoodGroup": "Downtown",
    "unitCount": 1,
    "severity": 0,
    "units": "A5",
    "address": "5th Av / Spring St"
  },
  {
    "id_str": "F190106079",
    "created_at": "10/4/2019 2:42:03 PM",
    "lat": 47.708425,
    "long": -122.301199,
    "timestamp": 1570225323000,
    "description": "Aid Response",
    "entries": 1,
    "neighborhood": "Cedar Park/Meadowbrook",
    "neighborhoodGroup": "North",
    "unitCount": 1,
    "severity": 0,
    "units": "E39",
    "address": "2516 Ne 110th St"
  },
  {
    "id_str": "F190106078",
    "created_at": "10/4/2019 2:41:08 PM",
    "lat": 47.624578,
    "long": -122.355404,
    "timestamp": 1570225268000,
    "description": "Medic Response",
    "entries": 2,
    "neighborhood": "Queen Anne",
    "neighborhoodGroup": "Magnolia/Queen Anne",
    "unitCount": 3,
    "severity": 0,
    "units": "E8 L6 M10",
    "address": "600 1st Av N"
  },
  {
    "id_str": "F190106076",
    "created_at": "10/4/2019 2:39:46 PM",
    "lat": 47.599993,
    "long": -122.314135,
    "timestamp": 1570225186000,
    "description": "Medic Response",
    "entries": 2,
    "neighborhood": "Judkins Park",
    "neighborhoodGroup": "Central",
    "unitCount": 2,
    "severity": 0,
    "units": "E6 M28",
    "address": "302 14th Av S"
  },
  {
    "id_str": "F190106077",
    "created_at": "10/4/2019 2:39:24 PM",
    "lat": 47.606224,
    "long": -122.296778,
    "timestamp": 1570225164000,
    "description": "Scenes Of Violence 7",
    "entries": 1,
    "neighborhood": "Central Area/Squire Park",
    "neighborhoodGroup": "Central",
    "unitCount": 5,
    "severity": 1,
    "units": "A10 B2 E25 M28 M44",
    "address": "504 M L KING JR WAY"
  },
  {
    "id_str": "F190106075",
    "created_at": "10/4/2019 2:36:38 PM",
    "lat": 47.626215,
    "long": -122.329199,
    "timestamp": 1570224998000,
    "description": "Medic Response",
    "entries": 1,
    "neighborhood": "Cascade/Eastlake",
    "neighborhoodGroup": "Lake Union",
    "unitCount": 2,
    "severity": 0,
    "units": "A4 M1",
    "address": "825 Eastlake Av E"
  },
  {
    "id_str": "F190106074",
    "created_at": "10/4/2019 2:34:34 PM",
    "lat": 47.611256,
    "long": -122.34293,
    "timestamp": 1570224874000,
    "description": "Auto Fire Alarm",
    "entries": 1,
    "neighborhood": "Belltown",
    "neighborhoodGroup": "Downtown",
    "unitCount": 2,
    "severity": 0,
    "units": "E5 L4",
    "address": "2025 1st Av"
  },
  {
    "id_str": "F190106073",
    "created_at": "10/4/2019 2:34:00 PM",
    "lat": 47.664901,
    "long": -122.313074,
    "timestamp": 1570224840000,
    "description": "Aid Response",
    "entries": 1,
    "neighborhood": "University District",
    "neighborhoodGroup": "Northeast",
    "unitCount": 1,
    "severity": 0,
    "units": "L9",
    "address": "Ne 50th St / University Way Ne"
  },
  {
    "id_str": "F190106072",
    "created_at": "10/4/2019 2:33:27 PM",
    "lat": 47.618693,
    "long": -122.342401,
    "timestamp": 1570224807000,
    "description": "Electrical Problem",
    "entries": 1,
    "neighborhood": "Cascade/Eastlake",
    "neighborhoodGroup": "Lake Union",
    "unitCount": 1,
    "severity": 0,
    "units": "E2",
    "address": "113 Dexter Av N"
  },
  {
    "id_str": "F190106071",
    "created_at": "10/4/2019 2:31:15 PM",
    "lat": 47.661597,
    "long": -122.327247,
    "timestamp": 1570224675000,
    "description": "Aid Response",
    "entries": 1,
    "neighborhood": "Wallingford",
    "neighborhoodGroup": "Lake Union",
    "unitCount": 1,
    "severity": 0,
    "units": "E31",
    "address": "4520 2nd Av Ne"
  },
  {
    "id_str": "F190106070",
    "created_at": "10/4/2019 2:29:25 PM",
    "lat": 47.529457,
    "long": -122.269988,
    "timestamp": 1570224565000,
    "description": "Aid Response",
    "entries": 1,
    "neighborhood": "Rainier Beach",
    "neighborhoodGroup": "Southeast",
    "unitCount": 1,
    "severity": 0,
    "units": "E33",
    "address": "8318 RAINIER AV S"
  },
  {
    "id_str": "F190106069",
    "created_at": "10/4/2019 2:24:03 PM",
    "lat": 47.703486,
    "long": -122.333907,
    "timestamp": 1570224243000,
    "description": "1RED 1 Unit",
    "entries": 1,
    "neighborhood": "Northgate/Maple Leaf",
    "neighborhoodGroup": "North",
    "unitCount": 1,
    "severity": 0,
    "units": "E16",
    "address": "10330 Meridian Av N"
  },
  {
    "id_str": "F190106067",
    "created_at": "10/4/2019 2:21:35 PM",
    "lat": 47.719678,
    "long": -122.36772,
    "timestamp": 1570224095000,
    "description": "Rescue Extrication",
    "entries": 2,
    "neighborhood": "Broadview/Bitter Lake",
    "neighborhoodGroup": "Northwest",
    "unitCount": 11,
    "severity": 2,
    "units": "A14 A2 B4 B6 E24 E35 L5 M31 M44 R1 SAFT2",
    "address": "9th Av Nw / Nw 125th St"
  },
  {
    "id_str": "F190106065",
    "created_at": "10/4/2019 2:12:40 PM",
    "lat": 47.708414,
    "long": -122.299074,
    "timestamp": 1570223560000,
    "description": "Aid Response",
    "entries": 1,
    "neighborhood": "Cedar Park/Meadowbrook",
    "neighborhoodGroup": "North",
    "unitCount": 1,
    "severity": 0,
    "units": "E39",
    "address": "2723 Ne 110th St"
  },
  {
    "id_str": "F190106064",
    "created_at": "10/4/2019 2:05:07 PM",
    "lat": 47.599195,
    "long": -122.327667,
    "timestamp": 1570223107000,
    "description": "Aid Response",
    "entries": 1,
    "neighborhood": "Pioneer Square/International District",
    "neighborhoodGroup": "Downtown",
    "unitCount": 1,
    "severity": 0,
    "units": "A5",
    "address": "5th Av S / S Jackson St"
  },
  {
    "id_str": "F190106063",
    "created_at": "10/4/2019 2:01:08 PM",
    "lat": 47.667604,
    "long": -122.380468,
    "timestamp": 1570222868000,
    "description": "Medic Response",
    "entries": 1,
    "neighborhood": "Ballard",
    "neighborhoodGroup": "Ballard",
    "unitCount": 2,
    "severity": 0,
    "units": "E18 M18",
    "address": "5350 Tallman Av Nw"
  },
  {
    "id_str": "F190106062",
    "created_at": "10/4/2019 2:01:05 PM",
    "lat": 47.620954,
    "long": -122.307342,
    "timestamp": 1570222865000,
    "description": "Aid Response",
    "entries": 1,
    "neighborhood": "Miller Park",
    "neighborhoodGroup": "East",
    "unitCount": 1,
    "severity": 0,
    "units": "E25",
    "address": "330 19th Av E"
  },
  {
    "id_str": "F190106061",
    "created_at": "10/4/2019 2:00:01 PM",
    "lat": 47.588027,
    "long": -122.386277,
    "timestamp": 1570222801000,
    "description": "Aid Response",
    "entries": 1,
    "neighborhood": "Alki/Admiral",
    "neighborhoodGroup": "Southwest",
    "unitCount": 1,
    "severity": 0,
    "units": "E29",
    "address": "1703 California Av Sw"
  },
  {
    "id_str": "F190106059",
    "created_at": "10/4/2019 1:53:56 PM",
    "lat": 47.728577,
    "long": -122.290962,
    "timestamp": 1570222436000,
    "description": "Aid Response",
    "entries": 1,
    "neighborhood": "Cedar Park/Meadowbrook",
    "neighborhoodGroup": "North",
    "unitCount": 1,
    "severity": 0,
    "units": "A31",
    "address": "13749 35th Av Ne"
  },
  {
    "id_str": "F190106058",
    "created_at": "10/4/2019 1:53:34 PM",
    "lat": 47.56273,
    "long": -122.294698,
    "timestamp": 1570222414000,
    "description": "Medic Response",
    "entries": 1,
    "neighborhood": "North Beacon Hill/Jefferson Park",
    "neighborhoodGroup": "Greater Duwamish",
    "unitCount": 2,
    "severity": 0,
    "units": "E30 M28",
    "address": "4515 M L King Jr Way S"
  },
  {
    "id_str": "F190106055",
    "created_at": "10/4/2019 1:47:54 PM",
    "lat": 47.608081,
    "long": -122.339337,
    "timestamp": 1570222074000,
    "description": "Aid Response",
    "entries": 1,
    "neighborhood": "Downtown Commercial Core",
    "neighborhoodGroup": "Downtown",
    "unitCount": 1,
    "severity": 0,
    "units": "A10",
    "address": "1426 1st Av"
  },
  {
    "id_str": "F190106054",
    "created_at": "10/4/2019 1:46:10 PM",
    "lat": 47.61123,
    "long": -122.325334,
    "timestamp": 1570221970000,
    "description": "Aid Response",
    "entries": 1,
    "neighborhood": "First Hill",
    "neighborhoodGroup": "East",
    "unitCount": 1,
    "severity": 0,
    "units": "E25",
    "address": "Minor Av / Seneca St"
  },
  {
    "id_str": "F190106053",
    "created_at": "10/4/2019 1:45:04 PM",
    "lat": 47.519849,
    "long": -122.267364,
    "timestamp": 1570221904000,
    "description": "Aid Response",
    "entries": 1,
    "neighborhood": "Rainier Beach",
    "neighborhoodGroup": "Southeast",
    "unitCount": 1,
    "severity": 0,
    "units": "E33",
    "address": "Rainier Av S / 52nd Av S"
  },
  {
    "id_str": "F190106050",
    "created_at": "10/4/2019 1:39:47 PM",
    "lat": 47.599195,
    "long": -122.327667,
    "timestamp": 1570221587000,
    "description": "Aid Response",
    "entries": 1,
    "neighborhood": "Pioneer Square/International District",
    "neighborhoodGroup": "Downtown",
    "unitCount": 1,
    "severity": 0,
    "units": "A5",
    "address": "5th Av S / S Jackson St"
  },
  {
    "id_str": "F190106049",
    "created_at": "10/4/2019 1:28:55 PM",
    "lat": 47.618412,
    "long": -122.355206,
    "timestamp": 1570220935000,
    "description": "Aid Response",
    "entries": 1,
    "neighborhood": "Belltown",
    "neighborhoodGroup": "Downtown",
    "unitCount": 1,
    "severity": 0,
    "units": "E5",
    "address": "94 Bay St"
  },
  {
    "id_str": "F190106047",
    "created_at": "10/4/2019 1:11:15 PM",
    "lat": 47.57763,
    "long": -122.408081,
    "timestamp": 1570219875000,
    "description": "Medic Response",
    "entries": 2,
    "neighborhood": "Alki/Admiral",
    "neighborhoodGroup": "Southwest",
    "unitCount": 3,
    "severity": 0,
    "units": "E29 M10 M32",
    "address": "3010 59th Av Sw"
  },
  {
    "id_str": "F190106045",
    "created_at": "10/4/2019 1:08:07 PM",
    "lat": 47.522618,
    "long": -122.371297,
    "timestamp": 1570219687000,
    "description": "Medic Response",
    "entries": 1,
    "neighborhood": "Roxhill/Westwood",
    "neighborhoodGroup": "Delridge Neighborhoods",
    "unitCount": 2,
    "severity": 0,
    "units": "E37 M32",
    "address": "9026 30th Av Sw"
  },
  {
    "id_str": "F190106044",
    "created_at": "10/4/2019 1:07:31 PM",
    "lat": 47.609165,
    "long": -122.285372,
    "timestamp": 1570219651000,
    "description": "Aid Response",
    "entries": 1,
    "neighborhood": "Madrona/Leschi",
    "neighborhoodGroup": "Central",
    "unitCount": 1,
    "severity": 0,
    "units": "L3",
    "address": "3714 E Columbia St"
  },
  {
    "id_str": "F190106040",
    "created_at": "10/4/2019 12:51:12 PM",
    "lat": 47.708899,
    "long": -122.320568,
    "timestamp": 1570218672000,
    "description": "Medic Response",
    "entries": 1,
    "neighborhood": "Northgate/Maple Leaf",
    "neighborhoodGroup": "North",
    "unitCount": 2,
    "severity": 0,
    "units": "A31 M17",
    "address": "11045 8th Av Ne"
  },
  {
    "id_str": "F190106039",
    "created_at": "10/4/2019 12:49:42 PM",
    "lat": 47.644979,
    "long": -122.390244,
    "timestamp": 1570218582000,
    "description": "Aid Response",
    "entries": 1,
    "neighborhood": "Interbay",
    "neighborhoodGroup": "Magnolia/Queen Anne",
    "unitCount": 1,
    "severity": 0,
    "units": "E41",
    "address": "2833 26th Av W"
  },
  {
    "id_str": "F190106038",
    "created_at": "10/4/2019 12:49:24 PM",
    "lat": 47.609389,
    "long": -122.338655,
    "timestamp": 1570218564000,
    "description": "Aid Response",
    "entries": 1,
    "neighborhood": "Downtown Commercial Core",
    "neighborhoodGroup": "Downtown",
    "unitCount": 1,
    "severity": 0,
    "units": "A2",
    "address": "222 Pike St"
  },
  {
    "id_str": "F190106036",
    "created_at": "10/4/2019 12:39:55 PM",
    "lat": 47.610214,
    "long": -122.336683,
    "timestamp": 1570217995000,
    "description": "Aid Response",
    "entries": 1,
    "neighborhood": "Downtown Commercial Core",
    "neighborhoodGroup": "Downtown",
    "unitCount": 1,
    "severity": 0,
    "units": "A4",
    "address": "4th Av / Pike St"
  },
  {
    "id_str": "F190106035",
    "created_at": "10/4/2019 12:35:17 PM",
    "lat": 47.638695,
    "long": -122.376149,
    "timestamp": 1570217717000,
    "description": "Aid Response",
    "entries": 1,
    "neighborhood": "Interbay",
    "neighborhoodGroup": "Magnolia/Queen Anne",
    "unitCount": 1,
    "severity": 0,
    "units": "E8",
    "address": "2208 15th Av W"
  },
  {
    "id_str": "F190106032",
    "created_at": "10/4/2019 12:25:38 PM",
    "lat": 47.61055,
    "long": -122.329318,
    "timestamp": 1570217138000,
    "description": "Aid Response",
    "entries": 1,
    "neighborhood": "First Hill",
    "neighborhoodGroup": "East",
    "unitCount": 1,
    "severity": 0,
    "units": "A10",
    "address": "900 University St"
  },
  {
    "id_str": "F190106031",
    "created_at": "10/4/2019 12:18:56 PM",
    "lat": 47.664928,
    "long": -122.316335,
    "timestamp": 1570216736000,
    "description": "Aid Response",
    "entries": 1,
    "neighborhood": "University District",
    "neighborhoodGroup": "Northeast",
    "unitCount": 1,
    "severity": 0,
    "units": "E17",
    "address": "11th Av Ne / Ne 50th St"
  },
  {
    "id_str": "F190106030",
    "created_at": "10/4/2019 12:17:35 PM",
    "lat": 47.712312,
    "long": -122.342124,
    "timestamp": 1570216655000,
    "description": "Aid Response",
    "entries": 1,
    "neighborhood": "Haller Lake",
    "neighborhoodGroup": "Northwest",
    "unitCount": 1,
    "severity": 0,
    "units": "A31",
    "address": "11500 Stone Av N"
  },
  {
    "id_str": "F190106029",
    "created_at": "10/4/2019 12:16:57 PM",
    "lat": 47.548241,
    "long": -122.276873,
    "timestamp": 1570216617000,
    "description": "Aid Response",
    "entries": 1,
    "neighborhood": "Columbia City",
    "neighborhoodGroup": "Southeast",
    "unitCount": 1,
    "severity": 0,
    "units": "L12",
    "address": "6020 Rainier Av S"
  },
  {
    "id_str": "F190106028",
    "created_at": "10/4/2019 12:12:57 PM",
    "lat": 47.715826,
    "long": -122.312557,
    "timestamp": 1570216377000,
    "description": "Aid Response",
    "entries": 1,
    "neighborhood": "Olympic Hills/Victory Heights",
    "neighborhoodGroup": "North",
    "unitCount": 1,
    "severity": 0,
    "units": "E39",
    "address": "12007 15th Av Ne"
  },
  {
    "id_str": "F190106027",
    "created_at": "10/4/2019 12:01:52 PM",
    "lat": 47.726864,
    "long": -122.348012,
    "timestamp": 1570215712000,
    "description": "Aid Response Yellow",
    "entries": 1,
    "neighborhood": "Broadview/Bitter Lake",
    "neighborhoodGroup": "Northwest",
    "unitCount": 1,
    "severity": 0,
    "units": "E24",
    "address": "747 N 135th St"
  },
  {
    "id_str": "F190106026",
    "created_at": "10/4/2019 12:00:25 PM",
    "lat": 47.563242,
    "long": -122.312741,
    "timestamp": 1570215625000,
    "description": "Aid Response",
    "entries": 1,
    "neighborhood": "North Beacon Hill/Jefferson Park",
    "neighborhoodGroup": "Greater Duwamish",
    "unitCount": 1,
    "severity": 0,
    "units": "E13",
    "address": "1600 S Columbian Way"
  },
  {
    "id_str": "F190106025",
    "created_at": "10/4/2019 11:58:07 AM",
    "lat": 47.6126,
    "long": -122.334262,
    "timestamp": 1570215487000,
    "description": "Aid Response",
    "entries": 1,
    "neighborhood": "First Hill",
    "neighborhoodGroup": "East",
    "unitCount": 1,
    "severity": 0,
    "units": "A25",
    "address": "700 Pine St"
  },
  {
    "id_str": "F190106023",
    "created_at": "10/4/2019 11:54:02 AM",
    "lat": 47.618002,
    "long": -122.329182,
    "timestamp": 1570215242000,
    "description": "Aid Response Yellow",
    "entries": 1,
    "neighborhood": "Cascade/Eastlake",
    "neighborhoodGroup": "Lake Union",
    "unitCount": 1,
    "severity": 0,
    "units": "A2",
    "address": "1811 Eastlake Av"
  },
  {
    "id_str": "F190106022",
    "created_at": "10/4/2019 11:48:57 AM",
    "lat": 47.610972,
    "long": -122.340465,
    "timestamp": 1570214937000,
    "description": "Aid Response",
    "entries": 1,
    "neighborhood": "Belltown",
    "neighborhoodGroup": "Downtown",
    "unitCount": 1,
    "severity": 0,
    "units": "A4",
    "address": "1902 2nd Av"
  },
  {
    "id_str": "F190106021",
    "created_at": "10/4/2019 11:46:58 AM",
    "lat": 47.521023,
    "long": -122.364548,
    "timestamp": 1570214818000,
    "description": "Medic Response",
    "entries": 2,
    "neighborhood": "Roxhill/Westwood",
    "neighborhoodGroup": "Delridge Neighborhoods",
    "unitCount": 2,
    "severity": 0,
    "units": "E11 M32",
    "address": "2500 Sw Barton St"
  },
  {
    "id_str": "F190106019",
    "created_at": "10/4/2019 11:39:56 AM",
    "lat": 47.636719,
    "long": -122.376141,
    "timestamp": 1570214396000,
    "description": "Aid Response",
    "entries": 1,
    "neighborhood": "Interbay",
    "neighborhoodGroup": "Magnolia/Queen Anne",
    "unitCount": 1,
    "severity": 0,
    "units": "E2",
    "address": "W Newton St / 15th Av W"
  },
  {
    "id_str": "F190106018",
    "created_at": "10/4/2019 11:33:32 AM",
    "lat": 47.613247,
    "long": -122.327187,
    "timestamp": 1570214012000,
    "description": "Aid Response",
    "entries": 1,
    "neighborhood": "Capitol Hill",
    "neighborhoodGroup": "East",
    "unitCount": 1,
    "severity": 0,
    "units": "E25",
    "address": "1431 Minor Av"
  },
  {
    "id_str": "F190106017",
    "created_at": "10/4/2019 11:28:31 AM",
    "lat": 47.609389,
    "long": -122.338655,
    "timestamp": 1570213711000,
    "description": "Aid Response",
    "entries": 1,
    "neighborhood": "Downtown Commercial Core",
    "neighborhoodGroup": "Downtown",
    "unitCount": 1,
    "severity": 0,
    "units": "A2",
    "address": "222 Pike St"
  },
  {
    "id_str": "F190106016",
    "created_at": "10/4/2019 11:20:59 AM",
    "lat": 47.612071,
    "long": -122.332244,
    "timestamp": 1570213259000,
    "description": "Aid Response",
    "entries": 1,
    "neighborhood": "First Hill",
    "neighborhoodGroup": "East",
    "unitCount": 1,
    "severity": 0,
    "units": "A4",
    "address": "8th Av / Pike St"
  },
  {
    "id_str": "F190106015",
    "created_at": "10/4/2019 11:20:15 AM",
    "lat": 47.59745,
    "long": -122.317227,
    "timestamp": 1570213215000,
    "description": "Aid Response",
    "entries": 1,
    "neighborhood": "Pioneer Square/International District",
    "neighborhoodGroup": "Downtown",
    "unitCount": 1,
    "severity": 0,
    "units": "L3",
    "address": "606 12th Av S"
  },
  {
    "id_str": "F190106014",
    "created_at": "10/4/2019 11:19:53 AM",
    "lat": 47.626322,
    "long": -122.348863,
    "timestamp": 1570213193000,
    "description": "Aid Response",
    "entries": 1,
    "neighborhood": "Queen Anne",
    "neighborhoodGroup": "Magnolia/Queen Anne",
    "unitCount": 1,
    "severity": 0,
    "units": "E8",
    "address": "805 4th Av N"
  },
  {
    "id_str": "F190106011",
    "created_at": "10/4/2019 11:13:31 AM",
    "lat": 47.652652,
    "long": -122.303049,
    "timestamp": 1570212811000,
    "description": "Medic Response",
    "entries": 3,
    "neighborhood": "University District",
    "neighborhoodGroup": "Northeast",
    "unitCount": 3,
    "severity": 0,
    "units": "E17 L9 M18",
    "address": "3924 Montlake Blvd Ne"
  },
  {
    "id_str": "F190106010",
    "created_at": "10/4/2019 11:12:22 AM",
    "lat": 47.617267,
    "long": -122.339208,
    "timestamp": 1570212742000,
    "description": "Auto Fire Alarm",
    "entries": 1,
    "neighborhood": "Cascade/Eastlake",
    "neighborhoodGroup": "Lake Union",
    "unitCount": 2,
    "severity": 0,
    "units": "E2 L4",
    "address": "2202 8th Av"
  },
  {
    "id_str": "F190106009",
    "created_at": "10/4/2019 11:10:15 AM",
    "lat": 47.607742,
    "long": -122.326595,
    "timestamp": 1570212615000,
    "description": "Medic Response",
    "entries": 1,
    "neighborhood": "First Hill",
    "neighborhoodGroup": "East",
    "unitCount": 2,
    "severity": 0,
    "units": "A25 M1",
    "address": "910 Marion St"
  },
  {
    "id_str": "F190106008",
    "created_at": "10/4/2019 11:08:22 AM",
    "lat": 47.540318,
    "long": -122.282693,
    "timestamp": 1570212502000,
    "description": "Aid Response",
    "entries": 1,
    "neighborhood": "South Beacon Hill/NewHolly",
    "neighborhoodGroup": "Greater Duwamish",
    "unitCount": 1,
    "severity": 0,
    "units": "E28",
    "address": "6940 M L King Jr Way S"
  },
  {
    "id_str": "F190106007",
    "created_at": "10/4/2019 11:07:19 AM",
    "lat": 47.602985,
    "long": -122.328535,
    "timestamp": 1570212439000,
    "description": "Medic Response",
    "entries": 2,
    "neighborhood": "First Hill",
    "neighborhoodGroup": "East",
    "unitCount": 2,
    "severity": 0,
    "units": "A5 M10",
    "address": "500 5th Av"
  },
  {
    "id_str": "F190106006",
    "created_at": "10/4/2019 11:06:19 AM",
    "lat": 47.701329,
    "long": -122.323684,
    "timestamp": 1570212379000,
    "description": "Aid Response",
    "entries": 1,
    "neighborhood": "Northgate/Maple Leaf",
    "neighborhoodGroup": "North",
    "unitCount": 1,
    "severity": 0,
    "units": "E21",
    "address": "450 Ne 100th St"
  },
  {
    "id_str": "F190106005",
    "created_at": "10/4/2019 11:03:34 AM",
    "lat": 47.521022,
    "long": -122.365894,
    "timestamp": 1570212214000,
    "description": "Aid Response",
    "entries": 1,
    "neighborhood": "Roxhill/Westwood",
    "neighborhoodGroup": "Delridge Neighborhoods",
    "unitCount": 1,
    "severity": 0,
    "units": "E37",
    "address": "2600 Sw Barton St"
  },
  {
    "id_str": "F190106004",
    "created_at": "10/4/2019 11:03:29 AM",
    "lat": 47.699872,
    "long": -122.324247,
    "timestamp": 1570212209000,
    "description": "Medic Response",
    "entries": 1,
    "neighborhood": "Northgate/Maple Leaf",
    "neighborhoodGroup": "North",
    "unitCount": 2,
    "severity": 0,
    "units": "E31 M17",
    "address": "9800 4th Av Ne"
  },
  {
    "id_str": "F190106003",
    "created_at": "10/4/2019 10:53:27 AM",
    "lat": 47.558264,
    "long": -122.317964,
    "timestamp": 1570211607000,
    "description": "Aid Response",
    "entries": 1,
    "neighborhood": "Beacon Hill",
    "neighborhoodGroup": "Greater Duwamish",
    "unitCount": 1,
    "severity": 0,
    "units": "E13",
    "address": "4925 Corson Av S"
  },
  {
    "id_str": "F190106002",
    "created_at": "10/4/2019 10:45:00 AM",
    "lat": 47.702644,
    "long": -122.328519,
    "timestamp": 1570211100000,
    "description": "Aid Response",
    "entries": 1,
    "neighborhood": "Northgate/Maple Leaf",
    "neighborhoodGroup": "North",
    "unitCount": 1,
    "severity": 0,
    "units": "E31",
    "address": "10211 1st Av Ne"
  },
  {
    "id_str": "F190106000",
    "created_at": "10/4/2019 10:30:42 AM",
    "lat": 47.723436,
    "long": -122.355547,
    "timestamp": 1570210242000,
    "description": "Aid Response",
    "entries": 2,
    "neighborhood": "Broadview/Bitter Lake",
    "neighborhoodGroup": "Northwest",
    "unitCount": 2,
    "severity": 0,
    "units": "A31 E24",
    "address": "13023 Greenwood Av N"
  },
  {
    "id_str": "F190105998",
    "created_at": "10/4/2019 10:25:40 AM",
    "lat": 47.609902,
    "long": -122.323791,
    "timestamp": 1570209940000,
    "description": "Medic Response",
    "entries": 2,
    "neighborhood": "Capitol Hill",
    "neighborhoodGroup": "East",
    "unitCount": 2,
    "severity": 0,
    "units": "A25 M10",
    "address": "1221 Madison St"
  },
  {
    "id_str": "F190105997",
    "created_at": "10/4/2019 10:22:29 AM",
    "lat": 47.588225,
    "long": -122.321391,
    "timestamp": 1570209749000,
    "description": "Medic Response",
    "entries": 1,
    "neighborhood": "Duwamish/SODO",
    "neighborhoodGroup": "Greater Duwamish",
    "unitCount": 2,
    "severity": 0,
    "units": "A14 M1",
    "address": "1700 Airport Way S"
  },
  {
    "id_str": "F190105996",
    "created_at": "10/4/2019 10:21:36 AM",
    "lat": 47.558264,
    "long": -122.317964,
    "timestamp": 1570209696000,
    "description": "Aid Response",
    "entries": 1,
    "neighborhood": "Beacon Hill",
    "neighborhoodGroup": "Greater Duwamish",
    "unitCount": 1,
    "severity": 0,
    "units": "E13",
    "address": "4925 Corson Av S"
  },
  {
    "id_str": "F190105995",
    "created_at": "10/4/2019 10:14:57 AM",
    "lat": 47.636719,
    "long": -122.376141,
    "timestamp": 1570209297000,
    "description": "Aid Response",
    "entries": 1,
    "neighborhood": "Interbay",
    "neighborhoodGroup": "Magnolia/Queen Anne",
    "unitCount": 1,
    "severity": 0,
    "units": "E20",
    "address": "2001 15th Av W"
  },
  {
    "id_str": "F190105994",
    "created_at": "10/4/2019 10:11:44 AM",
    "lat": 47.613418,
    "long": -122.342618,
    "timestamp": 1570209104000,
    "description": "Aid Response",
    "entries": 1,
    "neighborhood": "Cascade/Eastlake",
    "neighborhoodGroup": "Lake Union",
    "unitCount": 1,
    "severity": 0,
    "units": "A4",
    "address": "2133 3rd Av"
  },
  {
    "id_str": "F190105993",
    "created_at": "10/4/2019 10:09:35 AM",
    "lat": 47.569608,
    "long": -122.290486,
    "timestamp": 1570208975000,
    "description": "Aid Response",
    "entries": 1,
    "neighborhood": "Columbia City",
    "neighborhoodGroup": "Southeast",
    "unitCount": 1,
    "severity": 0,
    "units": "E30",
    "address": "3820 Rainier Av S"
  },
  {
    "id_str": "F190105992",
    "created_at": "10/4/2019 10:05:18 AM",
    "lat": 47.545872,
    "long": -122.394342,
    "timestamp": 1570208718000,
    "description": "Investigate Out Of Service",
    "entries": 1,
    "neighborhood": "Fauntleroy/Seaview",
    "neighborhoodGroup": "Southwest",
    "unitCount": 1,
    "severity": 0,
    "units": "E32",
    "address": "48th Av Sw / Sw Eddy St"
  },
  {
    "id_str": "F190105988",
    "created_at": "10/4/2019 9:54:49 AM",
    "lat": 47.520451,
    "long": -122.336003,
    "timestamp": 1570208089000,
    "description": "Medic Response",
    "entries": 1,
    "unitCount": 2,
    "severity": 0,
    "units": "E26 M32",
    "address": "9240 2nd Av Sw"
  },
  {
    "id_str": "F190105987",
    "created_at": "10/4/2019 9:52:05 AM",
    "lat": 47.612669,
    "long": -122.345319,
    "timestamp": 1570207925000,
    "description": "Aid Response",
    "entries": 1,
    "neighborhood": "Belltown",
    "neighborhoodGroup": "Downtown",
    "unitCount": 1,
    "severity": 0,
    "units": "A2",
    "address": "2209 1st Av"
  },
  {
    "id_str": "F190105985",
    "created_at": "10/4/2019 9:46:02 AM",
    "lat": 47.66131,
    "long": -122.319403,
    "timestamp": 1570207562000,
    "description": "Aid Response",
    "entries": 1,
    "neighborhood": "Wallingford",
    "neighborhoodGroup": "Lake Union",
    "unitCount": 1,
    "severity": 0,
    "units": "E17",
    "address": "810 Ne 45th St"
  },
  {
    "id_str": "F190105983",
    "created_at": "10/4/2019 9:42:04 AM",
    "lat": 47.601702,
    "long": -122.322098,
    "timestamp": 1570207324000,
    "description": "Aid Response",
    "entries": 1,
    "neighborhood": "First Hill",
    "neighborhoodGroup": "East",
    "unitCount": 1,
    "severity": 0,
    "units": "E5",
    "address": "820 Yesler Way"
  },
  {
    "id_str": "F190105984",
    "created_at": "10/4/2019 9:41:42 AM",
    "lat": 47.52287,
    "long": -122.355296,
    "timestamp": 1570207302000,
    "description": "Aid Response",
    "entries": 1,
    "neighborhood": "Roxhill/Westwood",
    "neighborhoodGroup": "Delridge Neighborhoods",
    "unitCount": 1,
    "severity": 0,
    "units": "E11",
    "address": "1615 Sw Henderson St"
  },
  {
    "id_str": "F190105982",
    "created_at": "10/4/2019 9:39:56 AM",
    "lat": 47.67025,
    "long": -122.384743,
    "timestamp": 1570207196000,
    "description": "Aid Response",
    "entries": 1,
    "neighborhood": "Ballard",
    "neighborhoodGroup": "Ballard",
    "unitCount": 1,
    "severity": 0,
    "units": "E18",
    "address": "5710 22nd Av Nw"
  },
  {
    "id_str": "F190105981",
    "created_at": "10/4/2019 9:39:09 AM",
    "lat": 47.540654,
    "long": -122.286239,
    "timestamp": 1570207149000,
    "description": "Aid Response",
    "entries": 1,
    "neighborhood": "South Beacon Hill/NewHolly",
    "neighborhoodGroup": "Greater Duwamish",
    "unitCount": 1,
    "severity": 0,
    "units": "E28",
    "address": "6900 37th Av S"
  },
  {
    "id_str": "F190105978",
    "created_at": "10/4/2019 9:35:45 AM",
    "lat": 47.725103,
    "long": -122.367427,
    "timestamp": 1570206945000,
    "description": "Medic Response",
    "entries": 2,
    "neighborhood": "Broadview/Bitter Lake",
    "neighborhoodGroup": "Northwest",
    "unitCount": 2,
    "severity": 0,
    "units": "E24 M31",
    "address": "13204 Frazier Pl Nw"
  },
  {
    "id_str": "F190105976",
    "created_at": "10/4/2019 9:30:13 AM",
    "lat": 47.631429,
    "long": -122.356594,
    "timestamp": 1570206613000,
    "description": "Unk Odor",
    "entries": 1,
    "neighborhood": "Queen Anne",
    "neighborhoodGroup": "Magnolia/Queen Anne",
    "unitCount": 1,
    "severity": 0,
    "units": "E8",
    "address": "1413 Queen Anne Av N"
  },
  {
    "id_str": "F190105973",
    "created_at": "10/4/2019 9:29:58 AM",
    "lat": 47.705084,
    "long": -122.355453,
    "timestamp": 1570206598000,
    "description": "Aid Response",
    "entries": 2,
    "neighborhood": "North Beach/Blue Ridge",
    "neighborhoodGroup": "Ballard",
    "unitCount": 2,
    "severity": 0,
    "units": "A31 E21",
    "address": "N 105th St / Greenwood Av N"
  },
  {
    "id_str": "F190105972",
    "created_at": "10/4/2019 9:29:47 AM",
    "lat": 47.609291,
    "long": -122.332762,
    "timestamp": 1570206587000,
    "description": "Aid Response",
    "entries": 1,
    "neighborhood": "First Hill",
    "neighborhoodGroup": "East",
    "unitCount": 1,
    "severity": 0,
    "units": "A2",
    "address": "1314 6th Av"
  },
  {
    "id_str": "F190105975",
    "created_at": "10/4/2019 9:28:23 AM",
    "lat": 47.566974,
    "long": -122.32047,
    "timestamp": 1570206503000,
    "description": "MVI Freeway",
    "entries": 2,
    "neighborhood": "Duwamish/SODO",
    "neighborhoodGroup": "Greater Duwamish",
    "unitCount": 4,
    "severity": 0,
    "units": "A14 E13 E27 STAF10",
    "address": "Nb I5 At Rainier Brewery"
  },
  {
    "id_str": "F190105968",
    "created_at": "10/4/2019 9:16:59 AM",
    "lat": 47.674585,
    "long": -122.313123,
    "timestamp": 1570205819000,
    "description": "Aid Response Yellow",
    "entries": 1,
    "neighborhood": "University District",
    "neighborhoodGroup": "Northeast",
    "unitCount": 1,
    "severity": 0,
    "units": "E31",
    "address": "6317 14th Av Ne"
  },
  {
    "id_str": "F190105966",
    "created_at": "10/4/2019 9:14:23 AM",
    "lat": 47.61015,
    "long": -122.333556,
    "timestamp": 1570205663000,
    "description": "Aid Response",
    "entries": 1,
    "neighborhood": "First Hill",
    "neighborhoodGroup": "East",
    "unitCount": 1,
    "severity": 0,
    "units": "A4",
    "address": "1400 6th Av"
  },
  {
    "id_str": "F190105964",
    "created_at": "10/4/2019 9:11:47 AM",
    "lat": 47.601718,
    "long": -122.331581,
    "timestamp": 1570205507000,
    "description": "Auto Fire Alarm",
    "entries": 1,
    "neighborhood": "Downtown Commercial Core",
    "neighborhoodGroup": "Downtown",
    "unitCount": 2,
    "severity": 0,
    "units": "E5 L4",
    "address": "223 Yesler Way"
  },
  {
    "id_str": "F190105963",
    "created_at": "10/4/2019 9:09:03 AM",
    "lat": 47.562855,
    "long": -122.268172,
    "timestamp": 1570205343000,
    "description": "Aid Response",
    "entries": 1,
    "neighborhood": "Columbia City",
    "neighborhoodGroup": "Southeast",
    "unitCount": 1,
    "severity": 0,
    "units": "L12",
    "address": "Lake Washington Blvd S / S Genesee Way"
  },
  {
    "id_str": "F190105961",
    "created_at": "10/4/2019 9:04:53 AM",
    "lat": 47.719284,
    "long": -122.296115,
    "timestamp": 1570205093000,
    "description": "AFA4 - Auto Alarm 2 + 1 + 1",
    "entries": 1,
    "neighborhood": "Cedar Park/Meadowbrook",
    "neighborhoodGroup": "North",
    "unitCount": 4,
    "severity": 0,
    "units": "B6 E38 E40 L9",
    "address": "3018 Ne 125th St"
  },
  {
    "id_str": "F190105959",
    "created_at": "10/4/2019 9:02:33 AM",
    "lat": 47.556785,
    "long": -122.286143,
    "timestamp": 1570204953000,
    "description": "Aid Response",
    "entries": 1,
    "neighborhood": "Columbia City",
    "neighborhoodGroup": "Southeast",
    "unitCount": 1,
    "severity": 0,
    "units": "E28",
    "address": "5033 37th Av S"
  },
  {
    "id_str": "F190105957",
    "created_at": "10/4/2019 8:59:15 AM",
    "lat": 47.609215,
    "long": -122.313958,
    "timestamp": 1570204755000,
    "description": "Aid Response",
    "entries": 1,
    "neighborhood": "First Hill",
    "neighborhoodGroup": "East",
    "unitCount": 1,
    "severity": 0,
    "units": "A25",
    "address": "1414 E Columbia St"
  },
  {
    "id_str": "F190105956",
    "created_at": "10/4/2019 8:56:37 AM",
    "lat": 47.727791,
    "long": -122.347725,
    "timestamp": 1570204597000,
    "description": "Auto Fire Alarm",
    "entries": 1,
    "neighborhood": "Broadview/Bitter Lake",
    "neighborhoodGroup": "Northwest",
    "unitCount": 2,
    "severity": 0,
    "units": "E39 L5",
    "address": "13530 Linden Av N"
  },
  {
    "id_str": "F190105955",
    "created_at": "10/4/2019 8:55:07 AM",
    "lat": 47.633463,
    "long": -122.277157,
    "timestamp": 1570204507000,
    "description": "Medic Response",
    "entries": 1,
    "neighborhood": "Madison Park",
    "neighborhoodGroup": "East",
    "unitCount": 2,
    "severity": 0,
    "units": "E34 M10",
    "address": "1620 43rd Av E"
  },
  {
    "id_str": "F190105954",
    "created_at": "10/4/2019 8:54:14 AM",
    "lat": 47.662922,
    "long": -122.366193,
    "timestamp": 1570204454000,
    "description": "Aid Response",
    "entries": 1,
    "neighborhood": "Fremont",
    "neighborhoodGroup": "Lake Union",
    "unitCount": 1,
    "severity": 0,
    "units": "E18",
    "address": "8th Av Nw / Nw 47th St"
  },
  {
    "id_str": "F190105953",
    "created_at": "10/4/2019 8:49:55 AM",
    "lat": 47.703486,
    "long": -122.333907,
    "timestamp": 1570204195000,
    "description": "Medic Response",
    "entries": 2,
    "neighborhood": "Northgate/Maple Leaf",
    "neighborhoodGroup": "North",
    "unitCount": 2,
    "severity": 0,
    "units": "E24 M31",
    "address": "10330 Meridian Av N"
  },
  {
    "id_str": "F190105952",
    "created_at": "10/4/2019 8:40:42 AM",
    "lat": 47.620817,
    "long": -122.331704,
    "timestamp": 1570203642000,
    "description": "Aid Response",
    "entries": 1,
    "neighborhood": "Cascade/Eastlake",
    "neighborhoodGroup": "Lake Union",
    "unitCount": 1,
    "severity": 0,
    "units": "E2",
    "address": "300 Pontius Av N"
  },
  {
    "id_str": "F190105951",
    "created_at": "10/4/2019 8:36:09 AM",
    "lat": 47.640549,
    "long": -122.3464,
    "timestamp": 1570203369000,
    "description": "MVI Freeway Medic",
    "entries": 2,
    "neighborhood": "Queen Anne",
    "neighborhoodGroup": "Magnolia/Queen Anne",
    "unitCount": 4,
    "severity": 0,
    "units": "A25 E8 E9 M18",
    "address": "Aurora Av N / Dexter Way N"
  },
  {
    "id_str": "F190105950",
    "created_at": "10/4/2019 8:35:07 AM",
    "lat": 47.60975,
    "long": -122.337793,
    "timestamp": 1570203307000,
    "description": "Aid Response",
    "entries": 1,
    "neighborhood": "Downtown Commercial Core",
    "neighborhoodGroup": "Downtown",
    "unitCount": 1,
    "severity": 0,
    "units": "A2",
    "address": "3rd Av / Pike St"
  },
  {
    "id_str": "F190105948",
    "created_at": "10/4/2019 8:29:02 AM",
    "lat": 47.589965,
    "long": -122.3376,
    "timestamp": 1570202942000,
    "description": "Aid Response",
    "entries": 1,
    "neighborhood": "Duwamish/SODO",
    "neighborhoodGroup": "Greater Duwamish",
    "unitCount": 1,
    "severity": 0,
    "units": "A5",
    "address": "1561 Alaskan Way S"
  },
  {
    "id_str": "F190105947",
    "created_at": "10/4/2019 8:17:06 AM",
    "lat": 47.617316,
    "long": -122.347229,
    "timestamp": 1570202226000,
    "description": "Rescue Elevator",
    "entries": 1,
    "neighborhood": "Cascade/Eastlake",
    "neighborhoodGroup": "Lake Union",
    "unitCount": 1,
    "severity": 0,
    "units": "L4",
    "address": "2614 4th Av"
  },
  {
    "id_str": "F190105946",
    "created_at": "10/4/2019 8:12:55 AM",
    "lat": 47.619258,
    "long": -122.294803,
    "timestamp": 1570201975000,
    "description": "Aid Response",
    "entries": 1,
    "neighborhood": "Central Area/Squire Park",
    "neighborhoodGroup": "Central",
    "unitCount": 1,
    "severity": 0,
    "units": "E34",
    "address": "129 29th Av E"
  },
  {
    "id_str": "F190105942",
    "created_at": "10/4/2019 7:42:28 AM",
    "lat": 47.695908,
    "long": -122.328434,
    "timestamp": 1570200148000,
    "description": "Medic Response, 6 per Rule",
    "entries": 1,
    "neighborhood": "Northgate/Maple Leaf",
    "neighborhoodGroup": "North",
    "unitCount": 3,
    "severity": 0,
    "units": "E21 L9 M31",
    "address": "Ne 92nd St / 1st Av Ne"
  },
  {
    "id_str": "F190105940",
    "created_at": "10/4/2019 7:38:39 AM",
    "lat": 47.532486,
    "long": -122.278575,
    "timestamp": 1570199919000,
    "description": "Rescue Extrication",
    "entries": 3,
    "neighborhood": "Columbia City",
    "neighborhoodGroup": "Southeast",
    "unitCount": 11,
    "severity": 2,
    "units": "A14 A25 B2 B5 E28 E33 L12 M28 M44 R1 SAFT2",
    "address": "S Chicago St / Renton Av S"
  },
  {
    "id_str": "F190105939",
    "created_at": "10/4/2019 7:31:11 AM",
    "lat": 47.605549,
    "long": -122.332417,
    "timestamp": 1570199471000,
    "description": "Aid Response",
    "entries": 2,
    "neighborhood": "Downtown Commercial Core",
    "neighborhoodGroup": "Downtown",
    "unitCount": 2,
    "severity": 0,
    "units": "A10 A5",
    "address": "925 4th Av"
  },
  {
    "id_str": "F190105937",
    "created_at": "10/4/2019 7:21:49 AM",
    "lat": 47.599261,
    "long": -122.305258,
    "timestamp": 1570198909000,
    "description": "Automatic Medical Alarm",
    "entries": 1,
    "neighborhood": "Judkins Park",
    "neighborhoodGroup": "Central",
    "unitCount": 1,
    "severity": 0,
    "units": "E6",
    "address": "2020 S Jackson St"
  },
  {
    "id_str": "F190105936",
    "created_at": "10/4/2019 7:20:51 AM",
    "lat": 47.696359,
    "long": -122.344319,
    "timestamp": 1570198851000,
    "description": "Auto Fire Alarm",
    "entries": 1,
    "neighborhood": "Licton Springs",
    "neighborhoodGroup": "Northwest",
    "unitCount": 2,
    "severity": 0,
    "units": "E21 L9",
    "address": "1120 N 93rd St"
  },
  {
    "id_str": "F190105935",
    "created_at": "10/4/2019 7:17:57 AM",
    "lat": 47.579809,
    "long": -122.329057,
    "timestamp": 1570198677000,
    "description": "Medic Response, 6 per Rule",
    "entries": 2,
    "neighborhood": "Duwamish/SODO",
    "neighborhoodGroup": "Greater Duwamish",
    "unitCount": 3,
    "severity": 0,
    "units": "A14 M1 R1",
    "address": "4th Av S / S Lander St"
  },
  {
    "id_str": "F190105932",
    "created_at": "10/4/2019 7:08:32 AM",
    "lat": 47.708935,
    "long": -122.320569,
    "timestamp": 1570198112000,
    "description": "Auto Fire Alarm",
    "entries": 1,
    "neighborhood": "Northgate/Maple Leaf",
    "neighborhoodGroup": "North",
    "unitCount": 2,
    "severity": 0,
    "units": "E39 L5",
    "address": "11050 8th Av Ne"
  },
  {
    "id_str": "F190105930",
    "created_at": "10/4/2019 7:06:04 AM",
    "lat": 47.65402,
    "long": -122.310421,
    "timestamp": 1570197964000,
    "description": "Auto Fire Alarm",
    "entries": 1,
    "neighborhood": "University District",
    "neighborhoodGroup": "Northeast",
    "unitCount": 2,
    "severity": 0,
    "units": "E17 L9",
    "address": "3923 Okanogan Ln Ne"
  },
  {
    "id_str": "F190105929",
    "created_at": "10/4/2019 6:24:22 AM",
    "lat": 47.669442,
    "long": -122.313024,
    "timestamp": 1570195462000,
    "description": "Medic Response",
    "entries": 2,
    "neighborhood": "University District",
    "neighborhoodGroup": "Northeast",
    "unitCount": 2,
    "severity": 0,
    "units": "L9 M17",
    "address": "Ne 56th St / University Way Ne"
  },
  {
    "id_str": "F190105927",
    "created_at": "10/4/2019 6:21:02 AM",
    "lat": 47.625512,
    "long": -122.343512,
    "timestamp": 1570195262000,
    "description": "Aid Response",
    "entries": 1,
    "neighborhood": "Queen Anne",
    "neighborhoodGroup": "Magnolia/Queen Anne",
    "unitCount": 1,
    "severity": 0,
    "units": "A2",
    "address": "712 Aurora Av N"
  },
  {
    "id_str": "F190105924",
    "created_at": "10/4/2019 6:07:37 AM",
    "lat": 47.544573,
    "long": -122.376448,
    "timestamp": 1570194457000,
    "description": "Aid Response",
    "entries": 1,
    "neighborhood": "High Point",
    "neighborhoodGroup": "Delridge Neighborhoods",
    "unitCount": 1,
    "severity": 0,
    "units": "E37",
    "address": "6512 35th Av Sw"
  },
  {
    "id_str": "F190105922",
    "created_at": "10/4/2019 5:59:28 AM",
    "lat": 47.599993,
    "long": -122.314135,
    "timestamp": 1570193968000,
    "description": "Aid Response",
    "entries": 1,
    "neighborhood": "Judkins Park",
    "neighborhoodGroup": "Central",
    "unitCount": 1,
    "severity": 0,
    "units": "E6",
    "address": "302 14th Av S"
  },
  {
    "id_str": "F190105918",
    "created_at": "10/4/2019 5:38:58 AM",
    "lat": 47.619715,
    "long": -122.329135,
    "timestamp": 1570192738000,
    "description": "MVI - Motor Vehicle Incident",
    "entries": 2,
    "neighborhood": "Cascade/Eastlake",
    "neighborhoodGroup": "Lake Union",
    "unitCount": 5,
    "severity": 1,
    "units": "A5 B2 E17 E2 E31",
    "address": "Sb I5 Exp To Stewart"
  },
  {
    "id_str": "F190105916",
    "created_at": "10/4/2019 5:34:33 AM",
    "lat": 47.549567,
    "long": -122.376348,
    "timestamp": 1570192473000,
    "description": "Aid Response",
    "entries": 1,
    "neighborhood": "High Point",
    "neighborhoodGroup": "Delridge Neighborhoods",
    "unitCount": 1,
    "severity": 0,
    "units": "E37",
    "address": "5931 35th Av Sw"
  },
  {
    "id_str": "F190105914",
    "created_at": "10/4/2019 5:02:35 AM",
    "lat": 47.538902,
    "long": -122.293225,
    "timestamp": 1570190555000,
    "description": "Aid Response",
    "entries": 1,
    "neighborhood": "South Beacon Hill/NewHolly",
    "neighborhoodGroup": "Greater Duwamish",
    "unitCount": 1,
    "severity": 0,
    "units": "E28",
    "address": "3001 S Myrtle St"
  },
  {
    "id_str": "F190105913",
    "created_at": "10/4/2019 4:45:36 AM",
    "lat": 47.600798,
    "long": -122.335951,
    "timestamp": 1570189536000,
    "description": "Aid Response",
    "entries": 1,
    "neighborhood": "Pioneer Square/International District",
    "neighborhoodGroup": "Downtown",
    "unitCount": 1,
    "severity": 0,
    "units": "E5",
    "address": "210 ALASKAN WAY S"
  },
  {
    "id_str": "F190105912",
    "created_at": "10/4/2019 4:36:35 AM",
    "lat": 47.672584,
    "long": -122.290239,
    "timestamp": 1570188995000,
    "description": "Aid Response",
    "entries": 1,
    "neighborhood": "Ravenna/Bryant",
    "neighborhoodGroup": "Northeast",
    "unitCount": 1,
    "severity": 0,
    "units": "E38",
    "address": "6048 35th Av Ne"
  },
  {
    "id_str": "F190105910",
    "created_at": "10/4/2019 4:19:08 AM",
    "lat": 47.534804,
    "long": -122.390421,
    "timestamp": 1570187948000,
    "description": "Aid Response",
    "entries": 1,
    "neighborhood": "Fauntleroy/Seaview",
    "neighborhoodGroup": "Southwest",
    "unitCount": 1,
    "severity": 0,
    "units": "E32",
    "address": "7570 45th Av Sw"
  },
  {
    "id_str": "F190105909",
    "created_at": "10/4/2019 3:54:32 AM",
    "lat": 47.612669,
    "long": -122.345319,
    "timestamp": 1570186472000,
    "description": "Aid Response",
    "entries": 1,
    "neighborhood": "Belltown",
    "neighborhoodGroup": "Downtown",
    "unitCount": 1,
    "severity": 0,
    "units": "A2",
    "address": "2209 1st Av"
  },
  {
    "id_str": "F190105908",
    "created_at": "10/4/2019 3:51:28 AM",
    "lat": 47.600044,
    "long": -122.334219,
    "timestamp": 1570186288000,
    "description": "Aid Response",
    "entries": 1,
    "neighborhood": "Pioneer Square/International District",
    "neighborhoodGroup": "Downtown",
    "unitCount": 1,
    "severity": 0,
    "units": "A10",
    "address": "97 S Main St"
  },
  {
    "id_str": "F190105907",
    "created_at": "10/4/2019 3:46:37 AM",
    "lat": 47.547035,
    "long": -122.36894,
    "timestamp": 1570185997000,
    "description": "Medic Response",
    "entries": 1,
    "neighborhood": "High Point",
    "neighborhoodGroup": "Delridge Neighborhoods",
    "unitCount": 2,
    "severity": 0,
    "units": "E37 M32",
    "address": "6329 High Point Dr Sw"
  },
  {
    "id_str": "F190105906",
    "created_at": "10/4/2019 3:39:41 AM",
    "lat": 47.604377,
    "long": -122.325207,
    "timestamp": 1570185581000,
    "description": "Aid Response",
    "entries": 1,
    "neighborhood": "First Hill",
    "neighborhoodGroup": "East",
    "unitCount": 1,
    "severity": 0,
    "units": "A5",
    "address": "800 Jefferson St"
  },
  {
    "id_str": "F190105905",
    "created_at": "10/4/2019 3:39:29 AM",
    "lat": 47.655368,
    "long": -122.314441,
    "timestamp": 1570185569000,
    "description": "Aid Response",
    "entries": 1,
    "neighborhood": "University District",
    "neighborhoodGroup": "Northeast",
    "unitCount": 1,
    "severity": 0,
    "units": "E31",
    "address": "Brooklyn Av Ne / Ne 40th St"
  },
  {
    "id_str": "F190105904",
    "created_at": "10/4/2019 3:16:41 AM",
    "lat": 47.519016,
    "long": -122.346706,
    "timestamp": 1570184201000,
    "description": "Advised Incident",
    "entries": 1,
    "neighborhood": "Highland Park",
    "neighborhoodGroup": "Delridge Neighborhoods",
    "unitCount": 1,
    "severity": 0,
    "units": "E11",
    "address": "9414 9th Av Sw"
  },
  {
    "id_str": "F190105902",
    "created_at": "10/4/2019 3:08:53 AM",
    "lat": 47.614174,
    "long": -122.327923,
    "timestamp": 1570183733000,
    "description": "Aid Response",
    "entries": 1,
    "neighborhood": "Capitol Hill",
    "neighborhoodGroup": "East",
    "unitCount": 1,
    "severity": 0,
    "units": "A25",
    "address": "1520 Melrose Av"
  },
  {
    "id_str": "F190105901",
    "created_at": "10/4/2019 2:55:37 AM",
    "lat": 47.658941,
    "long": -122.323972,
    "timestamp": 1570182937000,
    "description": "Aid Response",
    "entries": 1,
    "neighborhood": "Wallingford",
    "neighborhoodGroup": "Lake Union",
    "unitCount": 1,
    "severity": 0,
    "units": "E17",
    "address": "409 Ne 43rd St"
  },
  {
    "id_str": "F190105900",
    "created_at": "10/4/2019 2:40:16 AM",
    "lat": 47.708588,
    "long": -122.299493,
    "timestamp": 1570182016000,
    "description": "Medic Response",
    "entries": 1,
    "neighborhood": "Cedar Park/Meadowbrook",
    "neighborhoodGroup": "North",
    "unitCount": 2,
    "severity": 0,
    "units": "E40 M17",
    "address": "11038 27th Av Ne"
  },
  {
    "id_str": "F190105899",
    "created_at": "10/4/2019 2:38:18 AM",
    "lat": 47.560748,
    "long": -122.287027,
    "timestamp": 1570181898000,
    "description": "Aid Response",
    "entries": 1,
    "neighborhood": "Columbia City",
    "neighborhoodGroup": "Southeast",
    "unitCount": 1,
    "severity": 0,
    "units": "E28",
    "address": "Rainier Av S / S Alaska St"
  },
  {
    "id_str": "F190105898",
    "created_at": "10/4/2019 2:35:20 AM",
    "lat": 47.64319,
    "long": -122.322092,
    "timestamp": 1570181720000,
    "description": "Aid Response",
    "entries": 1,
    "neighborhood": "Montlake/Portage Bay",
    "neighborhoodGroup": "Northeast",
    "unitCount": 1,
    "severity": 0,
    "units": "E22",
    "address": "Harvard Av E / E Roanoke St"
  },
  {
    "id_str": "F190105897",
    "created_at": "10/4/2019 2:31:12 AM",
    "lat": 47.595971,
    "long": -122.287762,
    "timestamp": 1570181472000,
    "description": "Automatic Medical Alarm",
    "entries": 1,
    "neighborhood": "Madrona/Leschi",
    "neighborhoodGroup": "Central",
    "unitCount": 1,
    "severity": 0,
    "units": "E6",
    "address": "720 Lakeside Av S"
  },
  {
    "id_str": "F190105896",
    "created_at": "10/4/2019 2:30:03 AM",
    "lat": 47.614076,
    "long": -122.32078,
    "timestamp": 1570181403000,
    "description": "Aid Response",
    "entries": 1,
    "neighborhood": "Capitol Hill",
    "neighborhoodGroup": "East",
    "unitCount": 1,
    "severity": 0,
    "units": "A25",
    "address": "Broadway / E Pike St"
  },
  {
    "id_str": "F190105895",
    "created_at": "10/4/2019 2:11:31 AM",
    "lat": 47.553485,
    "long": -122.360024,
    "timestamp": 1570180291000,
    "description": "Medic Response",
    "entries": 1,
    "neighborhood": "Riverview",
    "neighborhoodGroup": "Delridge Neighborhoods",
    "unitCount": 2,
    "severity": 0,
    "units": "E36 M10",
    "address": "5432 21st Av Sw"
  },
  {
    "id_str": "F190105893",
    "created_at": "10/4/2019 2:09:29 AM",
    "lat": 47.66288,
    "long": -122.353974,
    "timestamp": 1570180169000,
    "description": "Aid Response",
    "entries": 1,
    "neighborhood": "Fremont",
    "neighborhoodGroup": "Lake Union",
    "unitCount": 1,
    "severity": 0,
    "units": "E9",
    "address": "4700 Phinney Av N"
  },
  {
    "id_str": "F190105890",
    "created_at": "10/4/2019 2:01:58 AM",
    "lat": 47.71735,
    "long": -122.28304,
    "timestamp": 1570179718000,
    "description": "Aid Response",
    "entries": 1,
    "neighborhood": "Cedar Park/Meadowbrook",
    "neighborhoodGroup": "North",
    "unitCount": 1,
    "severity": 0,
    "units": "E39",
    "address": "4205 Ne 123rd St"
  },
  {
    "id_str": "F190105887",
    "created_at": "10/4/2019 1:53:53 AM",
    "lat": 47.594356,
    "long": -122.310367,
    "timestamp": 1570179233000,
    "description": "Medic Response",
    "entries": 1,
    "neighborhood": "North Beacon Hill/Jefferson Park",
    "neighborhoodGroup": "Greater Duwamish",
    "unitCount": 2,
    "severity": 0,
    "units": "A10 M1",
    "address": "901 Rainier Av S"
  },
  {
    "id_str": "F190105885",
    "created_at": "10/4/2019 1:46:28 AM",
    "lat": 47.718224,
    "long": -122.330035,
    "timestamp": 1570178788000,
    "description": "Aid Response Yellow",
    "entries": 1,
    "neighborhood": "Haller Lake",
    "neighborhoodGroup": "Northwest",
    "unitCount": 1,
    "severity": 0,
    "units": "L5",
    "address": "12265 Corliss Av N"
  },
  {
    "id_str": "F190105883",
    "created_at": "10/4/2019 1:37:30 AM",
    "lat": 47.613146,
    "long": -122.327096,
    "timestamp": 1570178250000,
    "description": "Medic Response",
    "entries": 1,
    "neighborhood": "Capitol Hill",
    "neighborhoodGroup": "East",
    "unitCount": 2,
    "severity": 0,
    "units": "A25 M17",
    "address": "1421 Minor Av"
  },
  {
    "id_str": "F190105882",
    "created_at": "10/4/2019 1:28:15 AM",
    "lat": 47.588027,
    "long": -122.386277,
    "timestamp": 1570177695000,
    "description": "Medic Response",
    "entries": 1,
    "neighborhood": "Alki/Admiral",
    "neighborhoodGroup": "Southwest",
    "unitCount": 2,
    "severity": 0,
    "units": "E29 M32",
    "address": "1703 California Av Sw"
  },
  {
    "id_str": "F190105880",
    "created_at": "10/4/2019 1:22:33 AM",
    "lat": 47.614736,
    "long": -122.342459,
    "timestamp": 1570177353000,
    "description": "Medic Response",
    "entries": 2,
    "neighborhood": "Cascade/Eastlake",
    "neighborhoodGroup": "Lake Union",
    "unitCount": 3,
    "severity": 0,
    "units": "E2 L4 M10",
    "address": "420 Blanchard St"
  },
  {
    "id_str": "F190105879",
    "created_at": "10/4/2019 1:15:41 AM",
    "lat": 47.708935,
    "long": -122.320569,
    "timestamp": 1570176941000,
    "description": "Activated CO Detector",
    "entries": 1,
    "neighborhood": "Northgate/Maple Leaf",
    "neighborhoodGroup": "North",
    "unitCount": 1,
    "severity": 0,
    "units": "L5",
    "address": "11050 8th Av Ne"
  },
  {
    "id_str": "F190105878",
    "created_at": "10/4/2019 1:12:35 AM",
    "lat": 47.68344,
    "long": -122.376781,
    "timestamp": 1570176755000,
    "description": "Medic Response",
    "entries": 1,
    "neighborhood": "Whittier Heights",
    "neighborhoodGroup": "Ballard",
    "unitCount": 2,
    "severity": 0,
    "units": "E35 M31",
    "address": "7523 15th Av Nw"
  },
  {
    "id_str": "F190105876",
    "created_at": "10/4/2019 1:04:53 AM",
    "lat": 47.61663,
    "long": -122.342302,
    "timestamp": 1570176293000,
    "description": "Medic Response",
    "entries": 1,
    "neighborhood": "Cascade/Eastlake",
    "neighborhoodGroup": "Lake Union",
    "unitCount": 2,
    "severity": 0,
    "units": "E2 M17",
    "address": "588 Bell St"
  },
  {
    "id_str": "F190105875",
    "created_at": "10/4/2019 12:56:57 AM",
    "lat": 47.624561,
    "long": -122.347571,
    "timestamp": 1570175817000,
    "description": "Medic Response",
    "entries": 1,
    "neighborhood": "Cascade/Eastlake",
    "neighborhoodGroup": "Lake Union",
    "unitCount": 2,
    "severity": 0,
    "units": "A2 M1",
    "address": "500 Mercer St"
  },
  {
    "id_str": "F190105874",
    "created_at": "10/4/2019 12:52:19 AM",
    "lat": 47.638695,
    "long": -122.376149,
    "timestamp": 1570175539000,
    "description": "Aid Response",
    "entries": 1,
    "neighborhood": "Interbay",
    "neighborhoodGroup": "Magnolia/Queen Anne",
    "unitCount": 1,
    "severity": 0,
    "units": "E20",
    "address": "2208 15th Av W"
  },
  {
    "id_str": "F190105873",
    "created_at": "10/4/2019 12:43:30 AM",
    "lat": 47.521023,
    "long": -122.366095,
    "timestamp": 1570175010000,
    "description": "Aid Response",
    "entries": 1,
    "neighborhood": "Roxhill/Westwood",
    "neighborhoodGroup": "Delridge Neighborhoods",
    "unitCount": 1,
    "severity": 0,
    "units": "E11",
    "address": "2615 Sw Barton St"
  },
  {
    "id_str": "F190105872",
    "created_at": "10/4/2019 12:42:58 AM",
    "lat": 47.601601,
    "long": -122.302284,
    "timestamp": 1570174978000,
    "description": "Medic Response",
    "entries": 1,
    "neighborhood": "Madrona/Leschi",
    "neighborhoodGroup": "Central",
    "unitCount": 2,
    "severity": 0,
    "units": "E6 M10",
    "address": "113 23rd Av S"
  },
  {
    "id_str": "F190105871",
    "created_at": "10/4/2019 12:40:20 AM",
    "lat": 47.54401,
    "long": -122.397258,
    "timestamp": 1570174820000,
    "description": "Aid Response",
    "entries": 1,
    "neighborhood": "Fauntleroy/Seaview",
    "neighborhoodGroup": "Southwest",
    "unitCount": 1,
    "severity": 0,
    "units": "E37",
    "address": "6561 Beach Dr Sw"
  },
  {
    "id_str": "F190105870",
    "created_at": "10/4/2019 12:33:18 AM",
    "lat": 47.617571,
    "long": -122.320836,
    "timestamp": 1570174398000,
    "description": "Aid Response",
    "entries": 1,
    "neighborhood": "Capitol Hill",
    "neighborhoodGroup": "East",
    "unitCount": 1,
    "severity": 0,
    "units": "A25",
    "address": "E Howell St / Broadway"
  },
  {
    "id_str": "F190105867",
    "created_at": "10/3/2019 11:44:44 PM",
    "lat": 47.611943,
    "long": -122.325987,
    "timestamp": 1570171484000,
    "description": "Aid Response",
    "entries": 1,
    "neighborhood": "First Hill",
    "neighborhoodGroup": "East",
    "unitCount": 1,
    "severity": 0,
    "units": "A25",
    "address": "1200 University St"
  },
  {
    "id_str": "F190105866",
    "created_at": "10/3/2019 11:43:28 PM",
    "lat": 47.664296,
    "long": -122.348336,
    "timestamp": 1570171408000,
    "description": "Alarm Bell",
    "entries": 1,
    "neighborhood": "Fremont",
    "neighborhoodGroup": "Lake Union",
    "unitCount": 2,
    "severity": 0,
    "units": "E9 L9",
    "address": "819 N 49th St"
  },
  {
    "id_str": "F190105863",
    "created_at": "10/3/2019 11:34:13 PM",
    "lat": 47.61677,
    "long": -122.346304,
    "timestamp": 1570170853000,
    "description": "AFA4 - Auto Alarm 2 + 1 + 1",
    "entries": 1,
    "neighborhood": "Cascade/Eastlake",
    "neighborhoodGroup": "Lake Union",
    "unitCount": 4,
    "severity": 0,
    "units": "B2 E10 E25 L4",
    "address": "2515 4th Av"
  },
  {
    "id_str": "F190105861",
    "created_at": "10/3/2019 11:28:03 PM",
    "lat": 47.612626,
    "long": -122.341277,
    "timestamp": 1570170483000,
    "description": "Aid Response",
    "entries": 1,
    "neighborhood": "Cascade/Eastlake",
    "neighborhoodGroup": "Lake Union",
    "unitCount": 1,
    "severity": 0,
    "units": "E2",
    "address": "2030 3RD AV"
  },
  {
    "id_str": "F190105860",
    "created_at": "10/3/2019 11:22:20 PM",
    "lat": 47.526315,
    "long": -122.349294,
    "timestamp": 1570170140000,
    "description": "Aid Response",
    "entries": 1,
    "neighborhood": "Highland Park",
    "neighborhoodGroup": "Delridge Neighborhoods",
    "unitCount": 1,
    "severity": 0,
    "units": "E11",
    "address": "8619 11th Av Sw"
  },
  {
    "id_str": "F190105859",
    "created_at": "10/3/2019 11:21:19 PM",
    "lat": 47.608821,
    "long": -122.340013,
    "timestamp": 1570170079000,
    "description": "Aid Response",
    "entries": 1,
    "neighborhood": "Downtown Commercial Core",
    "neighborhoodGroup": "Downtown",
    "unitCount": 1,
    "severity": 0,
    "units": "E5",
    "address": "1st Av / Pike St"
  },
  {
    "id_str": "F190105858",
    "created_at": "10/3/2019 11:19:10 PM",
    "lat": 47.613936,
    "long": -122.343494,
    "timestamp": 1570169950000,
    "description": "Aid Response",
    "entries": 1,
    "neighborhood": "Cascade/Eastlake",
    "neighborhoodGroup": "Lake Union",
    "unitCount": 1,
    "severity": 0,
    "units": "E2",
    "address": "3rd Av / Blanchard St"
  },
  {
    "id_str": "F190105857",
    "created_at": "10/3/2019 11:16:39 PM",
    "lat": 47.613308,
    "long": -122.342432,
    "timestamp": 1570169799000,
    "description": "Medic Response",
    "entries": 2,
    "neighborhood": "Cascade/Eastlake",
    "neighborhoodGroup": "Lake Union",
    "unitCount": 2,
    "severity": 0,
    "units": "A2 M1",
    "address": "2119 3rd Av"
  },
  {
    "id_str": "F190105853",
    "created_at": "10/3/2019 10:59:46 PM",
    "lat": 47.617175,
    "long": -122.303691,
    "timestamp": 1570168786000,
    "description": "Aid Response",
    "entries": 1,
    "neighborhood": "Central Area/Squire Park",
    "neighborhoodGroup": "Central",
    "unitCount": 1,
    "severity": 0,
    "units": "A25",
    "address": "1717 22nd Av"
  },
  {
    "id_str": "F190105850",
    "created_at": "10/3/2019 10:56:19 PM",
    "lat": 47.698721,
    "long": -122.34681,
    "timestamp": 1570168579000,
    "description": "Medic Response, 7 per Rule",
    "entries": 2,
    "neighborhood": "Licton Springs",
    "neighborhoodGroup": "Northwest",
    "unitCount": 3,
    "severity": 0,
    "units": "E21 E35 M31",
    "address": "937 N 96th St"
  },
  {
    "id_str": "F190105848",
    "created_at": "10/3/2019 10:38:56 PM",
    "lat": 47.575283,
    "long": -122.329059,
    "timestamp": 1570167536000,
    "description": "Aid Response",
    "entries": 1,
    "neighborhood": "Duwamish/SODO",
    "neighborhoodGroup": "Greater Duwamish",
    "unitCount": 1,
    "severity": 0,
    "units": "R1",
    "address": "3224 4th Av S"
  },
  {
    "id_str": "F190105849",
    "created_at": "10/3/2019 10:38:24 PM",
    "lat": 47.720938,
    "long": -122.292513,
    "timestamp": 1570167504000,
    "description": "Medic Response",
    "entries": 2,
    "neighborhood": "Cedar Park/Meadowbrook",
    "neighborhoodGroup": "North",
    "unitCount": 2,
    "severity": 0,
    "units": "E39 M17",
    "address": "12740 33rd Av Ne"
  },
  {
    "id_str": "F190105847",
    "created_at": "10/3/2019 10:37:37 PM",
    "lat": 47.595693,
    "long": -122.333273,
    "timestamp": 1570167457000,
    "description": "Aid Response",
    "entries": 1,
    "neighborhood": "Duwamish/SODO",
    "neighborhoodGroup": "Greater Duwamish",
    "unitCount": 1,
    "severity": 0,
    "units": "A5",
    "address": "800 Occidental Av S"
  },
  {
    "id_str": "F190105846",
    "created_at": "10/3/2019 10:33:54 PM",
    "lat": 47.561674,
    "long": -122.293783,
    "timestamp": 1570167234000,
    "description": "Aid Response",
    "entries": 1,
    "neighborhood": "Columbia City",
    "neighborhoodGroup": "Southeast",
    "unitCount": 1,
    "severity": 0,
    "units": "E30",
    "address": "4616 M L King Jr Way S"
  },
  {
    "id_str": "F190105842",
    "created_at": "10/3/2019 10:20:38 PM",
    "lat": 47.617893,
    "long": -122.326125,
    "timestamp": 1570166438000,
    "description": "Auto Fire Alarm",
    "entries": 1,
    "neighborhood": "Capitol Hill",
    "neighborhoodGroup": "East",
    "unitCount": 2,
    "severity": 0,
    "units": "E25 L10",
    "address": "1510 E Olive Way"
  },
  {
    "id_str": "F190105840",
    "created_at": "10/3/2019 10:15:35 PM",
    "lat": 47.658315,
    "long": -122.313207,
    "timestamp": 1570166135000,
    "description": "Aid Response",
    "entries": 1,
    "neighborhood": "University District",
    "neighborhoodGroup": "Northeast",
    "unitCount": 1,
    "severity": 0,
    "units": "E31",
    "address": "University Way Ne / Ne 42nd St"
  },
  {
    "id_str": "F190105839",
    "created_at": "10/3/2019 10:11:05 PM",
    "lat": 47.582838,
    "long": -122.386485,
    "timestamp": 1570165865000,
    "description": "Medic Response",
    "entries": 1,
    "neighborhood": "Alki/Admiral",
    "neighborhoodGroup": "Southwest",
    "unitCount": 2,
    "severity": 0,
    "units": "E29 M32",
    "address": "2326 California Av Sw"
  },
  {
    "id_str": "F190105835",
    "created_at": "10/3/2019 10:06:54 PM",
    "lat": 47.53865,
    "long": -122.32063,
    "timestamp": 1570165614000,
    "description": "Aid Response",
    "entries": 1,
    "neighborhood": "Georgetown",
    "neighborhoodGroup": "Greater Duwamish",
    "unitCount": 1,
    "severity": 0,
    "units": "E27",
    "address": "East Marginal Way S / Ellis Av S"
  },
  {
    "id_str": "F190105834",
    "created_at": "10/3/2019 10:01:16 PM",
    "lat": 47.623128,
    "long": -122.333,
    "timestamp": 1570165276000,
    "description": "Illegal Burn",
    "entries": 1,
    "neighborhood": "Cascade/Eastlake",
    "neighborhoodGroup": "Lake Union",
    "unitCount": 1,
    "severity": 0,
    "units": "E2",
    "address": "502 Minor Av N"
  },
  {
    "id_str": "F190105833",
    "created_at": "10/3/2019 9:57:37 PM",
    "lat": 47.60705,
    "long": -122.335324,
    "timestamp": 1570165057000,
    "description": "Aid Response",
    "entries": 1,
    "neighborhood": "Downtown Commercial Core",
    "neighborhoodGroup": "Downtown",
    "unitCount": 1,
    "severity": 0,
    "units": "A10",
    "address": "3rd Av / Seneca St"
  },
  {
    "id_str": "F190105832",
    "created_at": "10/3/2019 9:55:43 PM",
    "lat": 47.590312,
    "long": -122.334195,
    "timestamp": 1570164943000,
    "description": "Aid Response",
    "entries": 1,
    "neighborhood": "Duwamish/SODO",
    "neighborhoodGroup": "Greater Duwamish",
    "unitCount": 1,
    "severity": 0,
    "units": "E10",
    "address": "1st Av S / S Atlantic St"
  },
  {
    "id_str": "F190105831",
    "created_at": "10/3/2019 9:55:23 PM",
    "lat": 47.642454,
    "long": -122.303756,
    "timestamp": 1570164923000,
    "description": "Automatic Fire Alarm Resd",
    "entries": 1,
    "neighborhood": "Montlake/Portage Bay",
    "neighborhoodGroup": "Northeast",
    "unitCount": 1,
    "severity": 0,
    "units": "E31",
    "address": "2203 E Louisa St"
  },
  {
    "id_str": "F190105827",
    "created_at": "10/3/2019 9:38:28 PM",
    "lat": 47.604197,
    "long": -122.332714,
    "timestamp": 1570163908000,
    "description": "Aid Response",
    "entries": 1,
    "neighborhood": "Downtown Commercial Core",
    "neighborhoodGroup": "Downtown",
    "unitCount": 1,
    "severity": 0,
    "units": "A10",
    "address": "3rd Av / Columbia St"
  },
  {
    "id_str": "F190105826",
    "created_at": "10/3/2019 9:33:23 PM",
    "lat": 47.595277,
    "long": -122.333275,
    "timestamp": 1570163603000,
    "description": "Aid Response",
    "entries": 2,
    "neighborhood": "Duwamish/SODO",
    "neighborhoodGroup": "Greater Duwamish",
    "unitCount": 2,
    "severity": 0,
    "units": "E10 L1",
    "address": "Occidental Av S / Railroad Way S"
  },
  {
    "id_str": "F190105824",
    "created_at": "10/3/2019 9:31:37 PM",
    "lat": 47.592395,
    "long": -122.333262,
    "timestamp": 1570163497000,
    "description": "Aid Response",
    "entries": 1,
    "neighborhood": "Duwamish/SODO",
    "neighborhoodGroup": "Greater Duwamish",
    "unitCount": 1,
    "severity": 0,
    "units": "E10",
    "address": "Occidental Av S / S Royal Brougham Way"
  },
  {
    "id_str": "F190105822",
    "created_at": "10/3/2019 9:29:24 PM",
    "lat": 47.590312,
    "long": -122.334195,
    "timestamp": 1570163364000,
    "description": "Aid Response",
    "entries": 1,
    "neighborhood": "Duwamish/SODO",
    "neighborhoodGroup": "Greater Duwamish",
    "unitCount": 1,
    "severity": 0,
    "units": "A5",
    "address": "1st Av S / S Atlantic St"
  },
  {
    "id_str": "F190105821",
    "created_at": "10/3/2019 9:26:05 PM",
    "lat": 47.595693,
    "long": -122.333273,
    "timestamp": 1570163165000,
    "description": "Rescue Elevator",
    "entries": 1,
    "neighborhood": "Duwamish/SODO",
    "neighborhoodGroup": "Greater Duwamish",
    "unitCount": 1,
    "severity": 0,
    "units": "L1",
    "address": "800 Occidental Av S"
  },
  {
    "id_str": "F190105819",
    "created_at": "10/3/2019 9:15:47 PM",
    "lat": 47.638695,
    "long": -122.376149,
    "timestamp": 1570162547000,
    "description": "Auto Fire Alarm",
    "entries": 1,
    "neighborhood": "Interbay",
    "neighborhoodGroup": "Magnolia/Queen Anne",
    "unitCount": 2,
    "severity": 0,
    "units": "E20 L8",
    "address": "2208 15th Av W"
  },
  {
    "id_str": "F190105815",
    "created_at": "10/3/2019 9:07:04 PM",
    "lat": 47.608081,
    "long": -122.339337,
    "timestamp": 1570162024000,
    "description": "Aid Response",
    "entries": 1,
    "neighborhood": "Downtown Commercial Core",
    "neighborhoodGroup": "Downtown",
    "unitCount": 1,
    "severity": 0,
    "units": "E5",
    "address": "1426 1st Av"
  },
  {
    "id_str": "F190105814",
    "created_at": "10/3/2019 9:05:36 PM",
    "lat": 47.564617,
    "long": -122.329378,
    "timestamp": 1570161936000,
    "description": "Aid Response",
    "entries": 1,
    "neighborhood": "Duwamish/SODO",
    "neighborhoodGroup": "Greater Duwamish",
    "unitCount": 1,
    "severity": 0,
    "units": "A14",
    "address": "4401 4th Av S"
  },
  {
    "id_str": "F190105812",
    "created_at": "10/3/2019 9:00:11 PM",
    "lat": 47.595277,
    "long": -122.333275,
    "timestamp": 1570161611000,
    "description": "Aid Response",
    "entries": 1,
    "neighborhood": "Duwamish/SODO",
    "neighborhoodGroup": "Greater Duwamish",
    "unitCount": 1,
    "severity": 0,
    "units": "E10",
    "address": "Occidental Av S / Railroad Way S"
  },
  {
    "id_str": "F190105811",
    "created_at": "10/3/2019 8:53:42 PM",
    "lat": 47.637091,
    "long": -122.305503,
    "timestamp": 1570161222000,
    "description": "Medic Response, 7 per Rule",
    "entries": 4,
    "neighborhood": "Montlake/Portage Bay",
    "neighborhoodGroup": "Northeast",
    "unitCount": 5,
    "severity": 1,
    "units": "E22 E25 E34 M10 M44",
    "address": "2005 Boyer Av E"
  },
  {
    "id_str": "F190105810",
    "created_at": "10/3/2019 8:52:13 PM",
    "lat": 47.619114,
    "long": -122.299874,
    "timestamp": 1570161133000,
    "description": "Aid Response",
    "entries": 1,
    "neighborhood": "Central Area/Squire Park",
    "neighborhoodGroup": "Central",
    "unitCount": 1,
    "severity": 0,
    "units": "A25",
    "address": "116 25th Av E"
  },
  {
    "id_str": "F190105809",
    "created_at": "10/3/2019 8:47:43 PM",
    "lat": 47.650543,
    "long": -122.307616,
    "timestamp": 1570160863000,
    "description": "Aid Response",
    "entries": 1,
    "neighborhood": "University District",
    "neighborhoodGroup": "Northeast",
    "unitCount": 1,
    "severity": 0,
    "units": "E17",
    "address": "Ne Pacific Pl / Ne Pacific St"
  },
  {
    "id_str": "F190105808",
    "created_at": "10/3/2019 8:44:02 PM",
    "lat": 47.676071,
    "long": -122.35128,
    "timestamp": 1570160642000,
    "description": "Aid Response Yellow",
    "entries": 1,
    "neighborhood": "Greenwood/Phinney Ridge",
    "neighborhoodGroup": "Northwest",
    "unitCount": 1,
    "severity": 0,
    "units": "E21",
    "address": "606 N 65th St"
  },
  {
    "id_str": "F190105807",
    "created_at": "10/3/2019 8:42:03 PM",
    "lat": 47.608228,
    "long": -122.334866,
    "timestamp": 1570160523000,
    "description": "Medic Response",
    "entries": 1,
    "neighborhood": "Downtown Commercial Core",
    "neighborhoodGroup": "Downtown",
    "unitCount": 2,
    "severity": 0,
    "units": "A10 M1",
    "address": "1301 4th Av"
  },
  {
    "id_str": "F190105806",
    "created_at": "10/3/2019 8:41:38 PM",
    "lat": 47.726852,
    "long": -122.334197,
    "timestamp": 1570160498000,
    "description": "Medic Response",
    "entries": 2,
    "neighborhood": "Haller Lake",
    "neighborhoodGroup": "Northwest",
    "unitCount": 2,
    "severity": 0,
    "units": "L5 M17",
    "address": "N 135th St / Meridian Av N"
  },
  {
    "id_str": "F190105805",
    "created_at": "10/3/2019 8:41:13 PM",
    "lat": 47.602985,
    "long": -122.328535,
    "timestamp": 1570160473000,
    "description": "Aid Response",
    "entries": 1,
    "neighborhood": "First Hill",
    "neighborhoodGroup": "East",
    "unitCount": 1,
    "severity": 0,
    "units": "A5",
    "address": "500 5th Av"
  },
  {
    "id_str": "F190105804",
    "created_at": "10/3/2019 8:37:52 PM",
    "lat": 47.729078,
    "long": -122.368447,
    "timestamp": 1570160272000,
    "description": "Medic Response",
    "entries": 1,
    "neighborhood": "Broadview/Bitter Lake",
    "neighborhoodGroup": "Northwest",
    "unitCount": 2,
    "severity": 0,
    "units": "E24 M31",
    "address": "930 Nw Elford Dr"
  },
  {
    "id_str": "F190105803",
    "created_at": "10/3/2019 8:35:25 PM",
    "lat": 47.719378,
    "long": -122.292729,
    "timestamp": 1570160125000,
    "description": "Aid Response",
    "entries": 1,
    "neighborhood": "Cedar Park/Meadowbrook",
    "neighborhoodGroup": "North",
    "unitCount": 1,
    "severity": 0,
    "units": "E39",
    "address": "12517 33rd Av Ne"
  },
  {
    "id_str": "F190105802",
    "created_at": "10/3/2019 8:34:21 PM",
    "lat": 47.521023,
    "long": -122.366095,
    "timestamp": 1570160061000,
    "description": "Aid Response",
    "entries": 1,
    "neighborhood": "Roxhill/Westwood",
    "neighborhoodGroup": "Delridge Neighborhoods",
    "unitCount": 1,
    "severity": 0,
    "units": "E11",
    "address": "2615 Sw Barton St"
  },
  {
    "id_str": "F190105801",
    "created_at": "10/3/2019 8:33:38 PM",
    "lat": 47.531589,
    "long": -122.266079,
    "timestamp": 1570160018000,
    "description": "Aid Response",
    "entries": 1,
    "neighborhood": "Rainier Beach",
    "neighborhoodGroup": "Southeast",
    "unitCount": 1,
    "severity": 0,
    "units": "E28",
    "address": "5317 S Kenyon St"
  },
  {
    "id_str": "F190105800",
    "created_at": "10/3/2019 8:31:11 PM",
    "lat": 47.535114,
    "long": -122.363169,
    "timestamp": 1570159871000,
    "description": "Medic Response",
    "entries": 1,
    "neighborhood": "High Point",
    "neighborhoodGroup": "Delridge Neighborhoods",
    "unitCount": 2,
    "severity": 0,
    "units": "E37 M32",
    "address": "7544 24th Av Sw"
  },
  {
    "id_str": "F190105798",
    "created_at": "10/3/2019 8:27:16 PM",
    "lat": 47.521679,
    "long": -122.264284,
    "timestamp": 1570159636000,
    "description": "Aid Response",
    "entries": 1,
    "neighborhood": "Rainier Beach",
    "neighborhoodGroup": "Southeast",
    "unitCount": 1,
    "severity": 0,
    "units": "E33",
    "address": "9061 Seward Park Av S"
  },
  {
    "id_str": "F190105797",
    "created_at": "10/3/2019 8:18:10 PM",
    "lat": 47.701437,
    "long": -122.344651,
    "timestamp": 1570159090000,
    "description": "Aid Response",
    "entries": 1,
    "neighborhood": "Licton Springs",
    "neighborhoodGroup": "Northwest",
    "unitCount": 1,
    "severity": 0,
    "units": "A31",
    "address": "10002 Aurora Av N"
  },
  {
    "id_str": "F190105796",
    "created_at": "10/3/2019 8:14:50 PM",
    "lat": 47.612036,
    "long": -122.326069,
    "timestamp": 1570158890000,
    "description": "Aid Response",
    "entries": 1,
    "neighborhood": "First Hill",
    "neighborhoodGroup": "East",
    "unitCount": 1,
    "severity": 0,
    "units": "A25",
    "address": "1310 Minor Av"
  },
  {
    "id_str": "F190105795",
    "created_at": "10/3/2019 8:07:48 PM",
    "lat": 47.54568,
    "long": -122.273713,
    "timestamp": 1570158468000,
    "description": "Medic Response",
    "entries": 2,
    "neighborhood": "Seward Park",
    "neighborhoodGroup": "Southeast",
    "unitCount": 2,
    "severity": 0,
    "units": "E28 M10",
    "address": "6320 47th Av S"
  },
  {
    "id_str": "F190105794",
    "created_at": "10/3/2019 8:03:59 PM",
    "lat": 47.62714,
    "long": -122.318047,
    "timestamp": 1570158239000,
    "description": "Auto Fire Alarm",
    "entries": 1,
    "neighborhood": "North Capitol Hill",
    "neighborhoodGroup": "East",
    "unitCount": 2,
    "severity": 0,
    "units": "E25 L10",
    "address": "941 11TH AV E"
  },
  {
    "id_str": "F190105792",
    "created_at": "10/3/2019 7:57:27 PM",
    "lat": 47.60577,
    "long": -122.321877,
    "timestamp": 1570157847000,
    "description": "Aid Response",
    "entries": 1,
    "neighborhood": "First Hill",
    "neighborhoodGroup": "East",
    "unitCount": 1,
    "severity": 0,
    "units": "A10",
    "address": "Jefferson St / Boren Av"
  },
  {
    "id_str": "F190105789",
    "created_at": "10/3/2019 7:40:03 PM",
    "lat": 47.732921,
    "long": -122.312735,
    "timestamp": 1570156803000,
    "description": "Aid Response",
    "entries": 1,
    "neighborhood": "Olympic Hills/Victory Heights",
    "neighborhoodGroup": "North",
    "unitCount": 1,
    "severity": 0,
    "units": "E39",
    "address": "14359 15TH AV NE"
  },
  {
    "id_str": "F190105788",
    "created_at": "10/3/2019 7:36:43 PM",
    "lat": 47.561845,
    "long": -122.310824,
    "timestamp": 1570156603000,
    "description": "Medic Response",
    "entries": 1,
    "neighborhood": "North Beacon Hill/Jefferson Park",
    "neighborhoodGroup": "Greater Duwamish",
    "unitCount": 2,
    "severity": 0,
    "units": "E13 M28",
    "address": "1660 S Columbian Way"
  },
  {
    "id_str": "F190105787",
    "created_at": "10/3/2019 7:33:54 PM",
    "lat": 47.670183,
    "long": -122.384743,
    "timestamp": 1570156434000,
    "description": "Medic Response",
    "entries": 1,
    "neighborhood": "Ballard",
    "neighborhoodGroup": "Ballard",
    "unitCount": 2,
    "severity": 0,
    "units": "E18 M18",
    "address": "5701 22nd Av Nw"
  },
  {
    "id_str": "F190105786",
    "created_at": "10/3/2019 7:29:32 PM",
    "lat": 47.615473,
    "long": -122.346094,
    "timestamp": 1570156172000,
    "description": "Aid Response",
    "entries": 1,
    "neighborhood": "Cascade/Eastlake",
    "neighborhoodGroup": "Lake Union",
    "unitCount": 1,
    "severity": 0,
    "units": "A4",
    "address": "2400 3rd Av"
  },
  {
    "id_str": "F190105784",
    "created_at": "10/3/2019 7:23:46 PM",
    "lat": 47.600859,
    "long": -122.291987,
    "timestamp": 1570155826000,
    "description": "Medic Response",
    "entries": 2,
    "neighborhood": "Madrona/Leschi",
    "neighborhoodGroup": "Central",
    "unitCount": 2,
    "severity": 0,
    "units": "A10 M1",
    "address": "3121 S Washington St"
  },
  {
    "id_str": "F190105781",
    "created_at": "10/3/2019 7:17:30 PM",
    "lat": 47.593387,
    "long": -122.287861,
    "timestamp": 1570155450000,
    "description": "MVI - Motor Vehicle Incident",
    "entries": 2,
    "neighborhood": "Madrona/Leschi",
    "neighborhoodGroup": "Central",
    "unitCount": 2,
    "severity": 0,
    "units": "E6 L3",
    "address": "1107 Lakeside Av S"
  },
  {
    "id_str": "F190105780",
    "created_at": "10/3/2019 7:06:03 PM",
    "lat": 47.659626,
    "long": -122.320836,
    "timestamp": 1570154763000,
    "description": "Medic Response, 7 per Rule",
    "entries": 1,
    "neighborhood": "Wallingford",
    "neighborhoodGroup": "Lake Union",
    "unitCount": 3,
    "severity": 0,
    "units": "E17 E31 M17",
    "address": "4315 7th Av Ne"
  },
  {
    "id_str": "F190105779",
    "created_at": "10/3/2019 7:04:57 PM",
    "lat": 47.603233,
    "long": -122.330297,
    "timestamp": 1570154697000,
    "description": "Medic Response",
    "entries": 1,
    "neighborhood": "Downtown Commercial Core",
    "neighborhoodGroup": "Downtown",
    "unitCount": 2,
    "severity": 0,
    "units": "A5 M10",
    "address": "600 4th Av"
  },
  {
    "id_str": "F190105778",
    "created_at": "10/3/2019 6:59:12 PM",
    "lat": 47.53025,
    "long": -122.269989,
    "timestamp": 1570154352000,
    "description": "Aid Response",
    "entries": 1,
    "neighborhood": "Rainier Beach",
    "neighborhoodGroup": "Southeast",
    "unitCount": 1,
    "severity": 0,
    "units": "E33",
    "address": "8124 Rainier Av S"
  },
  {
    "id_str": "F190105777",
    "created_at": "10/3/2019 6:58:46 PM",
    "lat": 47.620961,
    "long": -122.361282,
    "timestamp": 1570154326000,
    "description": "Auto Fire Alarm",
    "entries": 1,
    "neighborhood": "Queen Anne",
    "neighborhoodGroup": "Magnolia/Queen Anne",
    "unitCount": 2,
    "severity": 0,
    "units": "E2 L4",
    "address": "300 Elliott Av W"
  },
  {
    "id_str": "F190105774",
    "created_at": "10/3/2019 6:45:27 PM",
    "lat": 47.617717,
    "long": -122.330057,
    "timestamp": 1570153527000,
    "description": "Aid Response",
    "entries": 1,
    "neighborhood": "Cascade/Eastlake",
    "neighborhoodGroup": "Lake Union",
    "unitCount": 1,
    "severity": 0,
    "units": "A2",
    "address": "1828 Yale Av"
  },
  {
    "id_str": "F190105775",
    "created_at": "10/3/2019 6:45:27 PM",
    "lat": 47.624588,
    "long": -122.358069,
    "timestamp": 1570153527000,
    "description": "Aid Response",
    "entries": 1,
    "neighborhood": "Queen Anne",
    "neighborhoodGroup": "Magnolia/Queen Anne",
    "unitCount": 1,
    "severity": 0,
    "units": "L6",
    "address": "105 W Mercer St"
  },
  {
    "id_str": "F190105773",
    "created_at": "10/3/2019 6:39:03 PM",
    "lat": 47.600194,
    "long": -122.330541,
    "timestamp": 1570153143000,
    "description": "Aid Response",
    "entries": 1,
    "neighborhood": "Pioneer Square/International District",
    "neighborhoodGroup": "Downtown",
    "unitCount": 1,
    "severity": 0,
    "units": "A10",
    "address": "318 2nd Av Et S"
  },
  {
    "id_str": "F190105771",
    "created_at": "10/3/2019 6:22:38 PM",
    "lat": 47.619736,
    "long": -122.331697,
    "timestamp": 1570152158000,
    "description": "Aid Response",
    "entries": 1,
    "neighborhood": "Cascade/Eastlake",
    "neighborhoodGroup": "Lake Union",
    "unitCount": 1,
    "severity": 0,
    "units": "A4",
    "address": "207 Pontius Av N"
  },
  {
    "id_str": "F190105770",
    "created_at": "10/3/2019 6:15:07 PM",
    "lat": 47.643961,
    "long": -122.304098,
    "timestamp": 1570151707000,
    "description": "Aid Response",
    "entries": 1,
    "neighborhood": "Montlake/Portage Bay",
    "neighborhoodGroup": "Northeast",
    "unitCount": 1,
    "severity": 0,
    "units": "E22",
    "address": "East Montlake Pl E / Montlake Blvd E"
  },
  {
    "id_str": "F190105768",
    "created_at": "10/3/2019 6:11:04 PM",
    "lat": 47.533268,
    "long": -122.365821,
    "timestamp": 1570151464000,
    "description": "Aid Response",
    "entries": 1,
    "neighborhood": "Roxhill/Westwood",
    "neighborhoodGroup": "Delridge Neighborhoods",
    "unitCount": 1,
    "severity": 0,
    "units": "E37",
    "address": "7759 26th Av Sw"
  },
  {
    "id_str": "F190105767",
    "created_at": "10/3/2019 6:03:46 PM",
    "lat": 47.691401,
    "long": -122.383214,
    "timestamp": 1570151026000,
    "description": "Aid Response",
    "entries": 1,
    "neighborhood": "North Beach/Blue Ridge",
    "neighborhoodGroup": "Ballard",
    "unitCount": 1,
    "severity": 0,
    "units": "E35",
    "address": "8637 21st Av Nw"
  },
  {
    "id_str": "F190105763",
    "created_at": "10/3/2019 5:55:00 PM",
    "lat": 47.614076,
    "long": -122.32078,
    "timestamp": 1570150500000,
    "description": "Aid Response",
    "entries": 1,
    "neighborhood": "Capitol Hill",
    "neighborhoodGroup": "East",
    "unitCount": 1,
    "severity": 0,
    "units": "A25",
    "address": "E Pike St / Broadway"
  },
  {
    "id_str": "F190105762",
    "created_at": "10/3/2019 5:52:32 PM",
    "lat": 47.619739,
    "long": -122.347611,
    "timestamp": 1570150352000,
    "description": "Aid Response",
    "entries": 1,
    "neighborhood": "Cascade/Eastlake",
    "neighborhoodGroup": "Lake Union",
    "unitCount": 1,
    "severity": 0,
    "units": "A4",
    "address": "201 5th Av N"
  },
  {
    "id_str": "F190105761",
    "created_at": "10/3/2019 5:42:45 PM",
    "lat": 47.579365,
    "long": -122.339981,
    "timestamp": 1570149765000,
    "description": "Aid Response",
    "entries": 1,
    "neighborhood": "Duwamish/SODO",
    "neighborhoodGroup": "Greater Duwamish",
    "unitCount": 1,
    "severity": 0,
    "units": "A14",
    "address": "2715 East Marginal Way S"
  },
  {
    "id_str": "F190105759",
    "created_at": "10/3/2019 5:34:08 PM",
    "lat": 47.617717,
    "long": -122.330057,
    "timestamp": 1570149248000,
    "description": "Aid Response",
    "entries": 1,
    "neighborhood": "Cascade/Eastlake",
    "neighborhoodGroup": "Lake Union",
    "unitCount": 1,
    "severity": 0,
    "units": "A4",
    "address": "1828 Yale Av"
  },
  {
    "id_str": "F190105758",
    "created_at": "10/3/2019 5:32:28 PM",
    "lat": 47.605387,
    "long": -122.327511,
    "timestamp": 1570149148000,
    "description": "Aid Response",
    "entries": 2,
    "neighborhood": "First Hill",
    "neighborhoodGroup": "East",
    "unitCount": 2,
    "severity": 0,
    "units": "A5 E10",
    "address": "710 Cherry St"
  },
  {
    "id_str": "F190105755",
    "created_at": "10/3/2019 5:13:13 PM",
    "lat": 47.615789,
    "long": -122.336507,
    "timestamp": 1570147993000,
    "description": "Aid Response",
    "entries": 1,
    "neighborhood": "Cascade/Eastlake",
    "neighborhoodGroup": "Lake Union",
    "unitCount": 1,
    "severity": 0,
    "units": "A2",
    "address": "810 Virginia St"
  },
  {
    "id_str": "F190105752",
    "created_at": "10/3/2019 5:09:46 PM",
    "lat": 47.610278,
    "long": -122.339812,
    "timestamp": 1570147786000,
    "description": "Medic Response, 7 per Rule",
    "entries": 3,
    "neighborhood": "Downtown Commercial Core",
    "neighborhoodGroup": "Downtown",
    "unitCount": 4,
    "severity": 0,
    "units": "A10 E5 M1 M31",
    "address": "Pine St / 2nd Av"
  },
  {
    "id_str": "F190105751",
    "created_at": "10/3/2019 5:06:37 PM",
    "lat": 47.526268,
    "long": -122.314913,
    "timestamp": 1570147597000,
    "description": "Automatic Fire Alarm Resd",
    "entries": 1,
    "neighborhood": "South Park",
    "neighborhoodGroup": "Greater Duwamish",
    "unitCount": 1,
    "severity": 0,
    "units": "E26",
    "address": "8620 14th Av S"
  },
  {
    "id_str": "F190105750",
    "created_at": "10/3/2019 5:05:47 PM",
    "lat": 47.613451,
    "long": -122.344658,
    "timestamp": 1570147547000,
    "description": "Medic Response",
    "entries": 1,
    "neighborhood": "Belltown",
    "neighborhoodGroup": "Downtown",
    "unitCount": 2,
    "severity": 0,
    "units": "A4 M10",
    "address": "2224 2nd Av"
  },
  {
    "id_str": "F190105749",
    "created_at": "10/3/2019 5:04:23 PM",
    "lat": 47.712319,
    "long": -122.344814,
    "timestamp": 1570147463000,
    "description": "Aid Response Yellow",
    "entries": 2,
    "neighborhood": "Broadview/Bitter Lake",
    "neighborhoodGroup": "Northwest",
    "unitCount": 2,
    "severity": 0,
    "units": "A31 E24",
    "address": "N 115th St / Aurora Av N"
  }
]