[
  {
    "id_str": "F190023965",
    "created_at": "3/8/2019 3:58:15 PM",
    "derived": {
      "lat": 47.691394,
      "long": -122.35665,
      "timestamp": 1552089495000,
      "description": "Aid Response",
      "address": "PALATINE AV N / MORROW LN,Seattle,WA",
      "entries": 1,
      "neighborhood": "Greenwood/Phinney Ridge",
      "neighborhoodGroup": "Northwest",
      "unitCount": 1,
      "severity": 0,
      "units": "E21"
    }
  },
  {
    "id_str": "F190023964",
    "created_at": "3/8/2019 3:57:59 PM",
    "derived": {
      "lat": 47.704354,
      "long": -122.350777,
      "timestamp": 1552089479000,
      "description": "MVI - Motor Vehicle Incident",
      "address": "N 104th St / Evanston Av N,Seattle,WA",
      "entries": 1,
      "neighborhood": "Greenwood/Phinney Ridge",
      "neighborhoodGroup": "Northwest",
      "unitCount": 1,
      "severity": 0,
      "units": "E31"
    }
  },
  {
    "id_str": "F190023961",
    "created_at": "3/8/2019 3:55:44 PM",
    "derived": {
      "lat": 47.606528,
      "long": -122.336381,
      "timestamp": 1552089344000,
      "description": "Aid Response",
      "address": "1191 2nd Av,Seattle,WA",
      "entries": 1,
      "neighborhood": "Downtown Commercial Core",
      "neighborhoodGroup": "Downtown",
      "unitCount": 1,
      "severity": 0,
      "units": "E5"
    }
  },
  {
    "id_str": "F190023962",
    "created_at": "3/8/2019 3:55:25 PM",
    "derived": {
      "lat": 47.612905,
      "long": -122.310168,
      "timestamp": 1552089325000,
      "description": "Aid Response",
      "address": "1700 E Union St,Seattle,WA",
      "entries": 3,
      "neighborhood": "Central Area/Squire Park",
      "neighborhoodGroup": "Central",
      "unitCount": 2,
      "severity": 0,
      "units": "A25 E25"
    }
  },
  {
    "id_str": "F190023960",
    "created_at": "3/8/2019 3:54:23 PM",
    "derived": {
      "lat": 47.609878,
      "long": -122.334842,
      "timestamp": 1552089263000,
      "description": "Auto Fire Alarm",
      "address": "1420 5th Av,Seattle,WA",
      "entries": 1,
      "neighborhood": "Downtown Commercial Core",
      "neighborhoodGroup": "Downtown",
      "unitCount": 2,
      "severity": 0,
      "units": "E2 L3"
    }
  },
  {
    "id_str": "F190023959",
    "created_at": "3/8/2019 3:53:35 PM",
    "derived": {
      "lat": 47.673813,
      "long": -122.37155,
      "timestamp": 1552089215000,
      "description": "Aid Response",
      "address": "1127 Nw 62nd St,Seattle,WA",
      "entries": 1,
      "neighborhood": "Whittier Heights",
      "neighborhoodGroup": "Ballard",
      "unitCount": 1,
      "severity": 0,
      "units": "E18"
    }
  },
  {
    "id_str": "F190023957",
    "created_at": "3/8/2019 3:47:45 PM",
    "derived": {
      "lat": 47.61842,
      "long": -122.30365,
      "timestamp": 1552088865000,
      "description": "Aid Response",
      "address": "2200 E Madison St,Seattle,WA",
      "entries": 2,
      "neighborhood": "Central Area/Squire Park",
      "neighborhoodGroup": "Central",
      "unitCount": 2,
      "severity": 0,
      "units": "A25 E34"
    }
  },
  {
    "id_str": "F190023956",
    "created_at": "3/8/2019 3:47:05 PM",
    "derived": {
      "lat": 47.704379,
      "long": -122.358359,
      "timestamp": 1552088825000,
      "description": "Medic Response",
      "address": "101 N 104th St,Seattle,WA",
      "entries": 2,
      "neighborhood": "North Beach/Blue Ridge",
      "neighborhoodGroup": "Ballard",
      "unitCount": 2,
      "severity": 0,
      "units": "E35 M31"
    }
  },
  {
    "id_str": "F190023955",
    "created_at": "3/8/2019 3:46:45 PM",
    "derived": {
      "lat": 47.558656,
      "long": -122.285443,
      "timestamp": 1552088805000,
      "description": "Aid Response",
      "address": "Rainier Av S / S Edmunds St,Seattle,WA",
      "entries": 1,
      "neighborhood": "Columbia City",
      "neighborhoodGroup": "Southeast",
      "unitCount": 1,
      "severity": 0,
      "units": "E28"
    }
  },
  {
    "id_str": "F190023954",
    "created_at": "3/8/2019 3:45:07 PM",
    "derived": {
      "lat": 47.612309,
      "long": -122.318031,
      "timestamp": 1552088707000,
      "description": "Rescue Elevator",
      "address": "1107 E Madison St,Seattle,WA",
      "entries": 1,
      "neighborhood": "Capitol Hill",
      "neighborhoodGroup": "East",
      "unitCount": 1,
      "severity": 0,
      "units": "L10"
    }
  },
  {
    "id_str": "F190023953",
    "created_at": "3/8/2019 3:43:44 PM",
    "derived": {
      "lat": 47.659108,
      "long": -122.362935,
      "timestamp": 1552088624000,
      "description": "Aid Response",
      "address": "4307 5th Av Nw,Seattle,WA",
      "entries": 1,
      "neighborhood": "Fremont",
      "neighborhoodGroup": "Lake Union",
      "unitCount": 1,
      "severity": 0,
      "units": "E9"
    }
  },
  {
    "id_str": "F190023952",
    "created_at": "3/8/2019 3:42:27 PM",
    "derived": {
      "lat": 47.604377,
      "long": -122.325207,
      "timestamp": 1552088547000,
      "description": "Auto Fire Alarm",
      "address": "800 Jefferson St,Seattle,WA",
      "entries": 1,
      "neighborhood": "First Hill",
      "neighborhoodGroup": "East",
      "unitCount": 2,
      "severity": 0,
      "units": "E25 L1"
    }
  },
  {
    "id_str": "F190023951",
    "created_at": "3/8/2019 3:40:01 PM",
    "derived": {
      "lat": 47.591389,
      "long": -122.388807,
      "timestamp": 1552088401000,
      "description": "Automatic Fire Alarm Resd",
      "address": "1414 Sunset Av Sw,Seattle,WA",
      "entries": 1,
      "neighborhood": "Alki/Admiral",
      "neighborhoodGroup": "Southwest",
      "unitCount": 1,
      "severity": 0,
      "units": "E29"
    }
  },
  {
    "id_str": "F190023948",
    "created_at": "3/8/2019 3:22:09 PM",
    "derived": {
      "lat": 47.615278,
      "long": -122.311462,
      "timestamp": 1552087329000,
      "description": "Medic Response",
      "address": "1601 16th Av,Seattle,WA",
      "entries": 3,
      "neighborhood": "Central Area/Squire Park",
      "neighborhoodGroup": "Central",
      "unitCount": 3,
      "severity": 0,
      "units": "A25 E25 M10"
    }
  },
  {
    "id_str": "F190023947",
    "created_at": "3/8/2019 3:18:10 PM",
    "derived": {
      "lat": 47.582912,
      "long": -122.310784,
      "timestamp": 1552087090000,
      "description": "Aid Response",
      "address": "2306 17th Av S,Seattle,WA",
      "entries": 1,
      "neighborhood": "North Beacon Hill/Jefferson Park",
      "neighborhoodGroup": "Greater Duwamish",
      "unitCount": 1,
      "severity": 0,
      "units": "E13"
    }
  },
  {
    "id_str": "F190023946",
    "created_at": "3/8/2019 3:12:48 PM",
    "derived": {
      "lat": 47.60975,
      "long": -122.337793,
      "timestamp": 1552086768000,
      "description": "Aid Response",
      "address": "3rd Av / Pike St,Seattle,WA",
      "entries": 1,
      "neighborhood": "Downtown Commercial Core",
      "neighborhoodGroup": "Downtown",
      "unitCount": 1,
      "severity": 0,
      "units": "E5"
    }
  },
  {
    "id_str": "F190023945",
    "created_at": "3/8/2019 3:10:32 PM",
    "derived": {
      "lat": 47.619215,
      "long": -122.302545,
      "timestamp": 1552086632000,
      "description": "Aid Response",
      "address": "109 23rd Av E,Seattle,WA",
      "entries": 1,
      "neighborhood": "Central Area/Squire Park",
      "neighborhoodGroup": "Central",
      "unitCount": 1,
      "severity": 0,
      "units": "A25"
    }
  },
  {
    "id_str": "F190023944",
    "created_at": "3/8/2019 3:02:30 PM",
    "derived": {
      "lat": 47.618002,
      "long": -122.329182,
      "timestamp": 1552086150000,
      "description": "Aid Response",
      "address": "1811 Eastlake Av,Seattle,WA",
      "entries": 1,
      "neighborhood": "Cascade/Eastlake",
      "neighborhoodGroup": "Lake Union",
      "unitCount": 1,
      "severity": 0,
      "units": "A4"
    }
  },
  {
    "id_str": "F190023942",
    "created_at": "3/8/2019 3:00:39 PM",
    "derived": {
      "lat": 47.60252,
      "long": -122.329645,
      "timestamp": 1552086039000,
      "description": "Aid Response",
      "address": "500 4th Av,Seattle,WA",
      "entries": 1,
      "neighborhood": "Downtown Commercial Core",
      "neighborhoodGroup": "Downtown",
      "unitCount": 1,
      "severity": 0,
      "units": "L1"
    }
  },
  {
    "id_str": "F190023941",
    "created_at": "3/8/2019 2:59:49 PM",
    "derived": {
      "lat": 47.588227,
      "long": -122.329051,
      "timestamp": 1552085989000,
      "description": "Aid Response",
      "address": "4th Av S / S Massachusetts St,Seattle,WA",
      "entries": 1,
      "neighborhood": "Duwamish/SODO",
      "neighborhoodGroup": "Greater Duwamish",
      "unitCount": 1,
      "severity": 0,
      "units": "E10"
    }
  },
  {
    "id_str": "F190023940",
    "created_at": "3/8/2019 2:58:24 PM",
    "derived": {
      "lat": 47.631254,
      "long": -122.390196,
      "timestamp": 1552085904000,
      "description": "Aid Response",
      "address": "2601 W Marina Pl,Seattle,WA",
      "entries": 1,
      "neighborhood": "Interbay",
      "neighborhoodGroup": "Magnolia/Queen Anne",
      "unitCount": 1,
      "severity": 0,
      "units": "E41"
    }
  },
  {
    "id_str": "F190023939",
    "created_at": "3/8/2019 2:54:15 PM",
    "derived": {
      "lat": 47.727356,
      "long": -122.345022,
      "timestamp": 1552085655000,
      "description": "Aid Response",
      "address": "13555 Aurora Av N,Seattle,WA",
      "entries": 2,
      "neighborhood": "Haller Lake",
      "neighborhoodGroup": "Northwest",
      "unitCount": 2,
      "severity": 0,
      "units": "E31 L5"
    }
  },
  {
    "id_str": "F190023937",
    "created_at": "3/8/2019 2:49:52 PM",
    "derived": {
      "lat": 47.59745,
      "long": -122.317227,
      "timestamp": 1552085392000,
      "description": "Medic Response, 7 per Rule",
      "address": "606 12th Av S,Seattle,WA",
      "entries": 1,
      "neighborhood": "Pioneer Square/International District",
      "neighborhoodGroup": "Downtown",
      "unitCount": 3,
      "severity": 0,
      "units": "E10 L3 M32"
    }
  },
  {
    "id_str": "F190023936",
    "created_at": "3/8/2019 2:49:34 PM",
    "derived": {
      "lat": 47.59745,
      "long": -122.317227,
      "timestamp": 1552085374000,
      "description": "Medic Response, 7 per Rule",
      "address": "606 12th Av S,Seattle,WA",
      "entries": 3,
      "neighborhood": "Pioneer Square/International District",
      "neighborhoodGroup": "Downtown",
      "unitCount": 3,
      "severity": 0,
      "units": "A5 E6 M10"
    }
  },
  {
    "id_str": "F190023935",
    "created_at": "3/8/2019 2:46:48 PM",
    "derived": {
      "lat": 47.537046,
      "long": -122.283397,
      "timestamp": 1552085208000,
      "description": "Aid Response",
      "address": "3900 S Othello St,Seattle,WA",
      "entries": 1,
      "neighborhood": "South Beacon Hill/NewHolly",
      "neighborhoodGroup": "Greater Duwamish",
      "unitCount": 1,
      "severity": 0,
      "units": "L12"
    }
  },
  {
    "id_str": "F190023931",
    "created_at": "3/8/2019 2:33:52 PM",
    "derived": {
      "lat": 47.623472,
      "long": -122.358023,
      "timestamp": 1552084432000,
      "description": "Medic Response",
      "address": "516 1st Av W,Seattle,WA",
      "entries": 3,
      "neighborhood": "Queen Anne",
      "neighborhoodGroup": "Magnolia/Queen Anne",
      "unitCount": 3,
      "severity": 0,
      "units": "E2 E8 M1"
    }
  },
  {
    "id_str": "F190023930",
    "created_at": "3/8/2019 2:22:21 PM",
    "derived": {
      "lat": 47.730207,
      "long": -122.293784,
      "timestamp": 1552083741000,
      "description": "Aid Response",
      "address": "14014 32nd Av Ne,Seattle,WA",
      "entries": 1,
      "neighborhood": "Cedar Park/Meadowbrook",
      "neighborhoodGroup": "North",
      "unitCount": 1,
      "severity": 0,
      "units": "E39"
    }
  },
  {
    "id_str": "F190023927",
    "created_at": "3/8/2019 2:12:51 PM",
    "derived": {
      "lat": 47.708602,
      "long": -122.324588,
      "timestamp": 1552083171000,
      "description": "Aid Response",
      "address": "401 Ne Northgate Way,Seattle,WA",
      "entries": 1,
      "neighborhood": "Northgate/Maple Leaf",
      "neighborhoodGroup": "North",
      "unitCount": 1,
      "severity": 0,
      "units": "L5"
    }
  },
  {
    "id_str": "F190023926",
    "created_at": "3/8/2019 2:12:35 PM",
    "derived": {
      "lat": 47.726199,
      "long": -122.355554,
      "timestamp": 1552083155000,
      "description": "MVI - Motor Vehicle Incident",
      "address": "13433 Greenwood Av N,Seattle,WA",
      "entries": 2,
      "neighborhood": "Broadview/Bitter Lake",
      "neighborhoodGroup": "Northwest",
      "unitCount": 2,
      "severity": 0,
      "units": "A14 E31"
    }
  },
  {
    "id_str": "F190023925",
    "created_at": "3/8/2019 2:11:05 PM",
    "derived": {
      "lat": 47.502587,
      "long": -122.266923,
      "timestamp": 1552083065000,
      "description": "Medic Response",
      "address": "5345 S Leo St,Seattle,WA",
      "entries": 3,
      "neighborhood": "Rainier Beach",
      "neighborhoodGroup": "Southeast",
      "unitCount": 3,
      "severity": 0,
      "units": "E28 L12 M28"
    }
  },
  {
    "id_str": "F190023924",
    "created_at": "3/8/2019 2:08:06 PM",
    "derived": {
      "lat": 47.509514,
      "long": -122.263066,
      "timestamp": 1552082886000,
      "description": "Aid Response",
      "address": "10225 56th Av S,Seattle,WA",
      "entries": 1,
      "neighborhood": "Rainier Beach",
      "neighborhoodGroup": "Southeast",
      "unitCount": 1,
      "severity": 0,
      "units": "E33"
    }
  },
  {
    "id_str": "F190023923",
    "created_at": "3/8/2019 2:08:06 PM",
    "derived": {
      "lat": 47.61523,
      "long": -122.323087,
      "timestamp": 1552082886000,
      "description": "Aid Response",
      "address": "725 E Pine St,Seattle,WA",
      "entries": 1,
      "neighborhood": "Capitol Hill",
      "neighborhoodGroup": "East",
      "unitCount": 1,
      "severity": 0,
      "units": "A25"
    }
  },
  {
    "id_str": "F190023922",
    "created_at": "3/8/2019 2:05:33 PM",
    "derived": {
      "lat": 47.561106,
      "long": -122.386778,
      "timestamp": 1552082733000,
      "description": "Aid Response",
      "address": "4700 California Av Sw,Seattle,WA",
      "entries": 1,
      "neighborhood": "West Seattle Junction/Genesee Hill",
      "neighborhoodGroup": "Southwest",
      "unitCount": 1,
      "severity": 0,
      "units": "E32"
    }
  },
  {
    "id_str": "F190023921",
    "created_at": "3/8/2019 2:04:48 PM",
    "derived": {
      "lat": 47.723218,
      "long": -122.348195,
      "timestamp": 1552082688000,
      "description": "Aid Response",
      "address": "13000 Linden Av N,Seattle,WA",
      "entries": 1,
      "neighborhood": "Broadview/Bitter Lake",
      "neighborhoodGroup": "Northwest",
      "unitCount": 1,
      "severity": 0,
      "units": "E24"
    }
  },
  {
    "id_str": "F190023920",
    "created_at": "3/8/2019 2:00:00 PM",
    "derived": {
      "lat": 47.637505,
      "long": -122.358277,
      "timestamp": 1552082400000,
      "description": "Aid Response",
      "address": "2102 1st Av W,Seattle,WA",
      "entries": 1,
      "neighborhood": "Queen Anne",
      "neighborhoodGroup": "Magnolia/Queen Anne",
      "unitCount": 1,
      "severity": 0,
      "units": "L6"
    }
  },
  {
    "id_str": "F190023919",
    "created_at": "3/8/2019 1:56:56 PM",
    "derived": {
      "lat": 47.61015,
      "long": -122.333556,
      "timestamp": 1552082216000,
      "description": "Aid Response",
      "address": "1400 6th Av,Seattle,WA",
      "entries": 1,
      "neighborhood": "First Hill",
      "neighborhoodGroup": "East",
      "unitCount": 1,
      "severity": 0,
      "units": "A5"
    }
  },
  {
    "id_str": "F190023918",
    "created_at": "3/8/2019 1:55:12 PM",
    "derived": {
      "lat": 47.545399,
      "long": -122.299791,
      "timestamp": 1552082112000,
      "description": "Aid Response",
      "address": "2523 S Eddy St,Seattle,WA",
      "entries": 1,
      "neighborhood": "South Beacon Hill/NewHolly",
      "neighborhoodGroup": "Greater Duwamish",
      "unitCount": 1,
      "severity": 0,
      "units": "E28"
    }
  },
  {
    "id_str": "F190023916",
    "created_at": "3/8/2019 1:50:32 PM",
    "derived": {
      "lat": 47.619744,
      "long": -122.348859,
      "timestamp": 1552081832000,
      "description": "Aid Response",
      "address": "400 Broad St,Seattle,WA",
      "entries": 1,
      "neighborhood": "Cascade/Eastlake",
      "neighborhoodGroup": "Lake Union",
      "unitCount": 1,
      "severity": 0,
      "units": "E8"
    }
  },
  {
    "id_str": "F190023915",
    "created_at": "3/8/2019 1:46:32 PM",
    "derived": {
      "lat": 47.609285,
      "long": -122.338904,
      "timestamp": 1552081592000,
      "description": "Rescue Elevator",
      "address": "1501 2nd Av,Seattle,WA",
      "entries": 1,
      "neighborhood": "Downtown Commercial Core",
      "neighborhoodGroup": "Downtown",
      "unitCount": 1,
      "severity": 0,
      "units": "L1"
    }
  },
  {
    "id_str": "F190023913",
    "created_at": "3/8/2019 1:45:05 PM",
    "derived": {
      "lat": 47.611074,
      "long": -122.340638,
      "timestamp": 1552081505000,
      "description": "Aid Response",
      "address": "1915 2nd Av,Seattle,WA",
      "entries": 1,
      "neighborhood": "Belltown",
      "neighborhoodGroup": "Downtown",
      "unitCount": 1,
      "severity": 0,
      "units": "E2"
    }
  },
  {
    "id_str": "F190023914",
    "created_at": "3/8/2019 1:44:40 PM",
    "derived": {
      "lat": 47.677283,
      "long": -122.317383,
      "timestamp": 1552081480000,
      "description": "Aid Response",
      "address": "6700 ROOSEVELT WAY NE,Seattle,WA",
      "entries": 3,
      "neighborhood": "Ravenna/Bryant",
      "neighborhoodGroup": "Northeast",
      "unitCount": 3,
      "severity": 0,
      "units": "A31 E17 M17"
    }
  },
  {
    "id_str": "F190023912",
    "created_at": "3/8/2019 1:43:02 PM",
    "derived": {
      "lat": 47.640034,
      "long": -122.399621,
      "timestamp": 1552081382000,
      "description": "Aid Response",
      "address": "33RD AV W / W WHEELER ST,Seattle,WA",
      "entries": 1,
      "neighborhood": "Magnolia",
      "neighborhoodGroup": "Magnolia/Queen Anne",
      "unitCount": 1,
      "severity": 0,
      "units": "E41"
    }
  },
  {
    "id_str": "F190023911",
    "created_at": "3/8/2019 1:41:36 PM",
    "derived": {
      "lat": 47.606088,
      "long": -122.332909,
      "timestamp": 1552081296000,
      "description": "Aid Response",
      "address": "1000 4th Av,Seattle,WA",
      "entries": 2,
      "neighborhood": "Downtown Commercial Core",
      "neighborhoodGroup": "Downtown",
      "unitCount": 2,
      "severity": 0,
      "units": "A4 E2"
    }
  },
  {
    "id_str": "F190023909",
    "created_at": "3/8/2019 1:34:17 PM",
    "derived": {
      "lat": 47.603429,
      "long": -122.335081,
      "timestamp": 1552080857000,
      "description": "Aid Response",
      "address": "823 1st Av,Seattle,WA",
      "entries": 1,
      "neighborhood": "Downtown Commercial Core",
      "neighborhoodGroup": "Downtown",
      "unitCount": 1,
      "severity": 0,
      "units": "R1"
    }
  },
  {
    "id_str": "F190023908",
    "created_at": "3/8/2019 1:30:59 PM",
    "derived": {
      "lat": 47.605432,
      "long": -122.33231,
      "timestamp": 1552080659000,
      "description": "Medic Response",
      "address": "909 4th Av,Seattle,WA",
      "entries": 2,
      "neighborhood": "Downtown Commercial Core",
      "neighborhoodGroup": "Downtown",
      "unitCount": 2,
      "severity": 0,
      "units": "A2 M10"
    }
  },
  {
    "id_str": "F190023907",
    "created_at": "3/8/2019 1:27:00 PM",
    "derived": {
      "lat": 47.568074,
      "long": -122.322674,
      "timestamp": 1552080420000,
      "description": "MVI - Motor Vehicle Incident",
      "address": "S Andover St / Airport Way S,Seattle,WA",
      "entries": 1,
      "neighborhood": "Duwamish/SODO",
      "neighborhoodGroup": "Greater Duwamish",
      "unitCount": 1,
      "severity": 0,
      "units": "E13"
    }
  },
  {
    "id_str": "F190023905",
    "created_at": "3/8/2019 1:25:40 PM",
    "derived": {
      "lat": 47.603877,
      "long": -122.321685,
      "timestamp": 1552080340000,
      "description": "Fire in Building",
      "address": "Terry Av / Alder St,Seattle,WA",
      "entries": 2,
      "neighborhood": "First Hill",
      "neighborhoodGroup": "East",
      "unitCount": 19,
      "severity": 2,
      "units": "A5 AIR10 B2 B5 DEP1 E10 E2 E25 E30 E6 L1 L10 L3 M10 M44 R1 REHAB1 SAFT2 STAF10"
    }
  },
  {
    "id_str": "F190023904",
    "created_at": "3/8/2019 1:23:13 PM",
    "derived": {
      "lat": 47.608665,
      "long": -122.329131,
      "timestamp": 1552080193000,
      "description": "Auto Fire Alarm",
      "address": "1102 8th Av,Seattle,WA",
      "entries": 1,
      "neighborhood": "First Hill",
      "neighborhoodGroup": "East",
      "unitCount": 2,
      "severity": 0,
      "units": "E5 L1"
    }
  },
  {
    "id_str": "F190023903",
    "created_at": "3/8/2019 1:21:44 PM",
    "derived": {
      "lat": 47.731129,
      "long": -122.345064,
      "timestamp": 1552080104000,
      "description": "Auto Fire Alarm",
      "address": "14115 Aurora Av N,Seattle,WA",
      "entries": 2,
      "neighborhood": "Haller Lake",
      "neighborhoodGroup": "Northwest",
      "unitCount": 4,
      "severity": 0,
      "units": "B6 E24 E31 L5"
    }
  },
  {
    "id_str": "F190023901",
    "created_at": "3/8/2019 1:12:05 PM",
    "derived": {
      "lat": 47.675958,
      "long": -122.261437,
      "timestamp": 1552079525000,
      "description": "Aid Response",
      "address": "6524 62nd Av Ne,Seattle,WA",
      "entries": 1,
      "neighborhood": "Laurelhurst/Sand Point",
      "neighborhoodGroup": "Northeast",
      "unitCount": 1,
      "severity": 0,
      "units": "E38"
    }
  },
  {
    "id_str": "F190023900",
    "created_at": "3/8/2019 1:07:31 PM",
    "derived": {
      "lat": 47.620099,
      "long": -122.320876,
      "timestamp": 1552079251000,
      "description": "Aid Response",
      "address": "217 Broadway E,Seattle,WA",
      "entries": 1,
      "neighborhood": "Capitol Hill",
      "neighborhoodGroup": "East",
      "unitCount": 1,
      "severity": 0,
      "units": "A25"
    }
  },
  {
    "id_str": "F190023899",
    "created_at": "3/8/2019 1:00:25 PM",
    "derived": {
      "lat": 47.679472,
      "long": -122.310933,
      "timestamp": 1552078825000,
      "description": "Aid Response",
      "address": "7011 16th Av Ne,Seattle,WA",
      "entries": 1,
      "neighborhood": "Ravenna/Bryant",
      "neighborhoodGroup": "Northeast",
      "unitCount": 1,
      "severity": 0,
      "units": "E16"
    }
  },
  {
    "id_str": "F190023898",
    "created_at": "3/8/2019 12:55:49 PM",
    "derived": {
      "lat": 47.691163,
      "long": -122.355304,
      "timestamp": 1552078549000,
      "description": "Aid Response",
      "address": "8518 Greenwood Av N,Seattle,WA",
      "entries": 1,
      "neighborhood": "Greenwood/Phinney Ridge",
      "neighborhoodGroup": "Northwest",
      "unitCount": 1,
      "severity": 0,
      "units": "E21"
    }
  },
  {
    "id_str": "F190023897",
    "created_at": "3/8/2019 12:52:57 PM",
    "derived": {
      "lat": 47.597514,
      "long": -122.325742,
      "timestamp": 1552078377000,
      "description": "Medic Response",
      "address": "623 S Weller St,Seattle,WA",
      "entries": 1,
      "neighborhood": "Pioneer Square/International District",
      "neighborhoodGroup": "Downtown",
      "unitCount": 2,
      "severity": 0,
      "units": "L1 M1"
    }
  },
  {
    "id_str": "F190023896",
    "created_at": "3/8/2019 12:51:24 PM",
    "derived": {
      "lat": 47.622394,
      "long": -122.356727,
      "timestamp": 1552078284000,
      "description": "Aid Response",
      "address": "425 Queen Anne Av N,Seattle,WA",
      "entries": 1,
      "neighborhood": "Queen Anne",
      "neighborhoodGroup": "Magnolia/Queen Anne",
      "unitCount": 1,
      "severity": 0,
      "units": "A4"
    }
  },
  {
    "id_str": "F190023895",
    "created_at": "3/8/2019 12:48:57 PM",
    "derived": {
      "lat": 47.652951,
      "long": -122.309007,
      "timestamp": 1552078137000,
      "description": "Aid Response",
      "address": "3781 Okanogan Ln Ne,Seattle,WA",
      "entries": 1,
      "neighborhood": "University District",
      "neighborhoodGroup": "Northeast",
      "unitCount": 1,
      "severity": 0,
      "units": "E17"
    }
  },
  {
    "id_str": "F190023894",
    "created_at": "3/8/2019 12:45:44 PM",
    "derived": {
      "lat": 47.613528,
      "long": -122.332042,
      "timestamp": 1552077944000,
      "description": "Aid Response",
      "address": "9th Av / Pine St,Seattle,WA",
      "entries": 1,
      "neighborhood": "First Hill",
      "neighborhoodGroup": "East",
      "unitCount": 1,
      "severity": 0,
      "units": "A25"
    }
  },
  {
    "id_str": "F190023892",
    "created_at": "3/8/2019 12:43:28 PM",
    "derived": {
      "lat": 47.609343,
      "long": -122.325128,
      "timestamp": 1552077808000,
      "description": "Illegal Burn",
      "address": "1101 Madison St,Seattle,WA",
      "entries": 2,
      "neighborhood": "First Hill",
      "neighborhoodGroup": "East",
      "unitCount": 2,
      "severity": 0,
      "units": "E25 MAR5"
    }
  },
  {
    "id_str": "F190023891",
    "created_at": "3/8/2019 12:40:28 PM",
    "derived": {
      "lat": 47.600044,
      "long": -122.334219,
      "timestamp": 1552077628000,
      "description": "Aid Response",
      "address": "97 S Main St,Seattle,WA",
      "entries": 1,
      "neighborhood": "Pioneer Square/International District",
      "neighborhoodGroup": "Downtown",
      "unitCount": 1,
      "severity": 0,
      "units": "A5"
    }
  },
  {
    "id_str": "F190023890",
    "created_at": "3/8/2019 12:39:07 PM",
    "derived": {
      "lat": 47.611207,
      "long": -122.337592,
      "timestamp": 1552077547000,
      "description": "Aid Response",
      "address": "400 Pine St,Seattle,WA",
      "entries": 1,
      "neighborhood": "Downtown Commercial Core",
      "neighborhoodGroup": "Downtown",
      "unitCount": 1,
      "severity": 0,
      "units": "A4"
    }
  },
  {
    "id_str": "F190023889",
    "created_at": "3/8/2019 12:37:44 PM",
    "derived": {
      "lat": 47.601601,
      "long": -122.302284,
      "timestamp": 1552077464000,
      "description": "Medic Response",
      "address": "113 23rd Av S,Seattle,WA",
      "entries": 2,
      "neighborhood": "Madrona/Leschi",
      "neighborhoodGroup": "Central",
      "unitCount": 2,
      "severity": 0,
      "units": "E6 M10"
    }
  },
  {
    "id_str": "F190023888",
    "created_at": "3/8/2019 12:35:56 PM",
    "derived": {
      "lat": 47.520451,
      "long": -122.336003,
      "timestamp": 1552077356000,
      "description": "Aid Response",
      "address": "9240 2nd Av Sw,Seattle,WA",
      "entries": 1,
      "unitCount": 1,
      "severity": 0,
      "units": "E37"
    }
  },
  {
    "id_str": "F190023887",
    "created_at": "3/8/2019 12:33:28 PM",
    "derived": {
      "lat": 47.620035,
      "long": -122.343513,
      "timestamp": 1552077208000,
      "description": "Rescue Elevator",
      "address": "226 Aurora Av N,Seattle,WA",
      "entries": 1,
      "neighborhood": "Cascade/Eastlake",
      "neighborhoodGroup": "Lake Union",
      "unitCount": 1,
      "severity": 0,
      "units": "L4"
    }
  },
  {
    "id_str": "F190023886",
    "created_at": "3/8/2019 12:25:52 PM",
    "derived": {
      "lat": 47.619665,
      "long": -122.307271,
      "timestamp": 1552076752000,
      "description": "Investigate Out Of Service",
      "address": "1907 E John St,Seattle,WA",
      "entries": 1,
      "neighborhood": "Miller Park",
      "neighborhoodGroup": "East",
      "unitCount": 1,
      "severity": 0,
      "units": "E25"
    }
  },
  {
    "id_str": "F190023885",
    "created_at": "3/8/2019 12:24:49 PM",
    "derived": {
      "lat": 47.596654,
      "long": -122.314056,
      "timestamp": 1552076689000,
      "description": "Aid Response",
      "address": "1400 S Lane St,Seattle,WA",
      "entries": 1,
      "neighborhood": "Judkins Park",
      "neighborhoodGroup": "Central",
      "unitCount": 1,
      "severity": 0,
      "units": "A10"
    }
  },
  {
    "id_str": "F190023884",
    "created_at": "3/8/2019 12:20:24 PM",
    "derived": {
      "lat": 47.67595,
      "long": -122.329611,
      "timestamp": 1552076424000,
      "description": "Aid Response",
      "address": "2400 N 65th St,Seattle,WA",
      "entries": 1,
      "neighborhood": "Green Lake",
      "neighborhoodGroup": "Northwest",
      "unitCount": 1,
      "severity": 0,
      "units": "E17"
    }
  },
  {
    "id_str": "F190023881",
    "created_at": "3/8/2019 12:06:53 PM",
    "derived": {
      "lat": 47.616606,
      "long": -122.32082,
      "timestamp": 1552075613000,
      "description": "Auto Fire Alarm",
      "address": "1718 Broadway,Seattle,WA",
      "entries": 1,
      "neighborhood": "Capitol Hill",
      "neighborhoodGroup": "East",
      "unitCount": 2,
      "severity": 0,
      "units": "E25 L10"
    }
  },
  {
    "id_str": "F190023880",
    "created_at": "3/8/2019 12:05:08 PM",
    "derived": {
      "lat": 47.609125,
      "long": -122.340291,
      "timestamp": 1552075508000,
      "description": "Aid Response",
      "address": "1531 1st Av,Seattle,WA",
      "entries": 1,
      "neighborhood": "Downtown Commercial Core",
      "neighborhoodGroup": "Downtown",
      "unitCount": 1,
      "severity": 0,
      "units": "A2"
    }
  },
  {
    "id_str": "F190023879",
    "created_at": "3/8/2019 12:04:27 PM",
    "derived": {
      "lat": 47.596522,
      "long": -122.326371,
      "timestamp": 1552075467000,
      "description": "Aid Response",
      "address": "718 6th Av S,Seattle,WA",
      "entries": 1,
      "neighborhood": "Pioneer Square/International District",
      "neighborhoodGroup": "Downtown",
      "unitCount": 1,
      "severity": 0,
      "units": "A5"
    }
  },
  {
    "id_str": "F190023877",
    "created_at": "3/8/2019 11:54:01 AM",
    "derived": {
      "lat": 47.627192,
      "long": -122.356823,
      "timestamp": 1552074841000,
      "description": "Aid Response",
      "address": "11 W Aloha St,Seattle,WA",
      "entries": 1,
      "neighborhood": "Queen Anne",
      "neighborhoodGroup": "Magnolia/Queen Anne",
      "unitCount": 1,
      "severity": 0,
      "units": "E8"
    }
  },
  {
    "id_str": "F190023876",
    "created_at": "3/8/2019 11:53:45 AM",
    "derived": {
      "lat": 47.615949,
      "long": -122.336979,
      "timestamp": 1552074825000,
      "description": "Aid Response",
      "address": "2030 8th Av,Seattle,WA",
      "entries": 1,
      "neighborhood": "Cascade/Eastlake",
      "neighborhoodGroup": "Lake Union",
      "unitCount": 1,
      "severity": 0,
      "units": "A4"
    }
  },
  {
    "id_str": "F190023875",
    "created_at": "3/8/2019 11:48:35 AM",
    "derived": {
      "lat": 47.592105,
      "long": -122.317281,
      "timestamp": 1552074515000,
      "description": "Medic Response",
      "address": "1200 12th Av S,Seattle,WA",
      "entries": 1,
      "neighborhood": "Duwamish/SODO",
      "neighborhoodGroup": "Greater Duwamish",
      "unitCount": 2,
      "severity": 0,
      "units": "A10 M10"
    }
  },
  {
    "id_str": "F190023874",
    "created_at": "3/8/2019 11:45:48 AM",
    "derived": {
      "lat": 47.610633,
      "long": -122.343884,
      "timestamp": 1552074348000,
      "description": "Auto Fire Alarm",
      "address": "2030 Western Av,Seattle,WA",
      "entries": 1,
      "neighborhood": "Downtown Commercial Core",
      "neighborhoodGroup": "Downtown",
      "unitCount": 2,
      "severity": 0,
      "units": "E10 L4"
    }
  },
  {
    "id_str": "F190023873",
    "created_at": "3/8/2019 11:44:33 AM",
    "derived": {
      "lat": 47.625403,
      "long": -122.342342,
      "timestamp": 1552074273000,
      "description": "MVI - Motor Vehicle Incident",
      "address": "Roy St / Dexter Av N,Seattle,WA",
      "entries": 2,
      "neighborhood": "Cascade/Eastlake",
      "neighborhoodGroup": "Lake Union",
      "unitCount": 2,
      "severity": 0,
      "units": "A4 E2"
    }
  },
  {
    "id_str": "F190023872",
    "created_at": "3/8/2019 11:36:08 AM",
    "derived": {
      "lat": 47.569467,
      "long": -122.334206,
      "timestamp": 1552073768000,
      "description": "Aid Response",
      "address": "3861 1st Av S,Seattle,WA",
      "entries": 1,
      "neighborhood": "Duwamish/SODO",
      "neighborhoodGroup": "Greater Duwamish",
      "unitCount": 1,
      "severity": 0,
      "units": "A14"
    }
  },
  {
    "id_str": "F190023871",
    "created_at": "3/8/2019 11:35:37 AM",
    "derived": {
      "lat": 47.524357,
      "long": -122.36183,
      "timestamp": 1552073737000,
      "description": "Aid Response",
      "address": "8836 22nd Av Sw,Seattle,WA",
      "entries": 1,
      "neighborhood": "Roxhill/Westwood",
      "neighborhoodGroup": "Delridge Neighborhoods",
      "unitCount": 1,
      "severity": 0,
      "units": "E36"
    }
  },
  {
    "id_str": "F190023870",
    "created_at": "3/8/2019 11:31:09 AM",
    "derived": {
      "lat": 47.538501,
      "long": -122.357271,
      "timestamp": 1552073469000,
      "description": "Aid Response Yellow",
      "address": "7169 18th Av Sw,Seattle,WA",
      "entries": 1,
      "neighborhood": "Riverview",
      "neighborhoodGroup": "Delridge Neighborhoods",
      "unitCount": 1,
      "severity": 0,
      "units": "E11"
    }
  },
  {
    "id_str": "F190023868",
    "created_at": "3/8/2019 11:19:55 AM",
    "derived": {
      "lat": 47.595837,
      "long": -122.326374,
      "timestamp": 1552072795000,
      "description": "Aid Response",
      "address": "S Dearborn St / 6th Av S,Seattle,WA",
      "entries": 1,
      "neighborhood": "Pioneer Square/International District",
      "neighborhoodGroup": "Downtown",
      "unitCount": 1,
      "severity": 0,
      "units": "A10"
    }
  },
  {
    "id_str": "F190023865",
    "created_at": "3/8/2019 11:09:59 AM",
    "derived": {
      "lat": 47.61122,
      "long": -122.337562,
      "timestamp": 1552072199000,
      "description": "Aid Response",
      "address": "401 Pine St,Seattle,WA",
      "entries": 1,
      "neighborhood": "Downtown Commercial Core",
      "neighborhoodGroup": "Downtown",
      "unitCount": 1,
      "severity": 0,
      "units": "A2"
    }
  },
  {
    "id_str": "F190023863",
    "created_at": "3/8/2019 11:08:28 AM",
    "derived": {
      "lat": 47.617271,
      "long": -122.306116,
      "timestamp": 1552072108000,
      "description": "Medic Response",
      "address": "2001 E Madison St,Seattle,WA",
      "entries": 3,
      "neighborhood": "Central Area/Squire Park",
      "neighborhoodGroup": "Central",
      "unitCount": 3,
      "severity": 0,
      "units": "E34 M1 M10"
    }
  },
  {
    "id_str": "F190023862",
    "created_at": "3/8/2019 11:05:36 AM",
    "derived": {
      "lat": 47.611207,
      "long": -122.337592,
      "timestamp": 1552071936000,
      "description": "Aid Response",
      "address": "4th Av / Pine St,Seattle,WA",
      "entries": 1,
      "neighborhood": "Downtown Commercial Core",
      "neighborhoodGroup": "Downtown",
      "unitCount": 1,
      "severity": 0,
      "units": "A4"
    }
  },
  {
    "id_str": "F190023861",
    "created_at": "3/8/2019 11:01:44 AM",
    "derived": {
      "lat": 47.699221,
      "long": -122.325766,
      "timestamp": 1552071704000,
      "description": "Medic Response",
      "address": "9709 3rd Av Ne,Seattle,WA",
      "entries": 1,
      "neighborhood": "Northgate/Maple Leaf",
      "neighborhoodGroup": "North",
      "unitCount": 2,
      "severity": 0,
      "units": "A31 M18"
    }
  },
  {
    "id_str": "F190023860",
    "created_at": "3/8/2019 11:01:31 AM",
    "derived": {
      "lat": 47.657685,
      "long": -122.321885,
      "timestamp": 1552071691000,
      "description": "Illegal Burn",
      "address": "4228 Pasadena Pl Ne,Seattle,WA",
      "entries": 1,
      "neighborhood": "Wallingford",
      "neighborhoodGroup": "Lake Union",
      "unitCount": 1,
      "severity": 0,
      "units": "E22"
    }
  },
  {
    "id_str": "F190023859",
    "created_at": "3/8/2019 10:56:40 AM",
    "derived": {
      "lat": 47.600044,
      "long": -122.334252,
      "timestamp": 1552071400000,
      "description": "Aid Response",
      "address": "96 S Main St,Seattle,WA",
      "entries": 1,
      "neighborhood": "Pioneer Square/International District",
      "neighborhoodGroup": "Downtown",
      "unitCount": 1,
      "severity": 0,
      "units": "A5"
    }
  },
  {
    "id_str": "F190023858",
    "created_at": "3/8/2019 10:56:16 AM",
    "derived": {
      "lat": 47.585293,
      "long": -122.303456,
      "timestamp": 1552071376000,
      "description": "Aid Response",
      "address": "2021 Rainier Av S,Seattle,WA",
      "entries": 1,
      "neighborhood": "North Beacon Hill/Jefferson Park",
      "neighborhoodGroup": "Greater Duwamish",
      "unitCount": 1,
      "severity": 0,
      "units": "E6"
    }
  },
  {
    "id_str": "F190023857",
    "created_at": "3/8/2019 10:50:22 AM",
    "derived": {
      "lat": 47.573043,
      "long": -122.305707,
      "timestamp": 1552071022000,
      "description": "Aid Response",
      "address": "3408 20th Av S,Seattle,WA",
      "entries": 1,
      "neighborhood": "North Beacon Hill/Jefferson Park",
      "neighborhoodGroup": "Greater Duwamish",
      "unitCount": 1,
      "severity": 0,
      "units": "E30"
    }
  },
  {
    "id_str": "F190023855",
    "created_at": "3/8/2019 10:42:20 AM",
    "derived": {
      "lat": 47.610743,
      "long": -122.338702,
      "timestamp": 1552070540000,
      "description": "Aid Response",
      "address": "300 Pine St,Seattle,WA",
      "entries": 1,
      "neighborhood": "Downtown Commercial Core",
      "neighborhoodGroup": "Downtown",
      "unitCount": 1,
      "severity": 0,
      "units": "A2"
    }
  },
  {
    "id_str": "F190023853",
    "created_at": "3/8/2019 10:38:37 AM",
    "derived": {
      "lat": 47.603588,
      "long": -122.322949,
      "timestamp": 1552070317000,
      "description": "Illegal Burn",
      "address": "325 9th Av,Seattle,WA",
      "entries": 1,
      "neighborhood": "First Hill",
      "neighborhoodGroup": "East",
      "unitCount": 1,
      "severity": 0,
      "units": "E10"
    }
  },
  {
    "id_str": "F190023851",
    "created_at": "3/8/2019 10:36:12 AM",
    "derived": {
      "lat": 47.528006,
      "long": -122.261414,
      "timestamp": 1552070172000,
      "description": "Medic Response",
      "address": "8437 Island Dr S,Seattle,WA",
      "entries": 1,
      "neighborhood": "Rainier Beach",
      "neighborhoodGroup": "Southeast",
      "unitCount": 2,
      "severity": 0,
      "units": "E33 M28"
    }
  },
  {
    "id_str": "F190023848",
    "created_at": "3/8/2019 10:29:52 AM",
    "derived": {
      "lat": 47.595837,
      "long": -122.326374,
      "timestamp": 1552069792000,
      "description": "Aid Response",
      "address": "6TH AV S / S DEARBORN ST,Seattle,WA",
      "entries": 1,
      "neighborhood": "Pioneer Square/International District",
      "neighborhoodGroup": "Downtown",
      "unitCount": 1,
      "severity": 0,
      "units": "A10"
    }
  },
  {
    "id_str": "F190023849",
    "created_at": "3/8/2019 10:29:51 AM",
    "derived": {
      "lat": 47.725108,
      "long": -122.303251,
      "timestamp": 1552069791000,
      "description": "Aid Response Yellow",
      "address": "13339 23rd Pl Ne,Seattle,WA",
      "entries": 1,
      "neighborhood": "Olympic Hills/Victory Heights",
      "neighborhoodGroup": "North",
      "unitCount": 1,
      "severity": 0,
      "units": "E16"
    }
  },
  {
    "id_str": "F190023847",
    "created_at": "3/8/2019 10:27:25 AM",
    "derived": {
      "lat": 47.573784,
      "long": -122.308819,
      "timestamp": 1552069645000,
      "description": "Aid Response",
      "address": "3327 Beacon Av S,Seattle,WA",
      "entries": 1,
      "neighborhood": "North Beacon Hill/Jefferson Park",
      "neighborhoodGroup": "Greater Duwamish",
      "unitCount": 1,
      "severity": 0,
      "units": "E30"
    }
  },
  {
    "id_str": "F190023843",
    "created_at": "3/8/2019 10:17:32 AM",
    "derived": {
      "lat": 47.586104,
      "long": -122.334198,
      "timestamp": 1552069052000,
      "description": "Unk Odor",
      "address": "1st Av S / S Holgate St,Seattle,WA",
      "entries": 1,
      "neighborhood": "Duwamish/SODO",
      "neighborhoodGroup": "Greater Duwamish",
      "unitCount": 1,
      "severity": 0,
      "units": "E2"
    }
  },
  {
    "id_str": "F190023842",
    "created_at": "3/8/2019 10:13:14 AM",
    "derived": {
      "lat": 47.72343,
      "long": -122.348164,
      "timestamp": 1552068794000,
      "description": "Medic Response",
      "address": "13030 Linden Av N,Seattle,WA",
      "entries": 3,
      "neighborhood": "Broadview/Bitter Lake",
      "neighborhoodGroup": "Northwest",
      "unitCount": 3,
      "severity": 0,
      "units": "A31 E31 M31"
    }
  },
  {
    "id_str": "F190023841",
    "created_at": "3/8/2019 10:00:51 AM",
    "derived": {
      "lat": 47.598351,
      "long": -122.324328,
      "timestamp": 1552068051000,
      "description": "Aid Response",
      "address": "668 S King St,Seattle,WA",
      "entries": 1,
      "neighborhood": "Pioneer Square/International District",
      "neighborhoodGroup": "Downtown",
      "unitCount": 1,
      "severity": 0,
      "units": "A5"
    }
  },
  {
    "id_str": "F190023840",
    "created_at": "3/8/2019 9:58:00 AM",
    "derived": {
      "lat": 47.61992,
      "long": -122.320873,
      "timestamp": 1552067880000,
      "description": "Aid Response",
      "address": "202 Broadway E,Seattle,WA",
      "entries": 1,
      "neighborhood": "Capitol Hill",
      "neighborhoodGroup": "East",
      "unitCount": 1,
      "severity": 0,
      "units": "E25"
    }
  },
  {
    "id_str": "F190023838",
    "created_at": "3/8/2019 9:54:42 AM",
    "derived": {
      "lat": 47.614182,
      "long": -122.285977,
      "timestamp": 1552067682000,
      "description": "Aid Response",
      "address": "1516 37th Av,Seattle,WA",
      "entries": 1,
      "neighborhood": "Madrona/Leschi",
      "neighborhoodGroup": "Central",
      "unitCount": 1,
      "severity": 0,
      "units": "E34"
    }
  },
  {
    "id_str": "F190023836",
    "created_at": "3/8/2019 9:49:40 AM",
    "derived": {
      "lat": 47.731516,
      "long": -122.315417,
      "timestamp": 1552067380000,
      "description": "Aid Response",
      "address": "14030 12th Av Ne,Seattle,WA",
      "entries": 1,
      "neighborhood": "Olympic Hills/Victory Heights",
      "neighborhoodGroup": "North",
      "unitCount": 1,
      "severity": 0,
      "units": "E24"
    }
  },
  {
    "id_str": "F190023835",
    "created_at": "3/8/2019 9:49:23 AM",
    "derived": {
      "lat": 47.614705,
      "long": -122.344794,
      "timestamp": 1552067363000,
      "description": "Aid Response",
      "address": "2301 3rd Av,Seattle,WA",
      "entries": 1,
      "neighborhood": "Cascade/Eastlake",
      "neighborhoodGroup": "Lake Union",
      "unitCount": 1,
      "severity": 0,
      "units": "A4"
    }
  },
  {
    "id_str": "F190023832",
    "created_at": "3/8/2019 9:43:03 AM",
    "derived": {
      "lat": 47.642503,
      "long": -122.406099,
      "timestamp": 1552066983000,
      "description": "Aid Response",
      "address": "2564 38th Av W,Seattle,WA",
      "entries": 1,
      "neighborhood": "Magnolia",
      "neighborhoodGroup": "Magnolia/Queen Anne",
      "unitCount": 1,
      "severity": 0,
      "units": "E41"
    }
  },
  {
    "id_str": "F190023831",
    "created_at": "3/8/2019 9:41:03 AM",
    "derived": {
      "lat": 47.601202,
      "long": -122.331511,
      "timestamp": 1552066863000,
      "description": "Auto Fire Alarm",
      "address": "410 2nd Av Et S,Seattle,WA",
      "entries": 1,
      "neighborhood": "Pioneer Square/International District",
      "neighborhoodGroup": "Downtown",
      "unitCount": 2,
      "severity": 0,
      "units": "E10 L1"
    }
  },
  {
    "id_str": "F190023830",
    "created_at": "3/8/2019 9:38:30 AM",
    "derived": {
      "lat": 47.632287,
      "long": -122.320207,
      "timestamp": 1552066710000,
      "description": "Aid Response",
      "address": "1501 10th Av E,Seattle,WA",
      "entries": 1,
      "neighborhood": "Cascade/Eastlake",
      "neighborhoodGroup": "Lake Union",
      "unitCount": 1,
      "severity": 0,
      "units": "E22"
    }
  },
  {
    "id_str": "F190023827",
    "created_at": "3/8/2019 9:32:49 AM",
    "derived": {
      "lat": 47.721329,
      "long": -122.296339,
      "timestamp": 1552066369000,
      "description": "Aid Response Yellow",
      "address": "12740 30th Av Ne,Seattle,WA",
      "entries": 1,
      "neighborhood": "Cedar Park/Meadowbrook",
      "neighborhoodGroup": "North",
      "unitCount": 1,
      "severity": 0,
      "units": "E40"
    }
  },
  {
    "id_str": "F190023828",
    "created_at": "3/8/2019 9:32:22 AM",
    "derived": {
      "lat": 47.622089,
      "long": -122.351371,
      "timestamp": 1552066342000,
      "description": "Aid Response",
      "address": "305 Harrison St,Seattle,WA",
      "entries": 1,
      "neighborhood": "Queen Anne",
      "neighborhoodGroup": "Magnolia/Queen Anne",
      "unitCount": 1,
      "severity": 0,
      "units": "A2"
    }
  },
  {
    "id_str": "F190023825",
    "created_at": "3/8/2019 9:27:12 AM",
    "derived": {
      "lat": 47.612578,
      "long": -122.341197,
      "timestamp": 1552066032000,
      "description": "Aid Response",
      "address": "2024 3rd Av,Seattle,WA",
      "entries": 1,
      "neighborhood": "Cascade/Eastlake",
      "neighborhoodGroup": "Lake Union",
      "unitCount": 1,
      "severity": 0,
      "units": "A4"
    }
  },
  {
    "id_str": "F190023822",
    "created_at": "3/8/2019 9:08:49 AM",
    "derived": {
      "lat": 47.661386,
      "long": -122.338313,
      "timestamp": 1552064929000,
      "description": "Aid Response",
      "address": "1629 N 45th St,Seattle,WA",
      "entries": 1,
      "neighborhood": "Wallingford",
      "neighborhoodGroup": "Lake Union",
      "unitCount": 1,
      "severity": 0,
      "units": "E9"
    }
  },
  {
    "id_str": "F190023820",
    "created_at": "3/8/2019 8:45:23 AM",
    "derived": {
      "lat": 47.67941,
      "long": -122.299414,
      "timestamp": 1552063523000,
      "description": "Medic Response",
      "address": "2616 Ne 70th St,Seattle,WA",
      "entries": 1,
      "neighborhood": "Ravenna/Bryant",
      "neighborhoodGroup": "Northeast",
      "unitCount": 2,
      "severity": 0,
      "units": "E38 M18"
    }
  },
  {
    "id_str": "F190023819",
    "created_at": "3/8/2019 8:45:14 AM",
    "derived": {
      "lat": 47.604879,
      "long": -122.324007,
      "timestamp": 1552063514000,
      "description": "Medic Response",
      "address": "908 Jefferson St,Seattle,WA",
      "entries": 1,
      "neighborhood": "First Hill",
      "neighborhoodGroup": "East",
      "unitCount": 2,
      "severity": 0,
      "units": "A5 M10"
    }
  },
  {
    "id_str": "F190023818",
    "created_at": "3/8/2019 8:44:06 AM",
    "derived": {
      "lat": 47.601986,
      "long": -122.32914,
      "timestamp": 1552063446000,
      "description": "Auto Fire Alarm",
      "address": "420 4TH AV,Seattle,WA",
      "entries": 1,
      "neighborhood": "Downtown Commercial Core",
      "neighborhoodGroup": "Downtown",
      "unitCount": 2,
      "severity": 0,
      "units": "E10 L1"
    }
  },
  {
    "id_str": "F190023816",
    "created_at": "3/8/2019 8:35:05 AM",
    "derived": {
      "lat": 47.692493,
      "long": -122.344545,
      "timestamp": 1552062905000,
      "description": "Medic Response, 6 per Rule",
      "address": "8820 Aurora Av N,Seattle,WA",
      "entries": 2,
      "neighborhood": "Licton Springs",
      "neighborhoodGroup": "Northwest",
      "unitCount": 4,
      "severity": 0,
      "units": "E21 E31 M18 M31"
    }
  },
  {
    "id_str": "F190023815",
    "created_at": "3/8/2019 8:32:44 AM",
    "derived": {
      "lat": 47.60748,
      "long": -122.329582,
      "timestamp": 1552062764000,
      "description": "Aid Response",
      "address": "Madison St / 7th Av,Seattle,WA",
      "entries": 1,
      "neighborhood": "First Hill",
      "neighborhoodGroup": "East",
      "unitCount": 1,
      "severity": 0,
      "units": "A10"
    }
  },
  {
    "id_str": "F190023812",
    "created_at": "3/8/2019 8:19:37 AM",
    "derived": {
      "lat": 47.506297,
      "long": -122.374584,
      "timestamp": 1552061977000,
      "description": "Aid Response",
      "address": "10811 34th Av Sw,Seattle,WA",
      "entries": 1,
      "neighborhood": "Arbor Heights",
      "neighborhoodGroup": "Southwest",
      "unitCount": 1,
      "severity": 0,
      "units": "E37"
    }
  },
  {
    "id_str": "F190023811",
    "created_at": "3/8/2019 8:17:14 AM",
    "derived": {
      "lat": 47.521244,
      "long": -122.336301,
      "timestamp": 1552061834000,
      "description": "Aid Response",
      "address": "9200 2nd Av Sw,Seattle,WA",
      "entries": 1,
      "neighborhood": "Highland Park",
      "neighborhoodGroup": "Delridge Neighborhoods",
      "unitCount": 1,
      "severity": 0,
      "units": "E26"
    }
  },
  {
    "id_str": "F190023810",
    "created_at": "3/8/2019 8:12:35 AM",
    "derived": {
      "lat": 47.708602,
      "long": -122.324588,
      "timestamp": 1552061555000,
      "description": "Aid Response",
      "address": "401 NE NORTHGATE WAY,Seattle,WA",
      "entries": 1,
      "neighborhood": "Northgate/Maple Leaf",
      "neighborhoodGroup": "North",
      "unitCount": 1,
      "severity": 0,
      "units": "L5"
    }
  },
  {
    "id_str": "F190023809",
    "created_at": "3/8/2019 8:10:49 AM",
    "derived": {
      "lat": 47.688598,
      "long": -122.327226,
      "timestamp": 1552061449000,
      "description": "Brush Fire Freeway",
      "address": "Nb I5 Fr 80,Seattle,WA",
      "entries": 1,
      "neighborhood": "Green Lake",
      "neighborhoodGroup": "Northwest",
      "unitCount": 4,
      "severity": 0,
      "units": "B6 E17 E21 E40"
    }
  },
  {
    "id_str": "F190023808",
    "created_at": "3/8/2019 8:09:53 AM",
    "derived": {
      "lat": 47.537261,
      "long": -122.35801,
      "timestamp": 1552061393000,
      "description": "Aid Response",
      "address": "7207 Dumar Way Sw,Seattle,WA",
      "entries": 1,
      "neighborhood": "Riverview",
      "neighborhoodGroup": "Delridge Neighborhoods",
      "unitCount": 1,
      "severity": 0,
      "units": "E11"
    }
  },
  {
    "id_str": "F190023806",
    "created_at": "3/8/2019 8:03:09 AM",
    "derived": {
      "lat": 47.703266,
      "long": -122.333904,
      "timestamp": 1552060989000,
      "description": "1RED 1 Unit",
      "address": "10306 Meridian Av N,Seattle,WA",
      "entries": 1,
      "neighborhood": "Northgate/Maple Leaf",
      "neighborhoodGroup": "North",
      "unitCount": 1,
      "severity": 0,
      "units": "E31"
    }
  },
  {
    "id_str": "F190023807",
    "created_at": "3/8/2019 8:02:46 AM",
    "derived": {
      "lat": 47.703266,
      "long": -122.333904,
      "timestamp": 1552060966000,
      "description": "1RED 1 Unit",
      "address": "10306 Meridian Av N,Seattle,WA",
      "entries": 1,
      "neighborhood": "Northgate/Maple Leaf",
      "neighborhoodGroup": "North",
      "unitCount": 1,
      "severity": 0,
      "units": "L5"
    }
  },
  {
    "id_str": "F190023805",
    "created_at": "3/8/2019 8:02:11 AM",
    "derived": {
      "lat": 47.534966,
      "long": -122.36317,
      "timestamp": 1552060931000,
      "description": "Aid Response",
      "address": "7560 24th Av Sw,Seattle,WA",
      "entries": 1,
      "neighborhood": "High Point",
      "neighborhoodGroup": "Delridge Neighborhoods",
      "unitCount": 1,
      "severity": 0,
      "units": "E37"
    }
  },
  {
    "id_str": "F190023804",
    "created_at": "3/8/2019 8:01:01 AM",
    "derived": {
      "lat": 47.67834,
      "long": -122.32895,
      "timestamp": 1552060861000,
      "description": "Medic Response",
      "address": "6720 East Green Lake Way N,Seattle,WA",
      "entries": 2,
      "neighborhood": "Green Lake",
      "neighborhoodGroup": "Northwest",
      "unitCount": 2,
      "severity": 0,
      "units": "E16 M17"
    }
  },
  {
    "id_str": "F190023803",
    "created_at": "3/8/2019 7:59:45 AM",
    "derived": {
      "lat": 47.595837,
      "long": -122.326374,
      "timestamp": 1552060785000,
      "description": "Aid Response",
      "address": "6th Av S / S Dearborn St,Seattle,WA",
      "entries": 1,
      "neighborhood": "Pioneer Square/International District",
      "neighborhoodGroup": "Downtown",
      "unitCount": 1,
      "severity": 0,
      "units": "E10"
    }
  },
  {
    "id_str": "F190023802",
    "created_at": "3/8/2019 7:59:32 AM",
    "derived": {
      "lat": 47.690632,
      "long": -122.37144,
      "timestamp": 1552060772000,
      "description": "Aid Response",
      "address": "8501 12th Av Nw,Seattle,WA",
      "entries": 1,
      "neighborhood": "Greenwood/Phinney Ridge",
      "neighborhoodGroup": "Northwest",
      "unitCount": 1,
      "severity": 0,
      "units": "E35"
    }
  },
  {
    "id_str": "F190023801",
    "created_at": "3/8/2019 7:59:08 AM",
    "derived": {
      "lat": 47.603948,
      "long": -122.330952,
      "timestamp": 1552060748000,
      "description": "Aid Response",
      "address": "4th Av / Cherry St,Seattle,WA",
      "entries": 1,
      "neighborhood": "Downtown Commercial Core",
      "neighborhoodGroup": "Downtown",
      "unitCount": 1,
      "severity": 0,
      "units": "A10"
    }
  },
  {
    "id_str": "F190023800",
    "created_at": "3/8/2019 7:50:55 AM",
    "derived": {
      "lat": 47.600885,
      "long": -122.334925,
      "timestamp": 1552060255000,
      "description": "Aid Response",
      "address": "77 S Washington St,Seattle,WA",
      "entries": 1,
      "neighborhood": "Pioneer Square/International District",
      "neighborhoodGroup": "Downtown",
      "unitCount": 1,
      "severity": 0,
      "units": "A5"
    }
  },
  {
    "id_str": "F190023795",
    "created_at": "3/8/2019 7:41:04 AM",
    "derived": {
      "lat": 47.530032,
      "long": -122.296241,
      "timestamp": 1552059664000,
      "description": "MVI - Motor Vehicle Incident",
      "address": "8285 AIRPORT WAY S,Seattle,WA",
      "entries": 2,
      "neighborhood": "Georgetown",
      "neighborhoodGroup": "Greater Duwamish",
      "unitCount": 2,
      "severity": 0,
      "units": "A14 E27"
    }
  },
  {
    "id_str": "F190023794",
    "created_at": "3/8/2019 7:38:08 AM",
    "derived": {
      "lat": 47.629017,
      "long": -122.370251,
      "timestamp": 1552059488000,
      "description": "Aid Response",
      "address": "W Prospect St / Elliott Av W,Seattle,WA",
      "entries": 1,
      "neighborhood": "Interbay",
      "neighborhoodGroup": "Magnolia/Queen Anne",
      "unitCount": 1,
      "severity": 0,
      "units": "L6"
    }
  },
  {
    "id_str": "F190023793",
    "created_at": "3/8/2019 7:31:46 AM",
    "derived": {
      "lat": 47.522794,
      "long": -122.35645,
      "timestamp": 1552059106000,
      "description": "Medic Response",
      "address": "9008 17th Av Sw,Seattle,WA",
      "entries": 1,
      "neighborhood": "Roxhill/Westwood",
      "neighborhoodGroup": "Delridge Neighborhoods",
      "unitCount": 2,
      "severity": 0,
      "units": "E11 M32"
    }
  },
  {
    "id_str": "F190023792",
    "created_at": "3/8/2019 7:27:50 AM",
    "derived": {
      "lat": 47.638035,
      "long": -122.377068,
      "timestamp": 1552058870000,
      "description": "Medic Response",
      "address": "1601 W Armory Way,Seattle,WA",
      "entries": 2,
      "neighborhood": "Interbay",
      "neighborhoodGroup": "Magnolia/Queen Anne",
      "unitCount": 2,
      "severity": 0,
      "units": "E20 M18"
    }
  },
  {
    "id_str": "F190023791",
    "created_at": "3/8/2019 7:27:11 AM",
    "derived": {
      "lat": 47.67289,
      "long": -122.330649,
      "timestamp": 1552058831000,
      "description": "Medic Response",
      "address": "2318 N 61st St,Seattle,WA",
      "entries": 2,
      "neighborhood": "Green Lake",
      "neighborhoodGroup": "Northwest",
      "unitCount": 2,
      "severity": 0,
      "units": "E16 M17"
    }
  },
  {
    "id_str": "F190023790",
    "created_at": "3/8/2019 7:22:39 AM",
    "derived": {
      "lat": 47.720938,
      "long": -122.292513,
      "timestamp": 1552058559000,
      "description": "Aid Response",
      "address": "12740 33rd Av Ne,Seattle,WA",
      "entries": 1,
      "neighborhood": "Cedar Park/Meadowbrook",
      "neighborhoodGroup": "North",
      "unitCount": 1,
      "severity": 0,
      "units": "E39"
    }
  },
  {
    "id_str": "F190023789",
    "created_at": "3/8/2019 7:13:52 AM",
    "derived": {
      "lat": 47.696705,
      "long": -122.287265,
      "timestamp": 1552058032000,
      "description": "Aid Response",
      "address": "3808 Ne 94th St,Seattle,WA",
      "entries": 1,
      "neighborhood": "Wedgwood/View Ridge",
      "neighborhoodGroup": "Northeast",
      "unitCount": 1,
      "severity": 0,
      "units": "E40"
    }
  },
  {
    "id_str": "F190023788",
    "created_at": "3/8/2019 7:12:57 AM",
    "derived": {
      "lat": 47.698088,
      "long": -122.328459,
      "timestamp": 1552057977000,
      "description": "Aid Response",
      "address": "9550 1ST AV NE,Seattle,WA",
      "entries": 2,
      "neighborhood": "Northgate/Maple Leaf",
      "neighborhoodGroup": "North",
      "unitCount": 2,
      "severity": 0,
      "units": "E31 E8"
    }
  },
  {
    "id_str": "F190023787",
    "created_at": "3/8/2019 7:03:45 AM",
    "derived": {
      "lat": 47.611635,
      "long": -122.290295,
      "timestamp": 1552057425000,
      "description": "Aid Response",
      "address": "3310 E Spring St,Seattle,WA",
      "entries": 1,
      "neighborhood": "Madrona/Leschi",
      "neighborhoodGroup": "Central",
      "unitCount": 1,
      "severity": 0,
      "units": "A25"
    }
  },
  {
    "id_str": "F190023786",
    "created_at": "3/8/2019 6:59:44 AM",
    "derived": {
      "lat": 47.661792,
      "long": -122.299105,
      "timestamp": 1552057184000,
      "description": "Aid Response",
      "address": "2617 Ne 46th St,Seattle,WA",
      "entries": 1,
      "neighborhood": "Ravenna/Bryant",
      "neighborhoodGroup": "Northeast",
      "unitCount": 1,
      "severity": 0,
      "units": "E38"
    }
  },
  {
    "id_str": "F190023784",
    "created_at": "3/8/2019 6:48:54 AM",
    "derived": {
      "lat": 47.670176,
      "long": -122.37945,
      "timestamp": 1552056534000,
      "description": "Aid Response",
      "address": "1753 Nw 57th St,Seattle,WA",
      "entries": 1,
      "neighborhood": "Ballard",
      "neighborhoodGroup": "Ballard",
      "unitCount": 1,
      "severity": 0,
      "units": "E18"
    }
  },
  {
    "id_str": "F190023783",
    "created_at": "3/8/2019 6:44:48 AM",
    "derived": {
      "lat": 47.612857,
      "long": -122.286563,
      "timestamp": 1552056288000,
      "description": "Automatic Fire Alarm Resd",
      "address": "3617 E Union St,Seattle,WA",
      "entries": 1,
      "neighborhood": "Madrona/Leschi",
      "neighborhoodGroup": "Central",
      "unitCount": 1,
      "severity": 0,
      "units": "E34"
    }
  },
  {
    "id_str": "F190023781",
    "created_at": "3/8/2019 6:26:22 AM",
    "derived": {
      "lat": 47.609385,
      "long": -122.338666,
      "timestamp": 1552055182000,
      "description": "Aid Response",
      "address": "221 Pike St,Seattle,WA",
      "entries": 1,
      "neighborhood": "Downtown Commercial Core",
      "neighborhoodGroup": "Downtown",
      "unitCount": 1,
      "severity": 0,
      "units": "E5"
    }
  },
  {
    "id_str": "F190023780",
    "created_at": "3/8/2019 6:21:53 AM",
    "derived": {
      "lat": 47.619839,
      "long": -122.342391,
      "timestamp": 1552054913000,
      "description": "Aid Response",
      "address": "211 DEXTER AV N,Seattle,WA",
      "entries": 1,
      "neighborhood": "Cascade/Eastlake",
      "neighborhoodGroup": "Lake Union",
      "unitCount": 1,
      "severity": 0,
      "units": "A2"
    }
  },
  {
    "id_str": "F190023779",
    "created_at": "3/8/2019 6:09:57 AM",
    "derived": {
      "lat": 47.685486,
      "long": -122.35527,
      "timestamp": 1552054197000,
      "description": "Aid Response",
      "address": "302 N 78TH ST,Seattle,WA",
      "entries": 1,
      "neighborhood": "Greenwood/Phinney Ridge",
      "neighborhoodGroup": "Northwest",
      "unitCount": 1,
      "severity": 0,
      "units": "E21"
    }
  },
  {
    "id_str": "F190023777",
    "created_at": "3/8/2019 5:22:56 AM",
    "derived": {
      "lat": 47.621104,
      "long": -122.316946,
      "timestamp": 1552051376000,
      "description": "Medic Response, 6 per Rule",
      "address": "12th Av E / E Thomas St,Seattle,WA",
      "entries": 2,
      "neighborhood": "Capitol Hill",
      "neighborhoodGroup": "East",
      "unitCount": 3,
      "severity": 0,
      "units": "E25 L10 M10"
    }
  },
  {
    "id_str": "F190023776",
    "created_at": "3/8/2019 5:12:55 AM",
    "derived": {
      "lat": 47.606628,
      "long": -122.312857,
      "timestamp": 1552050775000,
      "description": "Medic Response",
      "address": "548 15th Av,Seattle,WA",
      "entries": 2,
      "neighborhood": "First Hill",
      "neighborhoodGroup": "East",
      "unitCount": 2,
      "severity": 0,
      "units": "A25 M1"
    }
  },
  {
    "id_str": "F190023775",
    "created_at": "3/8/2019 4:50:30 AM",
    "derived": {
      "lat": 47.624265,
      "long": -122.334285,
      "timestamp": 1552049430000,
      "description": "Aid Response",
      "address": "Fairview Av N / Mercer St,Seattle,WA",
      "entries": 1,
      "neighborhood": "Cascade/Eastlake",
      "neighborhoodGroup": "Lake Union",
      "unitCount": 1,
      "severity": 0,
      "units": "A2"
    }
  },
  {
    "id_str": "F190023773",
    "created_at": "3/8/2019 4:30:39 AM",
    "derived": {
      "lat": 47.680958,
      "long": -122.315639,
      "timestamp": 1552048239000,
      "description": "Aid Response",
      "address": "7217 12th Av Ne,Seattle,WA",
      "entries": 1,
      "neighborhood": "Ravenna/Bryant",
      "neighborhoodGroup": "Northeast",
      "unitCount": 1,
      "severity": 0,
      "units": "E16"
    }
  },
  {
    "id_str": "F190023770",
    "created_at": "3/8/2019 3:35:35 AM",
    "derived": {
      "lat": 47.581473,
      "long": -122.329055,
      "timestamp": 1552044935000,
      "description": "Alarm Bell",
      "address": "2460 4th Av S,Seattle,WA",
      "entries": 1,
      "neighborhood": "Duwamish/SODO",
      "neighborhoodGroup": "Greater Duwamish",
      "unitCount": 2,
      "severity": 0,
      "units": "E10 R1"
    }
  },
  {
    "id_str": "F190023765",
    "created_at": "3/8/2019 2:59:43 AM",
    "derived": {
      "lat": 47.633255,
      "long": -122.378853,
      "timestamp": 1552042783000,
      "description": "Auto Fire Alarm",
      "address": "2001 W Garfield St,Seattle,WA",
      "entries": 1,
      "neighborhood": "Interbay",
      "neighborhoodGroup": "Magnolia/Queen Anne",
      "unitCount": 2,
      "severity": 0,
      "units": "E20 L6"
    }
  },
  {
    "id_str": "F190023764",
    "created_at": "3/8/2019 2:57:51 AM",
    "derived": {
      "lat": 47.607817,
      "long": -122.331423,
      "timestamp": 1552042671000,
      "description": "Aid Response",
      "address": "1113 6th Av,Seattle,WA",
      "entries": 1,
      "neighborhood": "First Hill",
      "neighborhoodGroup": "East",
      "unitCount": 1,
      "severity": 0,
      "units": "A10"
    }
  },
  {
    "id_str": "F190023763",
    "created_at": "3/8/2019 2:54:37 AM",
    "derived": {
      "lat": 47.720938,
      "long": -122.292513,
      "timestamp": 1552042477000,
      "description": "Aid Response",
      "address": "12740 33rd Av Ne,Seattle,WA",
      "entries": 1,
      "neighborhood": "Cedar Park/Meadowbrook",
      "neighborhoodGroup": "North",
      "unitCount": 1,
      "severity": 0,
      "units": "E39"
    }
  },
  {
    "id_str": "F190023762",
    "created_at": "3/8/2019 2:36:45 AM",
    "derived": {
      "lat": 47.610614,
      "long": -122.332447,
      "timestamp": 1552041405000,
      "description": "MVI - Motor Vehicle Incident",
      "address": "7th Av / Union St,Seattle,WA",
      "entries": 1,
      "neighborhood": "First Hill",
      "neighborhoodGroup": "East",
      "unitCount": 1,
      "severity": 0,
      "units": "E2"
    }
  },
  {
    "id_str": "F190023760",
    "created_at": "3/8/2019 2:23:51 AM",
    "derived": {
      "lat": 47.691343,
      "long": -122.383239,
      "timestamp": 1552040631000,
      "description": "Medic Response",
      "address": "8630 21st Av Nw,Seattle,WA",
      "entries": 1,
      "neighborhood": "North Beach/Blue Ridge",
      "neighborhoodGroup": "Ballard",
      "unitCount": 2,
      "severity": 0,
      "units": "E35 M18"
    }
  },
  {
    "id_str": "F190023758",
    "created_at": "3/8/2019 2:00:44 AM",
    "derived": {
      "lat": 47.661806,
      "long": -122.304656,
      "timestamp": 1552039244000,
      "description": "Auto Fire Alarm",
      "address": "4600 22nd Av Ne,Seattle,WA",
      "entries": 1,
      "neighborhood": "Ravenna/Bryant",
      "neighborhoodGroup": "Northeast",
      "unitCount": 2,
      "severity": 0,
      "units": "E17 L9"
    }
  },
  {
    "id_str": "F190023757",
    "created_at": "3/8/2019 1:57:43 AM",
    "derived": {
      "lat": 47.611843,
      "long": -122.341939,
      "timestamp": 1552039063000,
      "description": "Aid Response",
      "address": "2015 2nd Av,Seattle,WA",
      "entries": 1,
      "neighborhood": "Belltown",
      "neighborhoodGroup": "Downtown",
      "unitCount": 1,
      "severity": 0,
      "units": "A2"
    }
  },
  {
    "id_str": "F190023756",
    "created_at": "3/8/2019 1:54:18 AM",
    "derived": {
      "lat": 47.721329,
      "long": -122.296339,
      "timestamp": 1552038858000,
      "description": "Aid Response Yellow",
      "address": "12740 30th Av Ne,Seattle,WA",
      "entries": 1,
      "neighborhood": "Cedar Park/Meadowbrook",
      "neighborhoodGroup": "North",
      "unitCount": 1,
      "severity": 0,
      "units": "E39"
    }
  },
  {
    "id_str": "F190023755",
    "created_at": "3/8/2019 1:32:19 AM",
    "derived": {
      "lat": 47.690909,
      "long": -122.285247,
      "timestamp": 1552037539000,
      "description": "Aid Response",
      "address": "4008 Ne 86th St,Seattle,WA",
      "entries": 1,
      "neighborhood": "Wedgwood/View Ridge",
      "neighborhoodGroup": "Northeast",
      "unitCount": 1,
      "severity": 0,
      "units": "E40"
    }
  },
  {
    "id_str": "F190023754",
    "created_at": "3/8/2019 1:30:52 AM",
    "derived": {
      "lat": 47.674464,
      "long": -122.32546,
      "timestamp": 1552037452000,
      "description": "Aid Response",
      "address": "6313 Latona Av Ne,Seattle,WA",
      "entries": 1,
      "neighborhood": "Green Lake",
      "neighborhoodGroup": "Northwest",
      "unitCount": 1,
      "severity": 0,
      "units": "E16"
    }
  },
  {
    "id_str": "F190023753",
    "created_at": "3/8/2019 1:29:55 AM",
    "derived": {
      "lat": 47.599912,
      "long": -122.331574,
      "timestamp": 1552037395000,
      "description": "Aid Response",
      "address": "315 2nd Av S,Seattle,WA",
      "entries": 1,
      "neighborhood": "Pioneer Square/International District",
      "neighborhoodGroup": "Downtown",
      "unitCount": 1,
      "severity": 0,
      "units": "A5"
    }
  },
  {
    "id_str": "F190023752",
    "created_at": "3/8/2019 1:26:31 AM",
    "derived": {
      "lat": 47.575283,
      "long": -122.329059,
      "timestamp": 1552037191000,
      "description": "Aid Response",
      "address": "3224 4th Av S,Seattle,WA",
      "entries": 1,
      "neighborhood": "Duwamish/SODO",
      "neighborhoodGroup": "Greater Duwamish",
      "unitCount": 1,
      "severity": 0,
      "units": "A14"
    }
  },
  {
    "id_str": "F190023751",
    "created_at": "3/8/2019 1:14:57 AM",
    "derived": {
      "lat": 47.538889,
      "long": -122.393088,
      "timestamp": 1552036497000,
      "description": "Aid Response",
      "address": "7124 47th Av Sw,Seattle,WA",
      "entries": 1,
      "neighborhood": "Fauntleroy/Seaview",
      "neighborhoodGroup": "Southwest",
      "unitCount": 1,
      "severity": 0,
      "units": "E37"
    }
  },
  {
    "id_str": "F190023750",
    "created_at": "3/8/2019 1:12:50 AM",
    "derived": {
      "lat": 47.617505,
      "long": -122.329699,
      "timestamp": 1552036370000,
      "description": "Aid Response",
      "address": "1800 Yale Av,Seattle,WA",
      "entries": 1,
      "neighborhood": "Cascade/Eastlake",
      "neighborhoodGroup": "Lake Union",
      "unitCount": 1,
      "severity": 0,
      "units": "A25"
    }
  },
  {
    "id_str": "F190023749",
    "created_at": "3/8/2019 1:03:33 AM",
    "derived": {
      "lat": 47.634985,
      "long": -122.284036,
      "timestamp": 1552035813000,
      "description": "Aid Response",
      "address": "1833 38th Av E,Seattle,WA",
      "entries": 1,
      "neighborhood": "Madison Park",
      "neighborhoodGroup": "East",
      "unitCount": 1,
      "severity": 0,
      "units": "E34"
    }
  },
  {
    "id_str": "F190023748",
    "created_at": "3/8/2019 12:57:49 AM",
    "derived": {
      "lat": 47.614788,
      "long": -122.342952,
      "timestamp": 1552035469000,
      "description": "Medic Response",
      "address": "2225 4th Av,Seattle,WA",
      "entries": 1,
      "neighborhood": "Cascade/Eastlake",
      "neighborhoodGroup": "Lake Union",
      "unitCount": 2,
      "severity": 0,
      "units": "A2 M10"
    }
  },
  {
    "id_str": "F190023747",
    "created_at": "3/8/2019 12:56:12 AM",
    "derived": {
      "lat": 47.60195,
      "long": -122.334178,
      "timestamp": 1552035372000,
      "description": "Aid Response",
      "address": "627 1st Av,Seattle,WA",
      "entries": 1,
      "neighborhood": "Downtown Commercial Core",
      "neighborhoodGroup": "Downtown",
      "unitCount": 1,
      "severity": 0,
      "units": "A10"
    }
  },
  {
    "id_str": "F190023746",
    "created_at": "3/8/2019 12:49:11 AM",
    "derived": {
      "lat": 47.721878,
      "long": -122.297729,
      "timestamp": 1552034951000,
      "description": "Aid Response",
      "address": "12728 28th Av Ne,Seattle,WA",
      "entries": 1,
      "neighborhood": "Olympic Hills/Victory Heights",
      "neighborhoodGroup": "North",
      "unitCount": 1,
      "severity": 0,
      "units": "E39"
    }
  },
  {
    "id_str": "F190023745",
    "created_at": "3/8/2019 12:31:10 AM",
    "derived": {
      "lat": 47.61593,
      "long": -122.340915,
      "timestamp": 1552033870000,
      "description": "Aid Response",
      "address": "6th Av / Blanchard St,Seattle,WA",
      "entries": 1,
      "neighborhood": "Cascade/Eastlake",
      "neighborhoodGroup": "Lake Union",
      "unitCount": 1,
      "severity": 0,
      "units": "A2"
    }
  },
  {
    "id_str": "F190023744",
    "created_at": "3/8/2019 12:27:27 AM",
    "derived": {
      "lat": 47.595541,
      "long": -122.298643,
      "timestamp": 1552033647000,
      "description": "Aid Response",
      "address": "2611 S Dearborn St,Seattle,WA",
      "entries": 1,
      "neighborhood": "Madrona/Leschi",
      "neighborhoodGroup": "Central",
      "unitCount": 1,
      "severity": 0,
      "units": "E6"
    }
  },
  {
    "id_str": "F190023743",
    "created_at": "3/8/2019 12:23:31 AM",
    "derived": {
      "lat": 47.721092,
      "long": -122.296336,
      "timestamp": 1552033411000,
      "description": "Medic Response",
      "address": "12700 30th Av Ne,Seattle,WA",
      "entries": 2,
      "neighborhood": "Cedar Park/Meadowbrook",
      "neighborhoodGroup": "North",
      "unitCount": 2,
      "severity": 0,
      "units": "E39 M31"
    }
  },
  {
    "id_str": "F190023739",
    "created_at": "3/8/2019 12:02:16 AM",
    "derived": {
      "lat": 47.611641,
      "long": -122.327245,
      "timestamp": 1552032136000,
      "description": "Fire in Building",
      "address": "1317 Boren Av,Seattle,WA",
      "entries": 1,
      "neighborhood": "First Hill",
      "neighborhoodGroup": "East",
      "unitCount": 19,
      "severity": 2,
      "units": "A25 AIR10 B2 B5 DEP1 E10 E2 E25 E5 E6 L1 L10 L4 M1 M44 MAR5 REHAB1 SAFT2 STAF10"
    }
  },
  {
    "id_str": "F190023737",
    "created_at": "3/7/2019 11:41:31 PM",
    "derived": {
      "lat": 47.595511,
      "long": -122.294347,
      "timestamp": 1552030891000,
      "description": "Aid Response Yellow",
      "address": "820 Yakima Av S,Seattle,WA",
      "entries": 1,
      "neighborhood": "Madrona/Leschi",
      "neighborhoodGroup": "Central",
      "unitCount": 1,
      "severity": 0,
      "units": "E6"
    }
  },
  {
    "id_str": "F190023736",
    "created_at": "3/7/2019 11:38:24 PM",
    "derived": {
      "lat": 47.623209,
      "long": -122.30601,
      "timestamp": 1552030704000,
      "description": "Aid Response",
      "address": "E Republican St / 20th Av E,Seattle,WA",
      "entries": 1,
      "neighborhood": "Miller Park",
      "neighborhoodGroup": "East",
      "unitCount": 1,
      "severity": 0,
      "units": "A25"
    }
  },
  {
    "id_str": "F190023735",
    "created_at": "3/7/2019 11:33:59 PM",
    "derived": {
      "lat": 47.617989,
      "long": -122.314286,
      "timestamp": 1552030439000,
      "description": "Activated CO Detector",
      "address": "1832 14th Av,Seattle,WA",
      "entries": 1,
      "neighborhood": "Capitol Hill",
      "neighborhoodGroup": "East",
      "unitCount": 1,
      "severity": 0,
      "units": "L10"
    }
  },
  {
    "id_str": "F190023732",
    "created_at": "3/7/2019 11:23:01 PM",
    "derived": {
      "lat": 47.615789,
      "long": -122.336507,
      "timestamp": 1552029781000,
      "description": "Aid Response",
      "address": "810 Virginia St,Seattle,WA",
      "entries": 1,
      "neighborhood": "Cascade/Eastlake",
      "neighborhoodGroup": "Lake Union",
      "unitCount": 1,
      "severity": 0,
      "units": "A2"
    }
  },
  {
    "id_str": "F190023731",
    "created_at": "3/7/2019 11:21:42 PM",
    "derived": {
      "lat": 47.546042,
      "long": -122.284785,
      "timestamp": 1552029702000,
      "description": "Aid Response",
      "address": "3805 S Graham St,Seattle,WA",
      "entries": 1,
      "neighborhood": "Columbia City",
      "neighborhoodGroup": "Southeast",
      "unitCount": 1,
      "severity": 0,
      "units": "E28"
    }
  },
  {
    "id_str": "F190023730",
    "created_at": "3/7/2019 11:12:56 PM",
    "derived": {
      "lat": 47.571298,
      "long": -122.287193,
      "timestamp": 1552029176000,
      "description": "Aid Response",
      "address": "3631 Courtland Pl S,Seattle,WA",
      "entries": 1,
      "neighborhood": "Columbia City",
      "neighborhoodGroup": "Southeast",
      "unitCount": 1,
      "severity": 0,
      "units": "E30"
    }
  },
  {
    "id_str": "F190023729",
    "created_at": "3/7/2019 11:09:21 PM",
    "derived": {
      "lat": 47.611943,
      "long": -122.325987,
      "timestamp": 1552028961000,
      "description": "Aid Response",
      "address": "1200 University St,Seattle,WA",
      "entries": 1,
      "neighborhood": "First Hill",
      "neighborhoodGroup": "East",
      "unitCount": 1,
      "severity": 0,
      "units": "A25"
    }
  },
  {
    "id_str": "F190023728",
    "created_at": "3/7/2019 11:00:34 PM",
    "derived": {
      "lat": 47.69048,
      "long": -122.312229,
      "timestamp": 1552028434000,
      "description": "Medic Response",
      "address": "8516 15th Av Ne,Seattle,WA",
      "entries": 2,
      "neighborhood": "Northgate/Maple Leaf",
      "neighborhoodGroup": "North",
      "unitCount": 2,
      "severity": 0,
      "units": "E16 M31"
    }
  },
  {
    "id_str": "F190023727",
    "created_at": "3/7/2019 10:59:20 PM",
    "derived": {
      "lat": 47.721329,
      "long": -122.296339,
      "timestamp": 1552028360000,
      "description": "Aid Response",
      "address": "12740 30th Av Ne,Seattle,WA",
      "entries": 1,
      "neighborhood": "Cedar Park/Meadowbrook",
      "neighborhoodGroup": "North",
      "unitCount": 1,
      "severity": 0,
      "units": "E39"
    }
  },
  {
    "id_str": "F190023726",
    "created_at": "3/7/2019 10:57:56 PM",
    "derived": {
      "lat": 47.61774,
      "long": -122.326767,
      "timestamp": 1552028276000,
      "description": "Aid Response",
      "address": "Bellevue Av / E Howell St,Seattle,WA",
      "entries": 1,
      "neighborhood": "Capitol Hill",
      "neighborhoodGroup": "East",
      "unitCount": 1,
      "severity": 0,
      "units": "A25"
    }
  },
  {
    "id_str": "F190023724",
    "created_at": "3/7/2019 10:53:24 PM",
    "derived": {
      "lat": 47.521032,
      "long": -122.35647,
      "timestamp": 1552028004000,
      "description": "Aid Response",
      "address": "9200 17th Av Sw,Seattle,WA",
      "entries": 1,
      "neighborhood": "Roxhill/Westwood",
      "neighborhoodGroup": "Delridge Neighborhoods",
      "unitCount": 1,
      "severity": 0,
      "units": "E11"
    }
  },
  {
    "id_str": "F190023721",
    "created_at": "3/7/2019 10:26:47 PM",
    "derived": {
      "lat": 47.618543,
      "long": -122.325588,
      "timestamp": 1552026407000,
      "description": "Aid Response",
      "address": "1556 E Olive Way,Seattle,WA",
      "entries": 1,
      "neighborhood": "Capitol Hill",
      "neighborhoodGroup": "East",
      "unitCount": 1,
      "severity": 0,
      "units": "A25"
    }
  },
  {
    "id_str": "F190023720",
    "created_at": "3/7/2019 10:24:50 PM",
    "derived": {
      "lat": 47.708594,
      "long": -122.323211,
      "timestamp": 1552026290000,
      "description": "Aid Response",
      "address": "507 Ne Northgate Way,Seattle,WA",
      "entries": 1,
      "neighborhood": "Northgate/Maple Leaf",
      "neighborhoodGroup": "North",
      "unitCount": 1,
      "severity": 0,
      "units": "E31"
    }
  },
  {
    "id_str": "F190023719",
    "created_at": "3/7/2019 10:21:19 PM",
    "derived": {
      "lat": 47.602172,
      "long": -122.330863,
      "timestamp": 1552026079000,
      "description": "Aid Response",
      "address": "517 3rd Av,Seattle,WA",
      "entries": 1,
      "neighborhood": "Downtown Commercial Core",
      "neighborhoodGroup": "Downtown",
      "unitCount": 1,
      "severity": 0,
      "units": "A5"
    }
  },
  {
    "id_str": "F190023718",
    "created_at": "3/7/2019 10:11:58 PM",
    "derived": {
      "lat": 47.678734,
      "long": -122.355317,
      "timestamp": 1552025518000,
      "description": "Aid Response",
      "address": "Greenwood Av N / N 68th St,Seattle,WA",
      "entries": 1,
      "neighborhood": "Greenwood/Phinney Ridge",
      "neighborhoodGroup": "Northwest",
      "unitCount": 1,
      "severity": 0,
      "units": "E21"
    }
  },
  {
    "id_str": "F190023717",
    "created_at": "3/7/2019 10:03:45 PM",
    "derived": {
      "lat": 47.612643,
      "long": -122.343292,
      "timestamp": 1552025025000,
      "description": "Aid Response",
      "address": "2119 2nd Av,Seattle,WA",
      "entries": 1,
      "neighborhood": "Belltown",
      "neighborhoodGroup": "Downtown",
      "unitCount": 1,
      "severity": 0,
      "units": "A2"
    }
  },
  {
    "id_str": "F190023716",
    "created_at": "3/7/2019 10:03:24 PM",
    "derived": {
      "lat": 47.66005,
      "long": -122.312025,
      "timestamp": 1552025004000,
      "description": "Auto Fire Alarm",
      "address": "4337 15th Av Ne,Seattle,WA",
      "entries": 1,
      "neighborhood": "University District",
      "neighborhoodGroup": "Northeast",
      "unitCount": 2,
      "severity": 0,
      "units": "E22 L8"
    }
  },
  {
    "id_str": "F190023715",
    "created_at": "3/7/2019 10:02:38 PM",
    "derived": {
      "lat": 47.527555,
      "long": -122.335064,
      "timestamp": 1552024958000,
      "description": "Aid Response",
      "address": "8427 1st Av S,Seattle,WA",
      "entries": 1,
      "neighborhood": "Highland Park",
      "neighborhoodGroup": "Delridge Neighborhoods",
      "unitCount": 1,
      "severity": 0,
      "units": "E26"
    }
  },
  {
    "id_str": "F190023713",
    "created_at": "3/7/2019 9:50:07 PM",
    "derived": {
      "lat": 47.663367,
      "long": -122.31526,
      "timestamp": 1552024207000,
      "description": "Auto Fire Alarm",
      "address": "4744 12th Av Ne,Seattle,WA",
      "entries": 1,
      "neighborhood": "University District",
      "neighborhoodGroup": "Northeast",
      "unitCount": 2,
      "severity": 0,
      "units": "E22 L10"
    }
  },
  {
    "id_str": "F190023712",
    "created_at": "3/7/2019 9:48:55 PM",
    "derived": {
      "lat": 47.663075,
      "long": -122.31083,
      "timestamp": 1552024135000,
      "description": "Medic Response",
      "address": "4700 16th Av Ne,Seattle,WA",
      "entries": 1,
      "neighborhood": "University District",
      "neighborhoodGroup": "Northeast",
      "unitCount": 2,
      "severity": 0,
      "units": "L9 M17"
    }
  },
  {
    "id_str": "F190023711",
    "created_at": "3/7/2019 9:46:18 PM",
    "derived": {
      "lat": 47.592782,
      "long": -122.322769,
      "timestamp": 1552023978000,
      "description": "Rubbish Fire",
      "address": "Airport Way S / S Royal Brougham Way,Seattle,WA",
      "entries": 1,
      "neighborhood": "Duwamish/SODO",
      "neighborhoodGroup": "Greater Duwamish",
      "unitCount": 1,
      "severity": 0,
      "units": "E10"
    }
  },
  {
    "id_str": "F190023710",
    "created_at": "3/7/2019 9:42:54 PM",
    "derived": {
      "lat": 47.661277,
      "long": -122.314251,
      "timestamp": 1552023774000,
      "description": "Aid Response",
      "address": "1303 Ne 45th St,Seattle,WA",
      "entries": 1,
      "neighborhood": "University District",
      "neighborhoodGroup": "Northeast",
      "unitCount": 1,
      "severity": 0,
      "units": "E17"
    }
  },
  {
    "id_str": "F190023709",
    "created_at": "3/7/2019 9:42:14 PM",
    "derived": {
      "lat": 47.674815,
      "long": -122.305472,
      "timestamp": 1552023734000,
      "description": "Medic Response",
      "address": "6306 21st Av Ne,Seattle,WA",
      "entries": 2,
      "neighborhood": "Ravenna/Bryant",
      "neighborhoodGroup": "Northeast",
      "unitCount": 2,
      "severity": 0,
      "units": "E16 M17"
    }
  },
  {
    "id_str": "F190023707",
    "created_at": "3/7/2019 9:29:38 PM",
    "derived": {
      "lat": 47.618543,
      "long": -122.325588,
      "timestamp": 1552022978000,
      "description": "Aid Response",
      "address": "1556 E Olive Way,Seattle,WA",
      "entries": 1,
      "neighborhood": "Capitol Hill",
      "neighborhoodGroup": "East",
      "unitCount": 1,
      "severity": 0,
      "units": "A25"
    }
  },
  {
    "id_str": "F190023706",
    "created_at": "3/7/2019 9:29:27 PM",
    "derived": {
      "lat": 47.661277,
      "long": -122.314251,
      "timestamp": 1552022967000,
      "description": "Aid Response",
      "address": "1303 Ne 45th St,Seattle,WA",
      "entries": 1,
      "neighborhood": "University District",
      "neighborhoodGroup": "Northeast",
      "unitCount": 1,
      "severity": 0,
      "units": "E17"
    }
  },
  {
    "id_str": "F190023705",
    "created_at": "3/7/2019 8:55:18 PM",
    "derived": {
      "lat": 47.613247,
      "long": -122.327187,
      "timestamp": 1552020918000,
      "description": "Aid Response",
      "address": "1431 Minor Av,Seattle,WA",
      "entries": 2,
      "neighborhood": "Capitol Hill",
      "neighborhoodGroup": "East",
      "unitCount": 2,
      "severity": 0,
      "units": "A25 E25"
    }
  },
  {
    "id_str": "F190023704",
    "created_at": "3/7/2019 8:52:55 PM",
    "derived": {
      "lat": 47.661594,
      "long": -122.308378,
      "timestamp": 1552020775000,
      "description": "Medic Response",
      "address": "4538 18th Av Ne,Seattle,WA",
      "entries": 2,
      "neighborhood": "University District",
      "neighborhoodGroup": "Northeast",
      "unitCount": 2,
      "severity": 0,
      "units": "E17 M17"
    }
  },
  {
    "id_str": "F190023703",
    "created_at": "3/7/2019 8:47:21 PM",
    "derived": {
      "lat": 47.571408,
      "long": -122.291001,
      "timestamp": 1552020441000,
      "description": "Medic Response",
      "address": "3621 33RD AV S,Seattle,WA",
      "entries": 2,
      "neighborhood": "Columbia City",
      "neighborhoodGroup": "Southeast",
      "unitCount": 2,
      "severity": 0,
      "units": "E30 M28"
    }
  },
  {
    "id_str": "F190023702",
    "created_at": "3/7/2019 8:43:23 PM",
    "derived": {
      "lat": 47.617622,
      "long": -122.313968,
      "timestamp": 1552020203000,
      "description": "Aid Response",
      "address": "1420 E Howell St,Seattle,WA",
      "entries": 1,
      "neighborhood": "Capitol Hill",
      "neighborhoodGroup": "East",
      "unitCount": 1,
      "severity": 0,
      "units": "A25"
    }
  },
  {
    "id_str": "F190023701",
    "created_at": "3/7/2019 8:26:32 PM",
    "derived": {
      "lat": 47.679478,
      "long": -122.322726,
      "timestamp": 1552019192000,
      "description": "Automatic Medical Alarm",
      "address": "505 Ne 70th St,Seattle,WA",
      "entries": 1,
      "neighborhood": "Green Lake",
      "neighborhoodGroup": "Northwest",
      "unitCount": 1,
      "severity": 0,
      "units": "E17"
    }
  },
  {
    "id_str": "F190023699",
    "created_at": "3/7/2019 8:20:27 PM",
    "derived": {
      "lat": 47.719279,
      "long": -122.295233,
      "timestamp": 1552018827000,
      "description": "1RED 1 Unit",
      "address": "Lake City Way Ne / Ne 125th St,Seattle,WA",
      "entries": 1,
      "neighborhood": "Cedar Park/Meadowbrook",
      "neighborhoodGroup": "North",
      "unitCount": 1,
      "severity": 0,
      "units": "E39"
    }
  },
  {
    "id_str": "F190023698",
    "created_at": "3/7/2019 8:17:57 PM",
    "derived": {
      "lat": 47.622089,
      "long": -122.351371,
      "timestamp": 1552018677000,
      "description": "Aid Response",
      "address": "305 Harrison St,Seattle,WA",
      "entries": 2,
      "neighborhood": "Queen Anne",
      "neighborhoodGroup": "Magnolia/Queen Anne",
      "unitCount": 2,
      "severity": 0,
      "units": "E2 L4"
    }
  },
  {
    "id_str": "F190023697",
    "created_at": "3/7/2019 8:17:15 PM",
    "derived": {
      "lat": 47.520418,
      "long": -122.371339,
      "timestamp": 1552018635000,
      "description": "Aid Response",
      "address": "9234 30th Av Sw,Seattle,WA",
      "entries": 1,
      "neighborhood": "Roxhill/Westwood",
      "neighborhoodGroup": "Delridge Neighborhoods",
      "unitCount": 1,
      "severity": 0,
      "units": "E37"
    }
  },
  {
    "id_str": "F190023696",
    "created_at": "3/7/2019 8:08:08 PM",
    "derived": {
      "lat": 47.613201,
      "long": -122.342149,
      "timestamp": 1552018088000,
      "description": "Aid Response",
      "address": "305 Lenora St,Seattle,WA",
      "entries": 1,
      "neighborhood": "Cascade/Eastlake",
      "neighborhoodGroup": "Lake Union",
      "unitCount": 1,
      "severity": 0,
      "units": "A2"
    }
  },
  {
    "id_str": "F190023695",
    "created_at": "3/7/2019 8:06:52 PM",
    "derived": {
      "lat": 47.675775,
      "long": -122.302579,
      "timestamp": 1552018012000,
      "description": "Aid Response",
      "address": "2315 Ne 65th St,Seattle,WA",
      "entries": 1,
      "neighborhood": "Ravenna/Bryant",
      "neighborhoodGroup": "Northeast",
      "unitCount": 1,
      "severity": 0,
      "units": "E16"
    }
  },
  {
    "id_str": "F190023694",
    "created_at": "3/7/2019 8:05:45 PM",
    "derived": {
      "lat": 47.615025,
      "long": -122.353269,
      "timestamp": 1552017945000,
      "description": "Auto Fire Alarm",
      "address": "2800 Elliott Av,Seattle,WA",
      "entries": 1,
      "neighborhood": "Belltown",
      "neighborhoodGroup": "Downtown",
      "unitCount": 2,
      "severity": 0,
      "units": "E2 L4"
    }
  },
  {
    "id_str": "F190023692",
    "created_at": "3/7/2019 8:05:05 PM",
    "derived": {
      "lat": 47.663074,
      "long": -122.305233,
      "timestamp": 1552017905000,
      "description": "Auto Fire Alarm",
      "address": "2106 Ne 47th St,Seattle,WA",
      "entries": 1,
      "neighborhood": "Ravenna/Bryant",
      "neighborhoodGroup": "Northeast",
      "unitCount": 2,
      "severity": 0,
      "units": "E17 L9"
    }
  },
  {
    "id_str": "F190023693",
    "created_at": "3/7/2019 8:04:30 PM",
    "derived": {
      "lat": 47.619719,
      "long": -122.342229,
      "timestamp": 1552017870000,
      "description": "Medic Response",
      "address": "756 John St,Seattle,WA",
      "entries": 2,
      "neighborhood": "Cascade/Eastlake",
      "neighborhoodGroup": "Lake Union",
      "unitCount": 2,
      "severity": 0,
      "units": "A4 M17"
    }
  },
  {
    "id_str": "F190023691",
    "created_at": "3/7/2019 7:59:46 PM",
    "derived": {
      "lat": 47.554577,
      "long": -122.281987,
      "timestamp": 1552017586000,
      "description": "Aid Response",
      "address": "5279 Rainier Av S,Seattle,WA",
      "entries": 2,
      "neighborhood": "Columbia City",
      "neighborhoodGroup": "Southeast",
      "unitCount": 2,
      "severity": 0,
      "units": "E28 L12"
    }
  },
  {
    "id_str": "F190023687",
    "created_at": "3/7/2019 7:50:34 PM",
    "derived": {
      "lat": 47.552017,
      "long": -122.393706,
      "timestamp": 1552017034000,
      "description": "Automatic Fire Alarm Resd",
      "address": "5627 48th Av Sw,Seattle,WA",
      "entries": 1,
      "neighborhood": "Fauntleroy/Seaview",
      "neighborhoodGroup": "Southwest",
      "unitCount": 1,
      "severity": 0,
      "units": "E32"
    }
  },
  {
    "id_str": "F190023685",
    "created_at": "3/7/2019 7:39:42 PM",
    "derived": {
      "lat": 47.712167,
      "long": -122.312433,
      "timestamp": 1552016382000,
      "description": "Aid Response",
      "address": "11501 15th Av Ne,Seattle,WA",
      "entries": 1,
      "neighborhood": "Olympic Hills/Victory Heights",
      "neighborhoodGroup": "North",
      "unitCount": 1,
      "severity": 0,
      "units": "E39"
    }
  },
  {
    "id_str": "F190023684",
    "created_at": "3/7/2019 7:36:26 PM",
    "derived": {
      "lat": 47.549955,
      "long": -122.363012,
      "timestamp": 1552016186000,
      "description": "Medic Response",
      "address": "5915 Delridge Way Sw,Seattle,WA",
      "entries": 2,
      "neighborhood": "High Point",
      "neighborhoodGroup": "Delridge Neighborhoods",
      "unitCount": 2,
      "severity": 0,
      "units": "E11 M32"
    }
  },
  {
    "id_str": "F190023683",
    "created_at": "3/7/2019 7:34:56 PM",
    "derived": {
      "lat": 47.606687,
      "long": -122.31155,
      "timestamp": 1552016096000,
      "description": "Medic Response, 7 per Rule",
      "address": "555 16th Av,Seattle,WA",
      "entries": 1,
      "neighborhood": "Central Area/Squire Park",
      "neighborhoodGroup": "Central",
      "unitCount": 3,
      "severity": 0,
      "units": "A25 E25 M10"
    }
  },
  {
    "id_str": "F190023682",
    "created_at": "3/7/2019 7:25:54 PM",
    "derived": {
      "lat": 47.612626,
      "long": -122.341277,
      "timestamp": 1552015554000,
      "description": "Medic Response",
      "address": "2030 3rd Av,Seattle,WA",
      "entries": 2,
      "neighborhood": "Cascade/Eastlake",
      "neighborhoodGroup": "Lake Union",
      "unitCount": 2,
      "severity": 0,
      "units": "A4 M10"
    }
  },
  {
    "id_str": "F190023681",
    "created_at": "3/7/2019 7:24:11 PM",
    "derived": {
      "lat": 47.661603,
      "long": -122.315434,
      "timestamp": 1552015451000,
      "description": "Auto Fire Alarm",
      "address": "4535 12th Av Ne,Seattle,WA",
      "entries": 1,
      "neighborhood": "University District",
      "neighborhoodGroup": "Northeast",
      "unitCount": 2,
      "severity": 0,
      "units": "E17 L9"
    }
  },
  {
    "id_str": "F190023680",
    "created_at": "3/7/2019 7:24:03 PM",
    "derived": {
      "lat": 47.696062,
      "long": -122.381449,
      "timestamp": 1552015443000,
      "description": "Aid Response",
      "address": "9251 20th Av Nw,Seattle,WA",
      "entries": 1,
      "neighborhood": "North Beach/Blue Ridge",
      "neighborhoodGroup": "Ballard",
      "unitCount": 1,
      "severity": 0,
      "units": "E35"
    }
  },
  {
    "id_str": "F190023679",
    "created_at": "3/7/2019 7:17:36 PM",
    "derived": {
      "lat": 47.571408,
      "long": -122.291001,
      "timestamp": 1552015056000,
      "description": "Medic Response",
      "address": "3621 33rd Av S,Seattle,WA",
      "entries": 2,
      "neighborhood": "Columbia City",
      "neighborhoodGroup": "Southeast",
      "unitCount": 3,
      "severity": 0,
      "units": "E30 M1 M32"
    }
  },
  {
    "id_str": "F190023678",
    "created_at": "3/7/2019 7:13:32 PM",
    "derived": {
      "lat": 47.632321,
      "long": -122.359809,
      "timestamp": 1552014812000,
      "description": "Aid Response",
      "address": "223 W Galer St,Seattle,WA",
      "entries": 1,
      "neighborhood": "Queen Anne",
      "neighborhoodGroup": "Magnolia/Queen Anne",
      "unitCount": 1,
      "severity": 0,
      "units": "E8"
    }
  },
  {
    "id_str": "F190023676",
    "created_at": "3/7/2019 7:08:44 PM",
    "derived": {
      "lat": 47.558671,
      "long": -122.29149,
      "timestamp": 1552014524000,
      "description": "Medic Response",
      "address": "32nd Av S / S Edmunds St,Seattle,WA",
      "entries": 1,
      "neighborhood": "Columbia City",
      "neighborhoodGroup": "Southeast",
      "unitCount": 2,
      "severity": 0,
      "units": "E28 M1"
    }
  },
  {
    "id_str": "F190023674",
    "created_at": "3/7/2019 7:03:40 PM",
    "derived": {
      "lat": 47.601836,
      "long": -122.334179,
      "timestamp": 1552014220000,
      "description": "Aid Response",
      "address": "614 1st Av,Seattle,WA",
      "entries": 1,
      "neighborhood": "Downtown Commercial Core",
      "neighborhoodGroup": "Downtown",
      "unitCount": 1,
      "severity": 0,
      "units": "A10"
    }
  },
  {
    "id_str": "F190023668",
    "created_at": "3/7/2019 6:50:44 PM",
    "derived": {
      "lat": 47.671539,
      "long": -122.33683,
      "timestamp": 1552013444000,
      "description": "1RED 1 Unit",
      "address": "5802 Woodlawn Av N,Seattle,WA",
      "entries": 1,
      "neighborhood": "Green Lake",
      "neighborhoodGroup": "Northwest",
      "unitCount": 17,
      "severity": 2,
      "units": "A31 AIR10 B4 B6 DEP1 E16 E17 E21 E9 L5 L8 L9 M17 M44 MAR5 SAFT2 STAF10"
    }
  },
  {
    "id_str": "F190023667",
    "created_at": "3/7/2019 6:48:55 PM",
    "derived": {
      "lat": 47.712026,
      "long": -122.297556,
      "timestamp": 1552013335000,
      "description": "Medic Response",
      "address": "2804 Ne 115th St,Seattle,WA",
      "entries": 1,
      "neighborhood": "Olympic Hills/Victory Heights",
      "neighborhoodGroup": "North",
      "unitCount": 2,
      "severity": 0,
      "units": "E39 M31"
    }
  },
  {
    "id_str": "F190023666",
    "created_at": "3/7/2019 6:40:24 PM",
    "derived": {
      "lat": 47.571408,
      "long": -122.291001,
      "timestamp": 1552012824000,
      "description": "Aid Response",
      "address": "3621 33rd Av S,Seattle,WA",
      "entries": 1,
      "neighborhood": "Columbia City",
      "neighborhoodGroup": "Southeast",
      "unitCount": 1,
      "severity": 0,
      "units": "E30"
    }
  },
  {
    "id_str": "F190023665",
    "created_at": "3/7/2019 6:34:18 PM",
    "derived": {
      "lat": 47.605624,
      "long": -122.334019,
      "timestamp": 1552012458000,
      "description": "Aid Response",
      "address": "999 3RD AV,Seattle,WA",
      "entries": 1,
      "neighborhood": "Downtown Commercial Core",
      "neighborhoodGroup": "Downtown",
      "unitCount": 1,
      "severity": 0,
      "units": "A5"
    }
  },
  {
    "id_str": "F190023664",
    "created_at": "3/7/2019 6:33:23 PM",
    "derived": {
      "lat": 47.540665,
      "long": -122.280118,
      "timestamp": 1552012403000,
      "description": "Aid Response",
      "address": "4250 S Willow St,Seattle,WA",
      "entries": 1,
      "neighborhood": "Columbia City",
      "neighborhoodGroup": "Southeast",
      "unitCount": 1,
      "severity": 0,
      "units": "L12"
    }
  },
  {
    "id_str": "F190023663",
    "created_at": "3/7/2019 6:33:11 PM",
    "derived": {
      "lat": 47.579184,
      "long": -122.334202,
      "timestamp": 1552012391000,
      "description": "Aid Response",
      "address": "2759 1st Av S,Seattle,WA",
      "entries": 1,
      "neighborhood": "Duwamish/SODO",
      "neighborhoodGroup": "Greater Duwamish",
      "unitCount": 1,
      "severity": 0,
      "units": "A14"
    }
  },
  {
    "id_str": "F190023662",
    "created_at": "3/7/2019 6:31:17 PM",
    "derived": {
      "lat": 47.559447,
      "long": -122.285952,
      "timestamp": 1552012277000,
      "description": "Medic Response",
      "address": "4801 Rainier Av S,Seattle,WA",
      "entries": 2,
      "neighborhood": "Columbia City",
      "neighborhoodGroup": "Southeast",
      "unitCount": 2,
      "severity": 0,
      "units": "E28 M28"
    }
  },
  {
    "id_str": "F190023661",
    "created_at": "3/7/2019 6:25:15 PM",
    "derived": {
      "lat": 47.607661,
      "long": -122.322073,
      "timestamp": 1552011915000,
      "description": "Medic Response",
      "address": "700 Minor Av,Seattle,WA",
      "entries": 1,
      "neighborhood": "First Hill",
      "neighborhoodGroup": "East",
      "unitCount": 2,
      "severity": 0,
      "units": "A25 M10"
    }
  },
  {
    "id_str": "F190023660",
    "created_at": "3/7/2019 6:10:24 PM",
    "derived": {
      "lat": 47.712593,
      "long": -122.311108,
      "timestamp": 1552011024000,
      "description": "Medic Response",
      "address": "11549 16th Av Ne,Seattle,WA",
      "entries": 1,
      "neighborhood": "Olympic Hills/Victory Heights",
      "neighborhoodGroup": "North",
      "unitCount": 2,
      "severity": 0,
      "units": "E39 M31"
    }
  },
  {
    "id_str": "F190023659",
    "created_at": "3/7/2019 6:09:09 PM",
    "derived": {
      "lat": 47.616348,
      "long": -122.324487,
      "timestamp": 1552010949000,
      "description": "Aid Response",
      "address": "600 E Olive St,Seattle,WA",
      "entries": 1,
      "neighborhood": "Capitol Hill",
      "neighborhoodGroup": "East",
      "unitCount": 1,
      "severity": 0,
      "units": "E25"
    }
  },