[
  {
    "id_str": "F190007833",
    "created_at": "1/23/2019 3:56:16 PM",
    "derived": {
      "lat": 47.610003,
      "long": -122.338025,
      "timestamp": 1548287776000,
      "description": "Auto Fire Alarm",
      "address": "1526 3rd Av,Seattle,WA",
      "entries": 1,
      "neighborhood": "Downtown Commercial Core",
      "neighborhoodGroup": "Downtown",
      "unitCount": 2,
      "severity": 0,
      "units": "E10 L1"
    }
  },
  {
    "id_str": "F190007832",
    "created_at": "1/23/2019 3:51:40 PM",
    "derived": {
      "lat": 47.618412,
      "long": -122.355206,
      "timestamp": 1548287500000,
      "description": "Aid Response",
      "address": "94 Bay St,Seattle,WA",
      "entries": 1,
      "neighborhood": "Belltown",
      "neighborhoodGroup": "Downtown",
      "unitCount": 1,
      "severity": 0,
      "units": "L4"
    }
  },
  {
    "id_str": "F190007830",
    "created_at": "1/23/2019 3:46:50 PM",
    "derived": {
      "lat": 47.608584,
      "long": -122.340581,
      "timestamp": 1548287210000,
      "description": "Medic Response",
      "address": "85 Pike St,Seattle,WA",
      "entries": 3,
      "neighborhood": "Downtown Commercial Core",
      "neighborhoodGroup": "Downtown",
      "unitCount": 3,
      "severity": 0,
      "units": "A10 M1 M10"
    }
  },
  {
    "id_str": "F190007831",
    "created_at": "1/23/2019 3:46:05 PM",
    "derived": {
      "lat": 47.613451,
      "long": -122.344658,
      "timestamp": 1548287165000,
      "description": "Aid Response",
      "address": "2224 2nd Av,Seattle,WA",
      "entries": 1,
      "neighborhood": "Belltown",
      "neighborhoodGroup": "Downtown",
      "unitCount": 1,
      "severity": 0,
      "units": "E2"
    }
  },
  {
    "id_str": "F190007829",
    "created_at": "1/23/2019 3:44:40 PM",
    "derived": {
      "lat": 47.580772,
      "long": -122.386563,
      "timestamp": 1548287080000,
      "description": "Aid Response",
      "address": "2622 California Av Sw,Seattle,WA",
      "entries": 1,
      "neighborhood": "West Seattle Junction/Genesee Hill",
      "neighborhoodGroup": "Southwest",
      "unitCount": 1,
      "severity": 0,
      "units": "E32"
    }
  },
  {
    "id_str": "F190007827",
    "created_at": "1/23/2019 3:40:36 PM",
    "derived": {
      "lat": 47.610387,
      "long": -122.341198,
      "timestamp": 1548286836000,
      "description": "Aid Response",
      "address": "116 Stewart St,Seattle,WA",
      "entries": 1,
      "neighborhood": "Belltown",
      "neighborhoodGroup": "Downtown",
      "unitCount": 1,
      "severity": 0,
      "units": "A2"
    }
  },
  {
    "id_str": "F190007824",
    "created_at": "1/23/2019 3:35:28 PM",
    "derived": {
      "lat": 47.591269,
      "long": -122.38924,
      "timestamp": 1548286528000,
      "description": "Aid Response",
      "address": "1439 Sunset Av Sw,Seattle,WA",
      "entries": 1,
      "neighborhood": "Alki/Admiral",
      "neighborhoodGroup": "Southwest",
      "unitCount": 1,
      "severity": 0,
      "units": "E29"
    }
  },
  {
    "id_str": "F190007822",
    "created_at": "1/23/2019 3:31:34 PM",
    "derived": {
      "lat": 47.623222,
      "long": -122.333001,
      "timestamp": 1548286294000,
      "description": "Aid Response Yellow",
      "address": "510 Minor Av N,Seattle,WA",
      "entries": 1,
      "neighborhood": "Cascade/Eastlake",
      "neighborhoodGroup": "Lake Union",
      "unitCount": 1,
      "severity": 0,
      "units": "A4"
    }
  },
  {
    "id_str": "F190007821",
    "created_at": "1/23/2019 3:25:45 PM",
    "derived": {
      "lat": 47.606371,
      "long": -122.325496,
      "timestamp": 1548285945000,
      "description": "Medic Response",
      "address": "715 9th Av,Seattle,WA",
      "entries": 2,
      "neighborhood": "First Hill",
      "neighborhoodGroup": "East",
      "unitCount": 2,
      "severity": 0,
      "units": "E10 M10"
    }
  },
  {
    "id_str": "F190007819",
    "created_at": "1/23/2019 3:19:24 PM",
    "derived": {
      "lat": 47.606088,
      "long": -122.332909,
      "timestamp": 1548285564000,
      "description": "Aid Response",
      "address": "1000 4th Av,Seattle,WA",
      "entries": 1,
      "neighborhood": "Downtown Commercial Core",
      "neighborhoodGroup": "Downtown",
      "unitCount": 1,
      "severity": 0,
      "units": "A5"
    }
  },
  {
    "id_str": "F190007818",
    "created_at": "1/23/2019 3:18:22 PM",
    "derived": {
      "lat": 47.656068,
      "long": -122.373546,
      "timestamp": 1548285502000,
      "description": "Aid Response",
      "address": "4025 13th Av W,Seattle,WA",
      "entries": 1,
      "neighborhood": "Queen Anne",
      "neighborhoodGroup": "Magnolia/Queen Anne",
      "unitCount": 1,
      "severity": 0,
      "units": "E20"
    }
  },
  {
    "id_str": "F190007817",
    "created_at": "1/23/2019 3:17:17 PM",
    "derived": {
      "lat": 47.597509,
      "long": -122.319511,
      "timestamp": 1548285437000,
      "description": "Aid Response",
      "address": "1011 S Weller St,Seattle,WA",
      "entries": 1,
      "neighborhood": "Pioneer Square/International District",
      "neighborhoodGroup": "Downtown",
      "unitCount": 1,
      "severity": 0,
      "units": "A10"
    }
  },
  {
    "id_str": "F190007816",
    "created_at": "1/23/2019 3:15:38 PM",
    "derived": {
      "lat": 47.690902,
      "long": -122.367269,
      "timestamp": 1548285338000,
      "description": "Medic Response",
      "address": "8536 Dibble Av Nw,Seattle,WA",
      "entries": 2,
      "neighborhood": "Greenwood/Phinney Ridge",
      "neighborhoodGroup": "Northwest",
      "unitCount": 2,
      "severity": 0,
      "units": "E35 M18"
    }
  },
  {
    "id_str": "F190007815",
    "created_at": "1/23/2019 3:12:59 PM",
    "derived": {
      "lat": 47.674162,
      "long": -122.318431,
      "timestamp": 1548285179000,
      "description": "Rescue Lock In/Out",
      "address": "920 Ne 63rd St,Seattle,WA",
      "entries": 1,
      "neighborhood": "Green Lake",
      "neighborhoodGroup": "Northwest",
      "unitCount": 1,
      "severity": 0,
      "units": "E16"
    }
  },
  {
    "id_str": "F190007814",
    "created_at": "1/23/2019 3:06:26 PM",
    "derived": {
      "lat": 47.572606,
      "long": -122.293767,
      "timestamp": 1548284786000,
      "description": "Aid Response",
      "address": "3430 Rainier Av S,Seattle,WA",
      "entries": 1,
      "neighborhood": "Columbia City",
      "neighborhoodGroup": "Southeast",
      "unitCount": 1,
      "severity": 0,
      "units": "E30"
    }
  },
  {
    "id_str": "F190007812",
    "created_at": "1/23/2019 3:02:12 PM",
    "derived": {
      "lat": 47.497398,
      "long": -122.266808,
      "timestamp": 1548284532000,
      "description": "Aid Response",
      "address": "5358 S Wallace St,Seattle,WA",
      "entries": 1,
      "neighborhood": "Rainier Beach",
      "neighborhoodGroup": "Southeast",
      "unitCount": 1,
      "severity": 0,
      "units": "E28"
    }
  },
  {
    "id_str": "F190007811",
    "created_at": "1/23/2019 2:57:43 PM",
    "derived": {
      "lat": 47.548231,
      "long": -122.376372,
      "timestamp": 1548284263000,
      "description": "Medic Response",
      "address": "6020 35th Av Sw,Seattle,WA",
      "entries": 2,
      "neighborhood": "High Point",
      "neighborhoodGroup": "Delridge Neighborhoods",
      "unitCount": 2,
      "severity": 0,
      "units": "E37 M32"
    }
  },
  {
    "id_str": "F190007810",
    "created_at": "1/23/2019 2:51:14 PM",
    "derived": {
      "lat": 47.69216,
      "long": -122.312193,
      "timestamp": 1548283874000,
      "description": "Investigate Out Of Service",
      "address": "Ne 88th St / 15th Av Ne,Seattle,WA",
      "entries": 1,
      "neighborhood": "Northgate/Maple Leaf",
      "neighborhoodGroup": "North",
      "unitCount": 1,
      "severity": 0,
      "units": "E16"
    }
  },
  {
    "id_str": "F190007809",
    "created_at": "1/23/2019 2:50:44 PM",
    "derived": {
      "lat": 47.632321,
      "long": -122.359809,
      "timestamp": 1548283844000,
      "description": "Aid Response",
      "address": "223 W Galer St,Seattle,WA",
      "entries": 1,
      "neighborhood": "Queen Anne",
      "neighborhoodGroup": "Magnolia/Queen Anne",
      "unitCount": 1,
      "severity": 0,
      "units": "E8"
    }
  },
  {
    "id_str": "F190007808",
    "created_at": "1/23/2019 2:37:59 PM",
    "derived": {
      "lat": 47.640432,
      "long": -122.386443,
      "timestamp": 1548283079000,
      "description": "Medic Response, 6 per Rule",
      "address": "2415 Thorndyke Av W,Seattle,WA",
      "entries": 1,
      "neighborhood": "Interbay",
      "neighborhoodGroup": "Magnolia/Queen Anne",
      "unitCount": 3,
      "severity": 0,
      "units": "E20 E41 M1"
    }
  },
  {
    "id_str": "F190007807",
    "created_at": "1/23/2019 2:34:07 PM",
    "derived": {
      "lat": 47.643249,
      "long": -122.356888,
      "timestamp": 1548282847000,
      "description": "Activated CO Detector",
      "address": "2602 Queen Anne Av N,Seattle,WA",
      "entries": 1,
      "neighborhood": "Queen Anne",
      "neighborhoodGroup": "Magnolia/Queen Anne",
      "unitCount": 1,
      "severity": 0,
      "units": "L6"
    }
  },
  {
    "id_str": "F190007806",
    "created_at": "1/23/2019 2:31:43 PM",
    "derived": {
      "lat": 47.607979,
      "long": -122.333104,
      "timestamp": 1548282703000,
      "description": "Aid Response",
      "address": "Seneca St / 5th Av,Seattle,WA",
      "entries": 1,
      "neighborhood": "Downtown Commercial Core",
      "neighborhoodGroup": "Downtown",
      "unitCount": 1,
      "severity": 0,
      "units": "A5"
    }
  },
  {
    "id_str": "F190007805",
    "created_at": "1/23/2019 2:30:58 PM",
    "derived": {
      "lat": 47.690626,
      "long": -122.360774,
      "timestamp": 1548282658000,
      "description": "Alarm Bell",
      "address": "315 Nw 85th St,Seattle,WA",
      "entries": 1,
      "neighborhood": "Greenwood/Phinney Ridge",
      "neighborhoodGroup": "Northwest",
      "unitCount": 2,
      "severity": 0,
      "units": "E31 L8"
    }
  },
  {
    "id_str": "F190007804",
    "created_at": "1/23/2019 2:11:19 PM",
    "derived": {
      "lat": 47.590968,
      "long": -122.392512,
      "timestamp": 1548281479000,
      "description": "MVI - Motor Vehicle Incident",
      "address": "1388 Alki Av Sw,Seattle,WA",
      "entries": 1,
      "neighborhood": "Alki/Admiral",
      "neighborhoodGroup": "Southwest",
      "unitCount": 1,
      "severity": 0,
      "units": "E29"
    }
  },
  {
    "id_str": "F190007803",
    "created_at": "1/23/2019 2:10:53 PM",
    "derived": {
      "lat": 47.563954,
      "long": -122.294845,
      "timestamp": 1548281453000,
      "description": "Aid Response",
      "address": "3020 S Genesee St,Seattle,WA",
      "entries": 1,
      "neighborhood": "Columbia City",
      "neighborhoodGroup": "Southeast",
      "unitCount": 1,
      "severity": 0,
      "units": "E30"
    }
  },
  {
    "id_str": "F190007802",
    "created_at": "1/23/2019 2:09:15 PM",
    "derived": {
      "lat": 47.560074,
      "long": -122.381457,
      "timestamp": 1548281355000,
      "description": "Medic Response",
      "address": "4755 Fauntleroy Way Sw,Seattle,WA",
      "entries": 1,
      "neighborhood": "West Seattle Junction/Genesee Hill",
      "neighborhoodGroup": "Southwest",
      "unitCount": 2,
      "severity": 0,
      "units": "E32 M32"
    }
  },
  {
    "id_str": "F190007801",
    "created_at": "1/23/2019 2:07:05 PM",
    "derived": {
      "lat": 47.588437,
      "long": -122.315855,
      "timestamp": 1548281225000,
      "description": "Aid Response",
      "address": "1311 S Massachusetts St,Seattle,WA",
      "entries": 1,
      "neighborhood": "North Beacon Hill/Jefferson Park",
      "neighborhoodGroup": "Greater Duwamish",
      "unitCount": 1,
      "severity": 0,
      "units": "A10"
    }
  },
  {
    "id_str": "F190007800",
    "created_at": "1/23/2019 2:06:17 PM",
    "derived": {
      "lat": 47.606801,
      "long": -122.333562,
      "timestamp": 1548281177000,
      "description": "4RED - 2 + 1 + 1",
      "address": "400 Spring St,Seattle,WA",
      "entries": 2,
      "neighborhood": "Downtown Commercial Core",
      "neighborhoodGroup": "Downtown",
      "unitCount": 4,
      "severity": 0,
      "units": "B2 E2 E25 L4"
    }
  },
  {
    "id_str": "F190007799",
    "created_at": "1/23/2019 2:06:08 PM",
    "derived": {
      "lat": 47.62455,
      "long": -122.34235,
      "timestamp": 1548281168000,
      "description": "Aid Response",
      "address": "Dexter Av N / Mercer St,Seattle,WA",
      "entries": 1,
      "neighborhood": "Cascade/Eastlake",
      "neighborhoodGroup": "Lake Union",
      "unitCount": 1,
      "severity": 0,
      "units": "A4"
    }
  },
  {
    "id_str": "F190007796",
    "created_at": "1/23/2019 2:01:41 PM",
    "derived": {
      "lat": 47.732474,
      "long": -122.33294,
      "timestamp": 1548280901000,
      "description": "Aid Response",
      "address": "14321 Bagley Av N,Seattle,WA",
      "entries": 1,
      "neighborhood": "Haller Lake",
      "neighborhoodGroup": "Northwest",
      "unitCount": 1,
      "severity": 0,
      "units": "E21"
    }
  },
  {
    "id_str": "F190007797",
    "created_at": "1/23/2019 2:01:27 PM",
    "derived": {
      "lat": 47.574802,
      "long": -122.31131,
      "timestamp": 1548280887000,
      "description": "Medic Response, 7 per Rule",
      "address": "3229 17th Av S,Seattle,WA",
      "entries": 3,
      "neighborhood": "North Beacon Hill/Jefferson Park",
      "neighborhoodGroup": "Greater Duwamish",
      "unitCount": 3,
      "severity": 0,
      "units": "A14 E13 M1"
    }
  },
  {
    "id_str": "F190007794",
    "created_at": "1/23/2019 1:54:48 PM",
    "derived": {
      "lat": 47.539461,
      "long": -122.334507,
      "timestamp": 1548280488000,
      "description": "Aid Response",
      "address": "7152 1st Av S,Seattle,WA",
      "entries": 1,
      "neighborhood": "South Park",
      "neighborhoodGroup": "Greater Duwamish",
      "unitCount": 1,
      "severity": 0,
      "units": "E26"
    }
  },
  {
    "id_str": "F190007793",
    "created_at": "1/23/2019 1:48:12 PM",
    "derived": {
      "lat": 47.612578,
      "long": -122.341197,
      "timestamp": 1548280092000,
      "description": "Aid Response",
      "address": "2024 3rd Av,Seattle,WA",
      "entries": 1,
      "neighborhood": "Cascade/Eastlake",
      "neighborhoodGroup": "Lake Union",
      "unitCount": 1,
      "severity": 0,
      "units": "A2"
    }
  },
  {
    "id_str": "F190007792",
    "created_at": "1/23/2019 1:47:22 PM",
    "derived": {
      "lat": 47.683309,
      "long": -122.367282,
      "timestamp": 1548280042000,
      "description": "Medic Response, 7 per Rule",
      "address": "7506 Dibble Av Nw,Seattle,WA",
      "entries": 1,
      "neighborhood": "Whittier Heights",
      "neighborhoodGroup": "Ballard",
      "unitCount": 3,
      "severity": 0,
      "units": "E35 L8 M18"
    }
  },
  {
    "id_str": "F190007791",
    "created_at": "1/23/2019 1:44:29 PM",
    "derived": {
      "lat": 47.615616,
      "long": -122.334436,
      "timestamp": 1548279869000,
      "description": "Aid Response",
      "address": "9th Av / Stewart St,Seattle,WA",
      "entries": 1,
      "neighborhood": "Cascade/Eastlake",
      "neighborhoodGroup": "Lake Union",
      "unitCount": 1,
      "severity": 0,
      "units": "A4"
    }
  },
  {
    "id_str": "F190007789",
    "created_at": "1/23/2019 1:43:08 PM",
    "derived": {
      "lat": 47.595541,
      "long": -122.298643,
      "timestamp": 1548279788000,
      "description": "Medic Response",
      "address": "2611 S Dearborn St,Seattle,WA",
      "entries": 2,
      "neighborhood": "Madrona/Leschi",
      "neighborhoodGroup": "Central",
      "unitCount": 2,
      "severity": 0,
      "units": "L3 M10"
    }
  },
  {
    "id_str": "F190007788",
    "created_at": "1/23/2019 1:40:19 PM",
    "derived": {
      "lat": 47.599208,
      "long": -122.314139,
      "timestamp": 1548279619000,
      "description": "Aid Response",
      "address": "Rainier Av S / S Jackson St,Seattle,WA",
      "entries": 1,
      "neighborhood": "Judkins Park",
      "neighborhoodGroup": "Central",
      "unitCount": 1,
      "severity": 0,
      "units": "E6"
    }
  },
  {
    "id_str": "F190007786",
    "created_at": "1/23/2019 1:39:15 PM",
    "derived": {
      "lat": 47.538872,
      "long": -122.284744,
      "timestamp": 1548279555000,
      "description": "Auto Fire Alarm",
      "address": "7101 38TH AV S,Seattle,WA",
      "entries": 1,
      "neighborhood": "South Beacon Hill/NewHolly",
      "neighborhoodGroup": "Greater Duwamish",
      "unitCount": 2,
      "severity": 0,
      "units": "E28 R1"
    }
  },
  {
    "id_str": "F190007787",
    "created_at": "1/23/2019 1:38:08 PM",
    "derived": {
      "lat": 47.552104,
      "long": -122.387038,
      "timestamp": 1548279488000,
      "description": "Aid Response Yellow",
      "address": "5601 California Av Sw,Seattle,WA",
      "entries": 1,
      "neighborhood": "West Seattle Junction/Genesee Hill",
      "neighborhoodGroup": "Southwest",
      "unitCount": 1,
      "severity": 0,
      "units": "E32"
    }
  },
  {
    "id_str": "F190007785",
    "created_at": "1/23/2019 1:34:08 PM",
    "derived": {
      "lat": 47.669316,
      "long": -122.270072,
      "timestamp": 1548279248000,
      "description": "Aid Response",
      "address": "5429 NE WINDERMERE RD,Seattle,WA",
      "entries": 1,
      "neighborhood": "Laurelhurst/Sand Point",
      "neighborhoodGroup": "Northeast",
      "unitCount": 1,
      "severity": 0,
      "units": "E38"
    }
  },
  {
    "id_str": "F190007782",
    "created_at": "1/23/2019 1:15:48 PM",
    "derived": {
      "lat": 47.673983,
      "long": -122.403517,
      "timestamp": 1548278148000,
      "description": "Automatic Fire Alarm Resd",
      "address": "6215 36th Av Nw,Seattle,WA",
      "entries": 1,
      "neighborhood": "Sunset Hill/Loyal Heights",
      "neighborhoodGroup": "Ballard",
      "unitCount": 1,
      "severity": 0,
      "units": "E18"
    }
  },
  {
    "id_str": "F190007781",
    "created_at": "1/23/2019 1:06:59 PM",
    "derived": {
      "lat": 47.65042,
      "long": -122.276612,
      "timestamp": 1548277619000,
      "description": "Automatic Fire Alarm Resd",
      "address": "3112 East Laurelhurst Dr Ne,Seattle,WA",
      "entries": 1,
      "neighborhood": "Laurelhurst/Sand Point",
      "neighborhoodGroup": "Northeast",
      "unitCount": 1,
      "severity": 0,
      "units": "E38"
    }
  },
  {
    "id_str": "F190007780",
    "created_at": "1/23/2019 1:06:02 PM",
    "derived": {
      "lat": 47.662937,
      "long": -122.368666,
      "timestamp": 1548277562000,
      "description": "Aid Response",
      "address": "907 Nw Ballard Way,Seattle,WA",
      "entries": 1,
      "neighborhood": "Ballard",
      "neighborhoodGroup": "Ballard",
      "unitCount": 1,
      "severity": 0,
      "units": "L8"
    }
  },
  {
    "id_str": "F190007779",
    "created_at": "1/23/2019 1:01:05 PM",
    "derived": {
      "lat": 47.719414,
      "long": -122.312679,
      "timestamp": 1548277265000,
      "description": "MVI - Motor Vehicle Incident",
      "address": "15th Av Ne / Ne 125th St,Seattle,WA",
      "entries": 1,
      "neighborhood": "Olympic Hills/Victory Heights",
      "neighborhoodGroup": "North",
      "unitCount": 1,
      "severity": 0,
      "units": "E39"
    }
  },
  {
    "id_str": "F190007778",
    "created_at": "1/23/2019 12:52:21 PM",
    "derived": {
      "lat": 47.600694,
      "long": -122.319323,
      "timestamp": 1548276741000,
      "description": "Aid Response",
      "address": "221 10th Av S,Seattle,WA",
      "entries": 1,
      "neighborhood": "Pioneer Square/International District",
      "neighborhoodGroup": "Downtown",
      "unitCount": 1,
      "severity": 0,
      "units": "E6"
    }
  },
  {
    "id_str": "F190007777",
    "created_at": "1/23/2019 12:49:56 PM",
    "derived": {
      "lat": 47.603588,
      "long": -122.322949,
      "timestamp": 1548276596000,
      "description": "Medic Response",
      "address": "325 9th Av,Seattle,WA",
      "entries": 1,
      "neighborhood": "First Hill",
      "neighborhoodGroup": "East",
      "unitCount": 2,
      "severity": 0,
      "units": "A5 M1"
    }
  },
  {
    "id_str": "F190007776",
    "created_at": "1/23/2019 12:49:25 PM",
    "derived": {
      "lat": 47.697876,
      "long": -122.388619,
      "timestamp": 1548276565000,
      "description": "Illegal Burn",
      "address": "25th Av Nw / Nw 95th St,Seattle,WA",
      "entries": 1,
      "neighborhood": "North Beach/Blue Ridge",
      "neighborhoodGroup": "Ballard",
      "unitCount": 1,
      "severity": 0,
      "units": "E21"
    }
  },
  {
    "id_str": "F190007774",
    "created_at": "1/23/2019 12:47:47 PM",
    "derived": {
      "lat": 47.719638,
      "long": -122.355539,
      "timestamp": 1548276467000,
      "description": "Aid Response",
      "address": "12505 Greenwood Av N,Seattle,WA",
      "entries": 1,
      "neighborhood": "Broadview/Bitter Lake",
      "neighborhoodGroup": "Northwest",
      "unitCount": 1,
      "severity": 0,
      "units": "E31"
    }
  },
  {
    "id_str": "F190007773",
    "created_at": "1/23/2019 12:47:13 PM",
    "derived": {
      "lat": 47.674577,
      "long": -122.368731,
      "timestamp": 1548276433000,
      "description": "Aid Response",
      "address": "6306 9th Av Nw,Seattle,WA",
      "entries": 1,
      "neighborhood": "Whittier Heights",
      "neighborhoodGroup": "Ballard",
      "unitCount": 1,
      "severity": 0,
      "units": "E18"
    }
  },
  {
    "id_str": "F190007771",
    "created_at": "1/23/2019 12:45:37 PM",
    "derived": {
      "lat": 47.572606,
      "long": -122.293767,
      "timestamp": 1548276337000,
      "description": "Aid Response",
      "address": "3430 Rainier Av S,Seattle,WA",
      "entries": 1,
      "neighborhood": "Columbia City",
      "neighborhoodGroup": "Southeast",
      "unitCount": 1,
      "severity": 0,
      "units": "E30"
    }
  },
  {
    "id_str": "F190007772",
    "created_at": "1/23/2019 12:45:22 PM",
    "derived": {
      "lat": 47.698241,
      "long": -122.383142,
      "timestamp": 1548276322000,
      "description": "1RED 1 Unit",
      "address": "2110 Nw 95th St,Seattle,WA",
      "entries": 1,
      "neighborhood": "North Beach/Blue Ridge",
      "neighborhoodGroup": "Ballard",
      "unitCount": 1,
      "severity": 0,
      "units": "E35"
    }
  },
  {
    "id_str": "F190007770",
    "created_at": "1/23/2019 12:38:00 PM",
    "derived": {
      "lat": 47.71583,
      "long": -122.318021,
      "timestamp": 1548275880000,
      "description": "Aid Response Yellow",
      "address": "12002 Roosevelt Way Ne,Seattle,WA",
      "entries": 1,
      "neighborhood": "Haller Lake",
      "neighborhoodGroup": "Northwest",
      "unitCount": 1,
      "severity": 0,
      "units": "A31"
    }
  },
  {
    "id_str": "F190007767",
    "created_at": "1/23/2019 12:27:05 PM",
    "derived": {
      "lat": 47.675163,
      "long": -122.327783,
      "timestamp": 1548275225000,
      "description": "Automatic Fire Alarm Resd",
      "address": "128 Ne 64th St,Seattle,WA",
      "entries": 1,
      "neighborhood": "Green Lake",
      "neighborhoodGroup": "Northwest",
      "unitCount": 1,
      "severity": 0,
      "units": "E16"
    }
  },
  {
    "id_str": "F190007766",
    "created_at": "1/23/2019 12:26:07 PM",
    "derived": {
      "lat": 47.561845,
      "long": -122.310824,
      "timestamp": 1548275167000,
      "description": "Aid Response",
      "address": "1660 S Columbian Way,Seattle,WA",
      "entries": 1,
      "neighborhood": "North Beacon Hill/Jefferson Park",
      "neighborhoodGroup": "Greater Duwamish",
      "unitCount": 1,
      "severity": 0,
      "units": "E13"
    }
  },
  {
    "id_str": "F190007765",
    "created_at": "1/23/2019 12:22:26 PM",
    "derived": {
      "lat": 47.617176,
      "long": -122.348974,
      "timestamp": 1548274946000,
      "description": "Aid Response",
      "address": "2709 3rd Av,Seattle,WA",
      "entries": 1,
      "neighborhood": "Cascade/Eastlake",
      "neighborhoodGroup": "Lake Union",
      "unitCount": 1,
      "severity": 0,
      "units": "A4"
    }
  },
  {
    "id_str": "F190007760",
    "created_at": "1/23/2019 12:01:26 PM",
    "derived": {
      "lat": 47.550408,
      "long": -122.27727,
      "timestamp": 1548273686000,
      "description": "Aid Response",
      "address": "5802 RAINIER AV S,Seattle,WA",
      "entries": 1,
      "neighborhood": "Columbia City",
      "neighborhoodGroup": "Southeast",
      "unitCount": 1,
      "severity": 0,
      "units": "E28"
    }
  },
  {
    "id_str": "F190007759",
    "created_at": "1/23/2019 12:00:57 PM",
    "derived": {
      "lat": 47.624342,
      "long": -122.294916,
      "timestamp": 1548273657000,
      "description": "Aid Response",
      "address": "2915 E MADISON ST,Seattle,WA",
      "entries": 1,
      "neighborhood": "Central Area/Squire Park",
      "neighborhoodGroup": "Central",
      "unitCount": 1,
      "severity": 0,
      "units": "E34"
    }
  },
  {
    "id_str": "F190007758",
    "created_at": "1/23/2019 11:59:51 AM",
    "derived": {
      "lat": 47.698616,
      "long": -122.391524,
      "timestamp": 1548273591000,
      "description": "Aid Response",
      "address": "2641 Nw 96th St,Seattle,WA",
      "entries": 1,
      "neighborhood": "North Beach/Blue Ridge",
      "neighborhoodGroup": "Ballard",
      "unitCount": 1,
      "severity": 0,
      "units": "E35"
    }
  },
  {
    "id_str": "F190007755",
    "created_at": "1/23/2019 11:58:01 AM",
    "derived": {
      "lat": 47.536395,
      "long": -122.347089,
      "timestamp": 1548273481000,
      "description": "Aid Response",
      "address": "SW OTHELLO ST / HIGHLAND PARK WAY SW,Seattle,WA",
      "entries": 1,
      "neighborhood": "Highland Park",
      "neighborhoodGroup": "Delridge Neighborhoods",
      "unitCount": 1,
      "severity": 0,
      "units": "E11"
    }
  },
  {
    "id_str": "F190007753",
    "created_at": "1/23/2019 11:55:34 AM",
    "derived": {
      "lat": 47.571012,
      "long": -122.348249,
      "timestamp": 1548273334000,
      "description": "Aid Response",
      "address": "1021 SW KLICKITAT WAY,Seattle,WA",
      "entries": 1,
      "neighborhood": "North Delridge",
      "neighborhoodGroup": "Delridge Neighborhoods",
      "unitCount": 1,
      "severity": 0,
      "units": "A14"
    }
  },
  {
    "id_str": "F190007754",
    "created_at": "1/23/2019 11:53:38 AM",
    "derived": {
      "lat": 47.645125,
      "long": -122.409619,
      "timestamp": 1548273218000,
      "description": "Water Job Minor",
      "address": "2816 West Viewmont Way W,Seattle,WA",
      "entries": 2,
      "neighborhood": "Magnolia",
      "neighborhoodGroup": "Magnolia/Queen Anne",
      "unitCount": 2,
      "severity": 0,
      "units": "E41 L8"
    }
  },
  {
    "id_str": "F190007750",
    "created_at": "1/23/2019 11:49:31 AM",
    "derived": {
      "lat": 47.599195,
      "long": -122.327667,
      "timestamp": 1548272971000,
      "description": "Aid Response",
      "address": "5th Av S / S Jackson St,Seattle,WA",
      "entries": 2,
      "neighborhood": "Pioneer Square/International District",
      "neighborhoodGroup": "Downtown",
      "unitCount": 2,
      "severity": 0,
      "units": "A10 L1"
    }
  },
  {
    "id_str": "F190007749",
    "created_at": "1/23/2019 11:48:23 AM",
    "derived": {
      "lat": 47.662203,
      "long": -122.335167,
      "timestamp": 1548272903000,
      "description": "Aid Response",
      "address": "4611 Burke Av N,Seattle,WA",
      "entries": 1,
      "neighborhood": "Wallingford",
      "neighborhoodGroup": "Lake Union",
      "unitCount": 1,
      "severity": 0,
      "units": "L9"
    }
  },
  {
    "id_str": "F190007748",
    "created_at": "1/23/2019 11:48:16 AM",
    "derived": {
      "lat": 47.653146,
      "long": -122.336099,
      "timestamp": 1548272896000,
      "description": "Medic Response",
      "address": "1816 N 38th St,Seattle,WA",
      "entries": 2,
      "neighborhood": "Wallingford",
      "neighborhoodGroup": "Lake Union",
      "unitCount": 2,
      "severity": 0,
      "units": "E17 M18"
    }
  },
  {
    "id_str": "F190007747",
    "created_at": "1/23/2019 11:47:43 AM",
    "derived": {
      "lat": 47.638695,
      "long": -122.376149,
      "timestamp": 1548272863000,
      "description": "Aid Response",
      "address": "2208 15th Av W,Seattle,WA",
      "entries": 1,
      "neighborhood": "Interbay",
      "neighborhoodGroup": "Magnolia/Queen Anne",
      "unitCount": 1,
      "severity": 0,
      "units": "E20"
    }
  },
  {
    "id_str": "F190007745",
    "created_at": "1/23/2019 11:42:08 AM",
    "derived": {
      "lat": 47.728223,
      "long": -122.297801,
      "timestamp": 1548272528000,
      "description": "Aid Response",
      "address": "13720 28th Av Ne,Seattle,WA",
      "entries": 1,
      "neighborhood": "Olympic Hills/Victory Heights",
      "neighborhoodGroup": "North",
      "unitCount": 1,
      "severity": 0,
      "units": "E31"
    }
  },
  {
    "id_str": "F190007743",
    "created_at": "1/23/2019 11:37:05 AM",
    "derived": {
      "lat": 47.608073,
      "long": -122.320755,
      "timestamp": 1548272225000,
      "description": "Aid Response",
      "address": "700 Broadway,Seattle,WA",
      "entries": 1,
      "neighborhood": "First Hill",
      "neighborhoodGroup": "East",
      "unitCount": 1,
      "severity": 0,
      "units": "A5"
    }
  },
  {
    "id_str": "F190007742",
    "created_at": "1/23/2019 11:36:45 AM",
    "derived": {
      "lat": 47.683046,
      "long": -122.288274,
      "timestamp": 1548272205000,
      "description": "Aid Response",
      "address": "3716 Ne 75th St,Seattle,WA",
      "entries": 1,
      "neighborhood": "Wedgwood/View Ridge",
      "neighborhoodGroup": "Northeast",
      "unitCount": 1,
      "severity": 0,
      "units": "E40"
    }
  },
  {
    "id_str": "F190007741",
    "created_at": "1/23/2019 11:36:04 AM",
    "derived": {
      "lat": 47.712167,
      "long": -122.312433,
      "timestamp": 1548272164000,
      "description": "Medic Response",
      "address": "11501 15th Av Ne,Seattle,WA",
      "entries": 1,
      "neighborhood": "Olympic Hills/Victory Heights",
      "neighborhoodGroup": "North",
      "unitCount": 2,
      "severity": 0,
      "units": "A31 M17"
    }
  },
  {
    "id_str": "F190007739",
    "created_at": "1/23/2019 11:33:23 AM",
    "derived": {
      "lat": 47.571408,
      "long": -122.291001,
      "timestamp": 1548272003000,
      "description": "Automatic Medical Alarm",
      "address": "3621 33rd Av S,Seattle,WA",
      "entries": 1,
      "neighborhood": "Columbia City",
      "neighborhoodGroup": "Southeast",
      "unitCount": 1,
      "severity": 0,
      "units": "E30"
    }
  },
  {
    "id_str": "F190007738",
    "created_at": "1/23/2019 11:32:54 AM",
    "derived": {
      "lat": 47.618248,
      "long": -122.350787,
      "timestamp": 1548271974000,
      "description": "Medic Response",
      "address": "3rd Av / Broad St,Seattle,WA",
      "entries": 2,
      "neighborhood": "Cascade/Eastlake",
      "neighborhoodGroup": "Lake Union",
      "unitCount": 3,
      "severity": 0,
      "units": "A2 M10 M31"
    }
  },
  {
    "id_str": "F190007737",
    "created_at": "1/23/2019 11:32:05 AM",
    "derived": {
      "lat": 47.608058,
      "long": -122.31647,
      "timestamp": 1548271925000,
      "description": "Aid Response",
      "address": "1223 E Cherry St,Seattle,WA",
      "entries": 1,
      "neighborhood": "First Hill",
      "neighborhoodGroup": "East",
      "unitCount": 1,
      "severity": 0,
      "units": "E25"
    }
  },
  {
    "id_str": "F190007736",
    "created_at": "1/23/2019 11:28:15 AM",
    "derived": {
      "lat": 47.620503,
      "long": -122.312698,
      "timestamp": 1548271695000,
      "description": "Aid Response",
      "address": "1501 E Thomas St,Seattle,WA",
      "entries": 1,
      "neighborhood": "Capitol Hill",
      "neighborhoodGroup": "East",
      "unitCount": 1,
      "severity": 0,
      "units": "A25"
    }
  },
  {
    "id_str": "F190007734",
    "created_at": "1/23/2019 11:21:49 AM",
    "derived": {
      "lat": 47.547357,
      "long": -122.320152,
      "timestamp": 1548271309000,
      "description": "1RED 1 Unit",
      "address": "Carleton Av S / S Bailey St,Seattle,WA",
      "entries": 1,
      "neighborhood": "Georgetown",
      "neighborhoodGroup": "Greater Duwamish",
      "unitCount": 1,
      "severity": 0,
      "units": "E27"
    }
  },
  {
    "id_str": "F190007733",
    "created_at": "1/23/2019 11:20:44 AM",
    "derived": {
      "lat": 47.732448,
      "long": -122.293826,
      "timestamp": 1548271244000,
      "description": "Aid Response",
      "address": "14355 32nd Av Ne,Seattle,WA",
      "entries": 1,
      "neighborhood": "Cedar Park/Meadowbrook",
      "neighborhoodGroup": "North",
      "unitCount": 1,
      "severity": 0,
      "units": "E39"
    }
  },
  {
    "id_str": "F190007732",
    "created_at": "1/23/2019 11:11:22 AM",
    "derived": {
      "lat": 47.638567,
      "long": -122.308651,
      "timestamp": 1548270682000,
      "description": "Aid Response",
      "address": "2132 Boyer Av E,Seattle,WA",
      "entries": 1,
      "neighborhood": "Montlake/Portage Bay",
      "neighborhoodGroup": "Northeast",
      "unitCount": 1,
      "severity": 0,
      "units": "E22"
    }
  },
  {
    "id_str": "F190007731",
    "created_at": "1/23/2019 11:02:17 AM",
    "derived": {
      "lat": 47.610155,
      "long": -122.333545,
      "timestamp": 1548270137000,
      "description": "Aid Response",
      "address": "601 Union St,Seattle,WA",
      "entries": 1,
      "neighborhood": "First Hill",
      "neighborhoodGroup": "East",
      "unitCount": 1,
      "severity": 0,
      "units": "E5"
    }
  },
  {
    "id_str": "F190007729",
    "created_at": "1/23/2019 11:00:04 AM",
    "derived": {
      "lat": 47.640165,
      "long": -122.342026,
      "timestamp": 1548270004000,
      "description": "Aid Response",
      "address": "2420 WESTLAKE AV N,Seattle,WA",
      "entries": 1,
      "neighborhood": "Queen Anne",
      "neighborhoodGroup": "Magnolia/Queen Anne",
      "unitCount": 1,
      "severity": 0,
      "units": "A4"
    }
  },
  {
    "id_str": "F190007727",
    "created_at": "1/23/2019 10:56:43 AM",
    "derived": {
      "lat": 47.536696,
      "long": -122.270213,
      "timestamp": 1548269803000,
      "description": "Aid Response",
      "address": "7325 Rainier Av S,Seattle,WA",
      "entries": 1,
      "neighborhood": "Seward Park",
      "neighborhoodGroup": "Southeast",
      "unitCount": 1,
      "severity": 0,
      "units": "L12"
    }
  },
  {
    "id_str": "F190007726",
    "created_at": "1/23/2019 10:52:57 AM",
    "derived": {
      "lat": 47.600875,
      "long": -122.328963,
      "timestamp": 1548269577000,
      "description": "Aid Response",
      "address": "400 S Washington St,Seattle,WA",
      "entries": 1,
      "neighborhood": "Pioneer Square/International District",
      "neighborhoodGroup": "Downtown",
      "unitCount": 1,
      "severity": 0,
      "units": "A5"
    }
  },
  {
    "id_str": "F190007724",
    "created_at": "1/23/2019 10:46:43 AM",
    "derived": {
      "lat": 47.688389,
      "long": -122.344511,
      "timestamp": 1548269203000,
      "description": "Rescue Standby",
      "address": "8201 Aurora Av N,Seattle,WA",
      "entries": 1,
      "neighborhood": "Green Lake",
      "neighborhoodGroup": "Northwest",
      "unitCount": 5,
      "severity": 1,
      "units": "A14 B6 E21 M31 R1"
    }
  },
  {
    "id_str": "F190007722",
    "created_at": "1/23/2019 10:45:46 AM",
    "derived": {
      "lat": 47.634155,
      "long": -122.31264,
      "timestamp": 1548269146000,
      "description": "Illegal Burn",
      "address": "1606 15th Av E,Seattle,WA",
      "entries": 1,
      "neighborhood": "Montlake/Portage Bay",
      "neighborhoodGroup": "Northeast",
      "unitCount": 1,
      "severity": 0,
      "units": "E22"
    }
  },
  {
    "id_str": "F190007721",
    "created_at": "1/23/2019 10:45:12 AM",
    "derived": {
      "lat": 47.637736,
      "long": -122.397926,
      "timestamp": 1548269112000,
      "description": "MVI - Motor Vehicle Incident",
      "address": "Clise Pl W / W Crockett St,Seattle,WA",
      "entries": 1,
      "neighborhood": "Magnolia",
      "neighborhoodGroup": "Magnolia/Queen Anne",
      "unitCount": 1,
      "severity": 0,
      "units": "E41"
    }
  },
  {
    "id_str": "F190007720",
    "created_at": "1/23/2019 10:43:31 AM",
    "derived": {
      "lat": 47.617717,
      "long": -122.330057,
      "timestamp": 1548269011000,
      "description": "Medic Response",
      "address": "1828 Yale Av,Seattle,WA",
      "entries": 3,
      "neighborhood": "Cascade/Eastlake",
      "neighborhoodGroup": "Lake Union",
      "unitCount": 3,
      "severity": 0,
      "units": "E25 M1 M10"
    }
  },
  {
    "id_str": "F190007719",
    "created_at": "1/23/2019 10:43:04 AM",
    "derived": {
      "lat": 47.663372,
      "long": -122.310825,
      "timestamp": 1548268984000,
      "description": "Trans to AMR",
      "address": "4750 16th Av Ne,Seattle,WA",
      "entries": 1,
      "neighborhood": "University District",
      "neighborhoodGroup": "Northeast",
      "unitCount": 1,
      "severity": 0,
      "units": "E17"
    }
  },
  {
    "id_str": "F190007718",
    "created_at": "1/23/2019 10:38:23 AM",
    "derived": {
      "lat": 47.517478,
      "long": -122.376884,
      "timestamp": 1548268703000,
      "description": "Medic Response",
      "address": "9601 35th Av Sw,Seattle,WA",
      "entries": 1,
      "neighborhood": "Arbor Heights",
      "neighborhoodGroup": "Southwest",
      "unitCount": 2,
      "severity": 0,
      "units": "E26 M32"
    }
  },
  {
    "id_str": "F190007717",
    "created_at": "1/23/2019 10:37:45 AM",
    "derived": {
      "lat": 47.715614,
      "long": -122.297401,
      "timestamp": 1548268665000,
      "description": "Aid Response",
      "address": "12001 Lake City Way Ne,Seattle,WA",
      "entries": 1,
      "neighborhood": "Olympic Hills/Victory Heights",
      "neighborhoodGroup": "North",
      "unitCount": 1,
      "severity": 0,
      "units": "E39"
    }
  },
  {
    "id_str": "F190007714",
    "created_at": "1/23/2019 10:31:56 AM",
    "derived": {
      "lat": 47.607299,
      "long": -122.337087,
      "timestamp": 1548268316000,
      "description": "Aid Response",
      "address": "200 University St,Seattle,WA",
      "entries": 1,
      "neighborhood": "Downtown Commercial Core",
      "neighborhoodGroup": "Downtown",
      "unitCount": 1,
      "severity": 0,
      "units": "A2"
    }
  },
  {
    "id_str": "F190007715",
    "created_at": "1/23/2019 10:31:16 AM",
    "derived": {
      "lat": 47.562416,
      "long": -122.288819,
      "timestamp": 1548268276000,
      "description": "Aid Response Yellow",
      "address": "4541 35th Av S,Seattle,WA",
      "entries": 1,
      "neighborhood": "Columbia City",
      "neighborhoodGroup": "Southeast",
      "unitCount": 1,
      "severity": 0,
      "units": "E30"
    }
  },
  {
    "id_str": "F190007711",
    "created_at": "1/23/2019 10:26:21 AM",
    "derived": {
      "lat": 47.624331,
      "long": -122.329164,
      "timestamp": 1548267981000,
      "description": "Medic Response",
      "address": "607 Eastlake Av E,Seattle,WA",
      "entries": 2,
      "neighborhood": "Cascade/Eastlake",
      "neighborhoodGroup": "Lake Union",
      "unitCount": 2,
      "severity": 0,
      "units": "A25 M10"
    }
  },
  {
    "id_str": "F190007710",
    "created_at": "1/23/2019 10:17:33 AM",
    "derived": {
      "lat": 47.560584,
      "long": -122.288822,
      "timestamp": 1548267453000,
      "description": "Aid Response",
      "address": "4712 35th Av S,Seattle,WA",
      "entries": 1,
      "neighborhood": "Columbia City",
      "neighborhoodGroup": "Southeast",
      "unitCount": 1,
      "severity": 0,
      "units": "E28"
    }
  },
  {
    "id_str": "F190007709",
    "created_at": "1/23/2019 10:12:32 AM",
    "derived": {
      "lat": 47.60916,
      "long": -122.33264,
      "timestamp": 1548267152000,
      "description": "Aid Response",
      "address": "1301 6th Av,Seattle,WA",
      "entries": 1,
      "neighborhood": "First Hill",
      "neighborhoodGroup": "East",
      "unitCount": 1,
      "severity": 0,
      "units": "A4"
    }
  },
  {
    "id_str": "F190007707",
    "created_at": "1/23/2019 10:00:03 AM",
    "derived": {
      "lat": 47.625769,
      "long": -122.334353,
      "timestamp": 1548266403000,
      "description": "MVI - Motor Vehicle Incident",
      "address": "Fairview Av N / Valley St,Seattle,WA",
      "entries": 1,
      "neighborhood": "Cascade/Eastlake",
      "neighborhoodGroup": "Lake Union",
      "unitCount": 1,
      "severity": 0,
      "units": "E25"
    }
  },
  {
    "id_str": "F190007705",
    "created_at": "1/23/2019 9:59:20 AM",
    "derived": {
      "lat": 47.623224,
      "long": -122.342361,
      "timestamp": 1548266360000,
      "description": "Auto Fire Alarm",
      "address": "750 Republican St,Seattle,WA",
      "entries": 1,
      "neighborhood": "Cascade/Eastlake",
      "neighborhoodGroup": "Lake Union",
      "unitCount": 2,
      "severity": 0,
      "units": "E2 L4"
    }
  },
  {
    "id_str": "F190007704",
    "created_at": "1/23/2019 9:56:17 AM",
    "derived": {
      "lat": 47.597517,
      "long": -122.327395,
      "timestamp": 1548266177000,
      "description": "Aid Response",
      "address": "521 S Weller St,Seattle,WA",
      "entries": 1,
      "neighborhood": "Pioneer Square/International District",
      "neighborhoodGroup": "Downtown",
      "unitCount": 1,
      "severity": 0,
      "units": "A5"
    }
  },
  {
    "id_str": "F190007703",
    "created_at": "1/23/2019 9:48:09 AM",
    "derived": {
      "lat": 47.638695,
      "long": -122.376149,
      "timestamp": 1548265689000,
      "description": "Aid Response",
      "address": "2208 15th Av W,Seattle,WA",
      "entries": 1,
      "neighborhood": "Interbay",
      "neighborhoodGroup": "Magnolia/Queen Anne",
      "unitCount": 1,
      "severity": 0,
      "units": "E20"
    }
  },
  {
    "id_str": "F190007700",
    "created_at": "1/23/2019 9:32:33 AM",
    "derived": {
      "lat": 47.622249,
      "long": -122.314667,
      "timestamp": 1548264753000,
      "description": "Aid Response",
      "address": "426 14th Av E,Seattle,WA",
      "entries": 1,
      "neighborhood": "Capitol Hill",
      "neighborhoodGroup": "East",
      "unitCount": 1,
      "severity": 0,
      "units": "A25"
    }
  },
  {
    "id_str": "F190007699",
    "created_at": "1/23/2019 9:30:04 AM",
    "derived": {
      "lat": 47.69769,
      "long": -122.323048,
      "timestamp": 1548264604000,
      "description": "Aid Response",
      "address": "504 Ne 95th St,Seattle,WA",
      "entries": 1,
      "neighborhood": "Northgate/Maple Leaf",
      "neighborhoodGroup": "North",
      "unitCount": 1,
      "severity": 0,
      "units": "E31"
    }
  },
  {
    "id_str": "F190007696",
    "created_at": "1/23/2019 9:23:34 AM",
    "derived": {
      "lat": 47.601749,
      "long": -122.332011,
      "timestamp": 1548264214000,
      "description": "Aid Response",
      "address": "506 2nd Av,Seattle,WA",
      "entries": 1,
      "neighborhood": "Downtown Commercial Core",
      "neighborhoodGroup": "Downtown",
      "unitCount": 1,
      "severity": 0,
      "units": "A5"
    }
  },
  {
    "id_str": "F190007695",
    "created_at": "1/23/2019 9:17:34 AM",
    "derived": {
      "lat": 47.533776,
      "long": -122.281847,
      "timestamp": 1548263854000,
      "description": "Aid Response",
      "address": "7610 40th Av S,Seattle,WA",
      "entries": 1,
      "neighborhood": "South Beacon Hill/NewHolly",
      "neighborhoodGroup": "Greater Duwamish",
      "unitCount": 1,
      "severity": 0,
      "units": "E28"
    }
  },
  {
    "id_str": "F190007694",
    "created_at": "1/23/2019 9:11:24 AM",
    "derived": {
      "lat": 47.663215,
      "long": -122.315262,
      "timestamp": 1548263484000,
      "description": "Aid Response",
      "address": "4719 12th Av Ne,Seattle,WA",
      "entries": 1,
      "neighborhood": "University District",
      "neighborhoodGroup": "Northeast",
      "unitCount": 1,
      "severity": 0,
      "units": "E22"
    }
  },
  {
    "id_str": "F190007693",
    "created_at": "1/23/2019 9:09:50 AM",
    "derived": {
      "lat": 47.686439,
      "long": -122.264243,
      "timestamp": 1548263390000,
      "description": "Rescue Elevator",
      "address": "7777 62nd Av Ne,Seattle,WA",
      "entries": 1,
      "neighborhood": "Laurelhurst/Sand Point",
      "neighborhoodGroup": "Northeast",
      "unitCount": 1,
      "severity": 0,
      "units": "L9"
    }
  },
  {
    "id_str": "F190007691",
    "created_at": "1/23/2019 9:07:24 AM",
    "derived": {
      "lat": 47.617908,
      "long": -122.34823,
      "timestamp": 1548263244000,
      "description": "Aid Response",
      "address": "2721 4th Av,Seattle,WA",
      "entries": 1,
      "neighborhood": "Cascade/Eastlake",
      "neighborhoodGroup": "Lake Union",
      "unitCount": 1,
      "severity": 0,
      "units": "A4"
    }
  },
  {
    "id_str": "F190007690",
    "created_at": "1/23/2019 9:04:17 AM",
    "derived": {
      "lat": 47.67834,
      "long": -122.32895,
      "timestamp": 1548263057000,
      "description": "Aid Response",
      "address": "6720 East Green Lake Way N,Seattle,WA",
      "entries": 1,
      "neighborhood": "Green Lake",
      "neighborhoodGroup": "Northwest",
      "unitCount": 1,
      "severity": 0,
      "units": "E17"
    }
  },
  {
    "id_str": "F190007688",
    "created_at": "1/23/2019 8:55:25 AM",
    "derived": {
      "lat": 47.506138,
      "long": -122.267191,
      "timestamp": 1548262525000,
      "description": "Aid Response",
      "address": "5321 S Bangor St,Seattle,WA",
      "entries": 1,
      "neighborhood": "Rainier Beach",
      "neighborhoodGroup": "Southeast",
      "unitCount": 1,
      "severity": 0,
      "units": "E33"
    }
  },
  {
    "id_str": "F190007687",
    "created_at": "1/23/2019 8:52:16 AM",
    "derived": {
      "lat": 47.545953,
      "long": -122.327271,
      "timestamp": 1548262336000,
      "description": "Medic Response",
      "address": "601 S Michigan St,Seattle,WA",
      "entries": 2,
      "neighborhood": "Georgetown",
      "neighborhoodGroup": "Greater Duwamish",
      "unitCount": 2,
      "severity": 0,
      "units": "E27 M28"
    }
  },
  {
    "id_str": "F190007686",
    "created_at": "1/23/2019 8:49:59 AM",
    "derived": {
      "lat": 47.730469,
      "long": -122.331235,
      "timestamp": 1548262199000,
      "description": "Automatic Fire Alarm Resd",
      "address": "2312 N 140th St,Seattle,WA",
      "entries": 1,
      "neighborhood": "Haller Lake",
      "neighborhoodGroup": "Northwest",
      "unitCount": 1,
      "severity": 0,
      "units": "E24"
    }
  },
  {
    "id_str": "F190007685",
    "created_at": "1/23/2019 8:44:40 AM",
    "derived": {
      "lat": 47.604879,
      "long": -122.324007,
      "timestamp": 1548261880000,
      "description": "Medic Response",
      "address": "908 Jefferson St,Seattle,WA",
      "entries": 3,
      "neighborhood": "First Hill",
      "neighborhoodGroup": "East",
      "unitCount": 3,
      "severity": 0,
      "units": "A5 M1 M10"
    }
  },
  {
    "id_str": "F190007684",
    "created_at": "1/23/2019 8:44:26 AM",
    "derived": {
      "lat": 47.518178,
      "long": -122.367277,
      "timestamp": 1548261866000,
      "description": "Auto Fire Alarm",
      "address": "9455 27th Av Sw,Seattle,WA",
      "entries": 1,
      "neighborhood": "Roxhill/Westwood",
      "neighborhoodGroup": "Delridge Neighborhoods",
      "unitCount": 2,
      "severity": 0,
      "units": "E11 L11"
    }
  },
  {
    "id_str": "F190007683",
    "created_at": "1/23/2019 8:43:59 AM",
    "derived": {
      "lat": 47.539087,
      "long": -122.378359,
      "timestamp": 1548261839000,
      "description": "Aid Response",
      "address": "7127 36th Av Sw,Seattle,WA",
      "entries": 1,
      "neighborhood": "Roxhill/Westwood",
      "neighborhoodGroup": "Delridge Neighborhoods",
      "unitCount": 1,
      "severity": 0,
      "units": "E37"
    }
  },
  {
    "id_str": "F190007682",
    "created_at": "1/23/2019 8:26:40 AM",
    "derived": {
      "lat": 47.511619,
      "long": -122.248324,
      "timestamp": 1548260800000,
      "description": "MVI - Motor Vehicle Incident",
      "address": "68th Av S / Rainier Av S,Seattle,WA",
      "entries": 1,
      "neighborhood": "Rainier Beach",
      "neighborhoodGroup": "Southeast",
      "unitCount": 1,
      "severity": 0,
      "units": "E33"
    }
  },
  {
    "id_str": "F190007681",
    "created_at": "1/23/2019 8:20:13 AM",
    "derived": {
      "lat": 47.658434,
      "long": -122.342294,
      "timestamp": 1548260413000,
      "description": "Aid Response",
      "address": "Stone Way N / N Menford Pl,Seattle,WA",
      "entries": 1,
      "neighborhood": "Wallingford",
      "neighborhoodGroup": "Lake Union",
      "unitCount": 1,
      "severity": 0,
      "units": "E9"
    }
  },
  {
    "id_str": "F190007680",
    "created_at": "1/23/2019 8:10:31 AM",
    "derived": {
      "lat": 47.6523,
      "long": -122.376208,
      "timestamp": 1548259831000,
      "description": "Medic Response",
      "address": "3615 15th Av W,Seattle,WA",
      "entries": 1,
      "neighborhood": "Interbay",
      "neighborhoodGroup": "Magnolia/Queen Anne",
      "unitCount": 2,
      "severity": 0,
      "units": "E20 M18"
    }
  },
  {
    "id_str": "F190007679",
    "created_at": "1/23/2019 8:03:03 AM",
    "derived": {
      "lat": 47.595541,
      "long": -122.298643,
      "timestamp": 1548259383000,
      "description": "Aid Response",
      "address": "2611 S Dearborn St,Seattle,WA",
      "entries": 1,
      "neighborhood": "Madrona/Leschi",
      "neighborhoodGroup": "Central",
      "unitCount": 1,
      "severity": 0,
      "units": "E6"
    }
  },
  {
    "id_str": "F190007677",
    "created_at": "1/23/2019 7:54:04 AM",
    "derived": {
      "lat": 47.674282,
      "long": -122.265077,
      "timestamp": 1548258844000,
      "description": "Aid Response Yellow",
      "address": "6300 Sand Point Way Ne,Seattle,WA",
      "entries": 1,
      "neighborhood": "Ravenna/Bryant",
      "neighborhoodGroup": "Northeast",
      "unitCount": 1,
      "severity": 0,
      "units": "E38"
    }
  },
  {
    "id_str": "F190007676",
    "created_at": "1/23/2019 7:51:33 AM",
    "derived": {
      "lat": 47.605425,
      "long": -122.32742,
      "timestamp": 1548258693000,
      "description": "Aid Response",
      "address": "718 Cherry St,Seattle,WA",
      "entries": 1,
      "neighborhood": "First Hill",
      "neighborhoodGroup": "East",
      "unitCount": 1,
      "severity": 0,
      "units": "E10"
    }
  },
  {
    "id_str": "F190007675",
    "created_at": "1/23/2019 7:48:00 AM",
    "derived": {
      "lat": 47.693931,
      "long": -122.30552,
      "timestamp": 1548258480000,
      "description": "Aid Response",
      "address": "9001 Lake City Way Ne,Seattle,WA",
      "entries": 2,
      "neighborhood": "Wedgwood/View Ridge",
      "neighborhoodGroup": "Northeast",
      "unitCount": 2,
      "severity": 0,
      "units": "DEP1 E40"
    }
  },
  {
    "id_str": "F190007674",
    "created_at": "1/23/2019 7:42:19 AM",
    "derived": {
      "lat": 47.534829,
      "long": -122.326089,
      "timestamp": 1548258139000,
      "description": "Rescue Rope",
      "address": "620 S Riverside Dr,Seattle,WA",
      "entries": 10,
      "neighborhood": "South Park",
      "neighborhoodGroup": "Greater Duwamish",
      "unitCount": 13,
      "severity": 2,
      "units": "A14 A5 B5 B7 E26 E27 L11 L12 M1 M10 M44 R1 SAFT2"
    }
  },
  {
    "id_str": "F190007673",
    "created_at": "1/23/2019 7:41:03 AM",
    "derived": {
      "lat": 47.61762,
      "long": -122.310139,
      "timestamp": 1548258063000,
      "description": "Aid Response",
      "address": "1802 17th Av,Seattle,WA",
      "entries": 1,
      "neighborhood": "Central Area/Squire Park",
      "neighborhoodGroup": "Central",
      "unitCount": 1,
      "severity": 0,
      "units": "A25"
    }
  },
  {
    "id_str": "F190007669",
    "created_at": "1/23/2019 7:25:23 AM",
    "derived": {
      "lat": 47.599195,
      "long": -122.327667,
      "timestamp": 1548257123000,
      "description": "Medic Response",
      "address": "5th Av S / S Jackson St,Seattle,WA",
      "entries": 1,
      "neighborhood": "Pioneer Square/International District",
      "neighborhoodGroup": "Downtown",
      "unitCount": 2,
      "severity": 0,
      "units": "A5 M10"
    }
  },
  {
    "id_str": "F190007668",
    "created_at": "1/23/2019 7:25:04 AM",
    "derived": {
      "lat": 47.519046,
      "long": -122.270977,
      "timestamp": 1548257104000,
      "description": "Medic Response",
      "address": "5016 S Fletcher St,Seattle,WA",
      "entries": 2,
      "neighborhood": "Rainier Beach",
      "neighborhoodGroup": "Southeast",
      "unitCount": 2,
      "severity": 0,
      "units": "E33 M28"
    }
  },
  {
    "id_str": "F190007667",
    "created_at": "1/23/2019 7:24:31 AM",
    "derived": {
      "lat": 47.675164,
      "long": -122.32792,
      "timestamp": 1548257071000,
      "description": "Medic Response, 7 per Rule",
      "address": "118 Ne 64th St,Seattle,WA",
      "entries": 4,
      "neighborhood": "Green Lake",
      "neighborhoodGroup": "Northwest",
      "unitCount": 5,
      "severity": 1,
      "units": "CHAP4 CHAP5 E16 E17 M31"
    }
  },
  {
    "id_str": "F190007666",
    "created_at": "1/23/2019 7:22:16 AM",
    "derived": {
      "lat": 47.674838,
      "long": -122.398895,
      "timestamp": 1548256936000,
      "description": "Aid Response",
      "address": "3239 Nw 64th St,Seattle,WA",
      "entries": 1,
      "neighborhood": "Sunset Hill/Loyal Heights",
      "neighborhoodGroup": "Ballard",
      "unitCount": 1,
      "severity": 0,
      "units": "E18"
    }
  },
  {
    "id_str": "F190007665",
    "created_at": "1/23/2019 7:09:33 AM",
    "derived": {
      "lat": 47.65932,
      "long": -122.347386,
      "timestamp": 1548256173000,
      "description": "Medic Response",
      "address": "4251 Aurora Av N,Seattle,WA",
      "entries": 2,
      "neighborhood": "Fremont",
      "neighborhoodGroup": "Lake Union",
      "unitCount": 2,
      "severity": 0,
      "units": "E9 M17"
    }
  },
  {
    "id_str": "F190007661",
    "created_at": "1/23/2019 6:23:58 AM",
    "derived": {
      "lat": 47.612626,
      "long": -122.341277,
      "timestamp": 1548253438000,
      "description": "Aid Response",
      "address": "2030 3rd Av,Seattle,WA",
      "entries": 1,
      "neighborhood": "Cascade/Eastlake",
      "neighborhoodGroup": "Lake Union",
      "unitCount": 1,
      "severity": 0,
      "units": "A2"
    }
  },
  {
    "id_str": "F190007659",
    "created_at": "1/23/2019 6:16:05 AM",
    "derived": {
      "lat": 47.661298,
      "long": -122.317498,
      "timestamp": 1548252965000,
      "description": "Aid Response",
      "address": "1013 Ne 45th St,Seattle,WA",
      "entries": 1,
      "neighborhood": "University District",
      "neighborhoodGroup": "Northeast",
      "unitCount": 1,
      "severity": 0,
      "units": "E17"
    }
  },
  {
    "id_str": "F190007658",
    "created_at": "1/23/2019 6:10:33 AM",
    "derived": {
      "lat": 47.601539,
      "long": -122.326352,
      "timestamp": 1548252633000,
      "description": "Aid Response Yellow",
      "address": "120 6th Av S,Seattle,WA",
      "entries": 1,
      "neighborhood": "Pioneer Square/International District",
      "neighborhoodGroup": "Downtown",
      "unitCount": 1,
      "severity": 0,
      "units": "A10"
    }
  },
  {
    "id_str": "F190007657",
    "created_at": "1/23/2019 6:03:42 AM",
    "derived": {
      "lat": 47.605392,
      "long": -122.327499,
      "timestamp": 1548252222000,
      "description": "Medic Response",
      "address": "711 Cherry St,Seattle,WA",
      "entries": 2,
      "neighborhood": "First Hill",
      "neighborhoodGroup": "East",
      "unitCount": 2,
      "severity": 0,
      "units": "A5 M1"
    }
  },
  {
    "id_str": "F190007655",
    "created_at": "1/23/2019 6:00:50 AM",
    "derived": {
      "lat": 47.612665,
      "long": -122.337394,
      "timestamp": 1548252050000,
      "description": "Aid Response",
      "address": "5th Av / Olive Way,Seattle,WA",
      "entries": 1,
      "neighborhood": "Downtown Commercial Core",
      "neighborhoodGroup": "Downtown",
      "unitCount": 1,
      "severity": 0,
      "units": "A2"
    }
  },
  {
    "id_str": "F190007654",
    "created_at": "1/23/2019 5:54:59 AM",
    "derived": {
      "lat": 47.522322,
      "long": -122.334841,
      "timestamp": 1548251699000,
      "description": "Medic Response",
      "address": "9000 Olson Pl Sw,Seattle,WA",
      "entries": 1,
      "neighborhood": "Highland Park",
      "neighborhoodGroup": "Delridge Neighborhoods",
      "unitCount": 2,
      "severity": 0,
      "units": "E26 M28"
    }
  },
  {
    "id_str": "F190007652",
    "created_at": "1/23/2019 5:44:12 AM",
    "derived": {
      "lat": 47.650529,
      "long": -122.402289,
      "timestamp": 1548251052000,
      "description": "Aid Response",
      "address": "3410 35th Av W,Seattle,WA",
      "entries": 1,
      "neighborhood": "Magnolia",
      "neighborhoodGroup": "Magnolia/Queen Anne",
      "unitCount": 1,
      "severity": 0,
      "units": "E41"
    }
  },
  {
    "id_str": "F190007651",
    "created_at": "1/23/2019 5:36:43 AM",
    "derived": {
      "lat": 47.689113,
      "long": -122.344514,
      "timestamp": 1548250603000,
      "description": "Aid Response",
      "address": "N 83rd St / Aurora Av N,Seattle,WA",
      "entries": 1,
      "neighborhood": "Green Lake",
      "neighborhoodGroup": "Northwest",
      "unitCount": 1,
      "severity": 0,
      "units": "E16"
    }
  },
  {
    "id_str": "F190007650",
    "created_at": "1/23/2019 5:36:28 AM",
    "derived": {
      "lat": 47.612136,
      "long": -122.335373,
      "timestamp": 1548250588000,
      "description": "Aid Response",
      "address": "1600 6th Av,Seattle,WA",
      "entries": 1,
      "neighborhood": "First Hill",
      "neighborhoodGroup": "East",
      "unitCount": 1,
      "severity": 0,
      "units": "A25"
    }
  },
  {
    "id_str": "F190007649",
    "created_at": "1/23/2019 5:30:33 AM",
    "derived": {
      "lat": 47.610632,
      "long": -122.33241,
      "timestamp": 1548250233000,
      "description": "Aid Response",
      "address": "706 Union St,Seattle,WA",
      "entries": 1,
      "neighborhood": "First Hill",
      "neighborhoodGroup": "East",
      "unitCount": 1,
      "severity": 0,
      "units": "E25"
    }
  },
  {
    "id_str": "F190007648",
    "created_at": "1/23/2019 5:20:06 AM",
    "derived": {
      "lat": 47.627402,
      "long": -122.298179,
      "timestamp": 1548249606000,
      "description": "Aid Response",
      "address": "2646 E Ward St,Seattle,WA",
      "entries": 1,
      "neighborhood": "Miller Park",
      "neighborhoodGroup": "East",
      "unitCount": 1,
      "severity": 0,
      "units": "E34"
    }
  },
  {
    "id_str": "F190007647",
    "created_at": "1/23/2019 5:15:47 AM",
    "derived": {
      "lat": 47.611802,
      "long": -122.339884,
      "timestamp": 1548249347000,
      "description": "Medic Response",
      "address": "1923 3rd Av,Seattle,WA",
      "entries": 1,
      "neighborhood": "Cascade/Eastlake",
      "neighborhoodGroup": "Lake Union",
      "unitCount": 2,
      "severity": 0,
      "units": "A2 M1"
    }
  },
  {
    "id_str": "F190007646",
    "created_at": "1/23/2019 5:14:59 AM",
    "derived": {
      "lat": 47.690579,
      "long": -122.349816,
      "timestamp": 1548249299000,
      "description": "Fire in Building",
      "address": "707 N 85th St,Seattle,WA",
      "entries": 2,
      "neighborhood": "Licton Springs",
      "neighborhoodGroup": "Northwest",
      "unitCount": 19,
      "severity": 2,
      "units": "A25 AIR10 B4 B6 DEP1 E16 E17 E21 E24 E31 L5 L8 L9 M31 M44 MAR5 REHAB1 SAFT2 STAF10"
    }
  },
  {
    "id_str": "F190007645",
    "created_at": "1/23/2019 5:13:46 AM",
    "derived": {
      "lat": 47.595741,
      "long": -122.325068,
      "timestamp": 1548249226000,
      "description": "Medic Response",
      "address": "811 Maynard Av S,Seattle,WA",
      "entries": 1,
      "neighborhood": "Duwamish/SODO",
      "neighborhoodGroup": "Greater Duwamish",
      "unitCount": 2,
      "severity": 0,
      "units": "A10 M10"
    }
  },
  {
    "id_str": "F190007643",
    "created_at": "1/23/2019 5:11:20 AM",
    "derived": {
      "lat": 47.605657,
      "long": -122.338654,
      "timestamp": 1548249080000,
      "description": "Auto Fire Alarm",
      "address": "1200 Western Av,Seattle,WA",
      "entries": 1,
      "neighborhood": "Downtown Commercial Core",
      "neighborhoodGroup": "Downtown",
      "unitCount": 2,
      "severity": 0,
      "units": "E5 L1"
    }
  },
  {
    "id_str": "F190007642",
    "created_at": "1/23/2019 4:49:07 AM",
    "derived": {
      "lat": 47.709488,
      "long": -122.323301,
      "timestamp": 1548247747000,
      "description": "Aid Response",
      "address": "11030 5th Av Ne,Seattle,WA",
      "entries": 1,
      "neighborhood": "Northgate/Maple Leaf",
      "neighborhoodGroup": "North",
      "unitCount": 1,
      "severity": 0,
      "units": "E31"
    }
  },
  {
    "id_str": "F190007641",
    "created_at": "1/23/2019 4:13:46 AM",
    "derived": {
      "lat": 47.601716,
      "long": -122.330265,
      "timestamp": 1548245626000,
      "description": "Aid Response",
      "address": "3rd Av / Yesler Way,Seattle,WA",
      "entries": 1,
      "neighborhood": "Downtown Commercial Core",
      "neighborhoodGroup": "Downtown",
      "unitCount": 1,
      "severity": 0,
      "units": "A5"
    }
  },
  {
    "id_str": "F190007640",
    "created_at": "1/23/2019 4:13:35 AM",
    "derived": {
      "lat": 47.693931,
      "long": -122.30552,
      "timestamp": 1548245615000,
      "description": "Aid Response",
      "address": "9001 Lake City Way Ne,Seattle,WA",
      "entries": 1,
      "neighborhood": "Wedgwood/View Ridge",
      "neighborhoodGroup": "Northeast",
      "unitCount": 1,
      "severity": 0,
      "units": "E40"
    }
  },
  {
    "id_str": "F190007639",
    "created_at": "1/23/2019 3:54:29 AM",
    "derived": {
      "lat": 47.614798,
      "long": -122.348918,
      "timestamp": 1548244469000,
      "description": "Automatic Medical Alarm",
      "address": "2519 1st Av,Seattle,WA",
      "entries": 1,
      "neighborhood": "Belltown",
      "neighborhoodGroup": "Downtown",
      "unitCount": 1,
      "severity": 0,
      "units": "A2"
    }
  },
  {
    "id_str": "F190007638",
    "created_at": "1/23/2019 3:43:34 AM",
    "derived": {
      "lat": 47.518178,
      "long": -122.367277,
      "timestamp": 1548243814000,
      "description": "1RED 1 Unit",
      "address": "9455 27th Av Sw,Seattle,WA",
      "entries": 1,
      "neighborhood": "Roxhill/Westwood",
      "neighborhoodGroup": "Delridge Neighborhoods",
      "unitCount": 1,
      "severity": 0,
      "units": "E37"
    }
  },
  {
    "id_str": "F190007636",
    "created_at": "1/23/2019 3:39:22 AM",
    "derived": {
      "lat": 47.503879,
      "long": -122.270055,
      "timestamp": 1548243562000,
      "description": "Aid Response",
      "address": "10808 Beacon Av S,Seattle,WA",
      "entries": 1,
      "neighborhood": "Rainier Beach",
      "neighborhoodGroup": "Southeast",
      "unitCount": 1,
      "severity": 0,
      "units": "E33"
    }
  },
  {
    "id_str": "F190007635",
    "created_at": "1/23/2019 3:36:12 AM",
    "derived": {
      "lat": 47.683105,
      "long": -122.316961,
      "timestamp": 1548243372000,
      "description": "Wires Down",
      "address": "Ne 75th St / Lake City Way Ne,Seattle,WA",
      "entries": 1,
      "neighborhood": "Ravenna/Bryant",
      "neighborhoodGroup": "Northeast",
      "unitCount": 1,
      "severity": 0,
      "units": "E16"
    }
  },
  {
    "id_str": "F190007632",
    "created_at": "1/23/2019 3:14:55 AM",
    "derived": {
      "lat": 47.673906,
      "long": -122.401585,
      "timestamp": 1548242095000,
      "description": "Aid Response",
      "address": "3442 Nw 62nd St,Seattle,WA",
      "entries": 1,
      "neighborhood": "Sunset Hill/Loyal Heights",
      "neighborhoodGroup": "Ballard",
      "unitCount": 1,
      "severity": 0,
      "units": "E18"
    }
  },
  {
    "id_str": "F190007631",
    "created_at": "1/23/2019 3:05:38 AM",
    "derived": {
      "lat": 47.608054,
      "long": -122.32821,
      "timestamp": 1548241538000,
      "description": "1RED 1 Unit",
      "address": "823 Madison St,Seattle,WA",
      "entries": 1,
      "neighborhood": "First Hill",
      "neighborhoodGroup": "East",
      "unitCount": 1,
      "severity": 0,
      "units": "E10"
    }
  },
  {
    "id_str": "F190007630",
    "created_at": "1/23/2019 3:05:01 AM",
    "derived": {
      "lat": 47.56414,
      "long": -122.282771,
      "timestamp": 1548241501000,
      "description": "Automatic Fire Alarm Resd",
      "address": "4003 S Genesee St,Seattle,WA",
      "entries": 1,
      "neighborhood": "Columbia City",
      "neighborhoodGroup": "Southeast",
      "unitCount": 1,
      "severity": 0,
      "units": "E28"
    }
  },
  {
    "id_str": "F190007629",
    "created_at": "1/23/2019 2:44:41 AM",
    "derived": {
      "lat": 47.599186,
      "long": -122.327667,
      "timestamp": 1548240281000,
      "description": "Aid Response",
      "address": "401 5th Av S,Seattle,WA",
      "entries": 1,
      "neighborhood": "Pioneer Square/International District",
      "neighborhoodGroup": "Downtown",
      "unitCount": 1,
      "severity": 0,
      "units": "A10"
    }
  },
  {
    "id_str": "F190007627",
    "created_at": "1/23/2019 2:41:45 AM",
    "derived": {
      "lat": 47.655205,
      "long": -122.321893,
      "timestamp": 1548240105000,
      "description": "Aid Response",
      "address": "3919 Pasadena Pl Ne,Seattle,WA",
      "entries": 1,
      "neighborhood": "Wallingford",
      "neighborhoodGroup": "Lake Union",
      "unitCount": 1,
      "severity": 0,
      "units": "E17"
    }
  },
  {
    "id_str": "F190007626",
    "created_at": "1/23/2019 2:40:45 AM",
    "derived": {
      "lat": 47.559495,
      "long": -122.334213,
      "timestamp": 1548240045000,
      "description": "Rubbish Fire",
      "address": "4786 1st Av S,Seattle,WA",
      "entries": 1,
      "neighborhood": "Duwamish/SODO",
      "neighborhoodGroup": "Greater Duwamish",
      "unitCount": 1,
      "severity": 0,
      "units": "E27"
    }
  },
  {
    "id_str": "F190007625",
    "created_at": "1/23/2019 2:38:19 AM",
    "derived": {
      "lat": 47.69429,
      "long": -122.35534,
      "timestamp": 1548239899000,
      "description": "Aid Response",
      "address": "9009 Greenwood Av N,Seattle,WA",
      "entries": 1,
      "neighborhood": "Greenwood/Phinney Ridge",
      "neighborhoodGroup": "Northwest",
      "unitCount": 1,
      "severity": 0,
      "units": "E21"
    }
  },
  {
    "id_str": "F190007624",
    "created_at": "1/23/2019 2:34:40 AM",
    "derived": {
      "lat": 47.617173,
      "long": -122.333103,
      "timestamp": 1548239680000,
      "description": "Medic Response",
      "address": "1930 Boren Av,Seattle,WA",
      "entries": 1,
      "neighborhood": "Cascade/Eastlake",
      "neighborhoodGroup": "Lake Union",
      "unitCount": 2,
      "severity": 0,
      "units": "A2 M10"
    }
  },
  {
    "id_str": "F190007623",
    "created_at": "1/23/2019 2:21:10 AM",
    "derived": {
      "lat": 47.549685,
      "long": -122.309905,
      "timestamp": 1548238870000,
      "description": "Aid Response",
      "address": "5921 18th Av S,Seattle,WA",
      "entries": 1,
      "neighborhood": "Beacon Hill",
      "neighborhoodGroup": "Greater Duwamish",
      "unitCount": 1,
      "severity": 0,
      "units": "E27"
    }
  },
  {
    "id_str": "F190007621",
    "created_at": "1/23/2019 2:18:13 AM",
    "derived": {
      "lat": 47.557242,
      "long": -122.362921,
      "timestamp": 1548238693000,
      "description": "Aid Response",
      "address": "5020 Delridge Way Sw,Seattle,WA",
      "entries": 1,
      "neighborhood": "Riverview",
      "neighborhoodGroup": "Delridge Neighborhoods",
      "unitCount": 1,
      "severity": 0,
      "units": "E36"
    }
  },
  {
    "id_str": "F190007617",
    "created_at": "1/23/2019 2:01:36 AM",
    "derived": {
      "lat": 47.536504,
      "long": -122.358798,
      "timestamp": 1548237696000,
      "description": "Aid Response",
      "address": "7334 19th Av Sw,Seattle,WA",
      "entries": 1,
      "neighborhood": "Roxhill/Westwood",
      "neighborhoodGroup": "Delridge Neighborhoods",
      "unitCount": 1,
      "severity": 0,
      "units": "E11"
    }
  },
  {
    "id_str": "F190007615",
    "created_at": "1/23/2019 1:51:27 AM",
    "derived": {
      "lat": 47.723307,
      "long": -122.36947,
      "timestamp": 1548237087000,
      "description": "Alarm Bell",
      "address": "1004 Nw 130th St,Seattle,WA",
      "entries": 1,
      "neighborhood": "Broadview/Bitter Lake",
      "neighborhoodGroup": "Northwest",
      "unitCount": 1,
      "severity": 0,
      "units": "E24"
    }
  },
  {
    "id_str": "F190007614",
    "created_at": "1/23/2019 1:46:52 AM",
    "derived": {
      "lat": 47.553321,
      "long": -122.362969,
      "timestamp": 1548236812000,
      "description": "Auto Fire Alarm",
      "address": "5444 Delridge Way Sw,Seattle,WA",
      "entries": 1,
      "neighborhood": "High Point",
      "neighborhoodGroup": "Delridge Neighborhoods",
      "unitCount": 2,
      "severity": 0,
      "units": "E36 L11"
    }
  },
  {
    "id_str": "F190007613",
    "created_at": "1/23/2019 1:45:44 AM",
    "derived": {
      "lat": 47.526447,
      "long": -122.316826,
      "timestamp": 1548236744000,
      "description": "Aid Response",
      "address": "1256 S Cloverdale St,Seattle,WA",
      "entries": 1,
      "neighborhood": "South Park",
      "neighborhoodGroup": "Greater Duwamish",
      "unitCount": 1,
      "severity": 0,
      "units": "E26"
    }
  },
  {
    "id_str": "F190007611",
    "created_at": "1/23/2019 1:19:48 AM",
    "derived": {
      "lat": 47.70684,
      "long": -122.332461,
      "timestamp": 1548235188000,
      "description": "Medic Response",
      "address": "2150 N 107th St,Seattle,WA",
      "entries": 1,
      "neighborhood": "Northgate/Maple Leaf",
      "neighborhoodGroup": "North",
      "unitCount": 2,
      "severity": 0,
      "units": "E31 M31"
    }
  },
  {
    "id_str": "F190007609",
    "created_at": "1/23/2019 1:17:07 AM",
    "derived": {
      "lat": 47.656214,
      "long": -122.313146,
      "timestamp": 1548235027000,
      "description": "Aid Response",
      "address": "1410 Ne Campus Pkwy,Seattle,WA",
      "entries": 1,
      "neighborhood": "University District",
      "neighborhoodGroup": "Northeast",
      "unitCount": 1,
      "severity": 0,
      "units": "E17"
    }
  },
  {
    "id_str": "F190007607",
    "created_at": "1/23/2019 1:14:23 AM",
    "derived": {
      "lat": 47.605657,
      "long": -122.338654,
      "timestamp": 1548234863000,
      "description": "Auto Fire Alarm",
      "address": "1200 Western Av,Seattle,WA",
      "entries": 1,
      "neighborhood": "Downtown Commercial Core",
      "neighborhoodGroup": "Downtown",
      "unitCount": 2,
      "severity": 0,
      "units": "E5 L1"
    }
  },
  {
    "id_str": "F190007606",
    "created_at": "1/23/2019 1:00:31 AM",
    "derived": {
      "lat": 47.618497,
      "long": -122.327854,
      "timestamp": 1548234031000,
      "description": "Aid Response",
      "address": "100 Melrose Av E,Seattle,WA",
      "entries": 1,
      "neighborhood": "Capitol Hill",
      "neighborhoodGroup": "East",
      "unitCount": 1,
      "severity": 0,
      "units": "A25"
    }
  },
  {
    "id_str": "F190007605",
    "created_at": "1/23/2019 12:56:58 AM",
    "derived": {
      "lat": 47.567615,
      "long": -122.368145,
      "timestamp": 1548233818000,
      "description": "Aid Response",
      "address": "2805 Sw Yancy St,Seattle,WA",
      "entries": 1,
      "neighborhood": "North Delridge",
      "neighborhoodGroup": "Delridge Neighborhoods",
      "unitCount": 1,
      "severity": 0,
      "units": "E36"
    }
  },
  {
    "id_str": "F190007604",
    "created_at": "1/23/2019 12:51:34 AM",
    "derived": {
      "lat": 47.669442,
      "long": -122.376214,
      "timestamp": 1548233494000,
      "description": "Activated CO Detector",
      "address": "1501 Nw 56th St,Seattle,WA",
      "entries": 1,
      "neighborhood": "Ballard",
      "neighborhoodGroup": "Ballard",
      "unitCount": 1,
      "severity": 0,
      "units": "L8"
    }
  },
  {
    "id_str": "F190007603",
    "created_at": "1/23/2019 12:48:36 AM",
    "derived": {
      "lat": 47.601986,
      "long": -122.32914,
      "timestamp": 1548233316000,
      "description": "Aid Response",
      "address": "420 4th Av,Seattle,WA",
      "entries": 1,
      "neighborhood": "Downtown Commercial Core",
      "neighborhoodGroup": "Downtown",
      "unitCount": 1,
      "severity": 0,
      "units": "A10"
    }
  },
  {
    "id_str": "F190007602",
    "created_at": "1/23/2019 12:48:34 AM",
    "derived": {
      "lat": 47.602985,
      "long": -122.328535,
      "timestamp": 1548233314000,
      "description": "Aid Response",
      "address": "500 5th Av,Seattle,WA",
      "entries": 1,
      "neighborhood": "First Hill",
      "neighborhoodGroup": "East",
      "unitCount": 1,
      "severity": 0,
      "units": "A5"
    }
  },
  {
    "id_str": "F190007600",
    "created_at": "1/23/2019 12:27:32 AM",
    "derived": {
      "lat": 47.683238,
      "long": -122.37678,
      "timestamp": 1548232052000,
      "description": "Medic Response",
      "address": "15th Av Nw / Nw 75th St,Seattle,WA",
      "entries": 2,
      "neighborhood": "Whittier Heights",
      "neighborhoodGroup": "Ballard",
      "unitCount": 2,
      "severity": 0,
      "units": "E35 M18"
    }
  },
  {
    "id_str": "F190007599",
    "created_at": "1/23/2019 12:15:51 AM",
    "derived": {
      "lat": 47.619839,
      "long": -122.342391,
      "timestamp": 1548231351000,
      "description": "Medic Response",
      "address": "211 Dexter Av N,Seattle,WA",
      "entries": 1,
      "neighborhood": "Cascade/Eastlake",
      "neighborhoodGroup": "Lake Union",
      "unitCount": 2,
      "severity": 0,
      "units": "E2 M1"
    }
  },
  {
    "id_str": "F190007597",
    "created_at": "1/23/2019 12:12:40 AM",
    "derived": {
      "lat": 47.612937,
      "long": -122.297208,
      "timestamp": 1548231160000,
      "description": "Aid Response",
      "address": "2722 E Union St,Seattle,WA",
      "entries": 1,
      "neighborhood": "Central Area/Squire Park",
      "neighborhoodGroup": "Central",
      "unitCount": 1,
      "severity": 0,
      "units": "A25"
    }
  },
  {
    "id_str": "F190007598",
    "created_at": "1/23/2019 12:12:30 AM",
    "derived": {
      "lat": 47.619003,
      "long": -122.296114,
      "timestamp": 1548231150000,
      "description": "Aid Response",
      "address": "109 M L King Jr Way E,Seattle,WA",
      "entries": 1,
      "neighborhood": "Central Area/Squire Park",
      "neighborhoodGroup": "Central",
      "unitCount": 1,
      "severity": 0,
      "units": "E34"
    }
  },
  {
    "id_str": "F190007596",
    "created_at": "1/23/2019 12:10:00 AM",
    "derived": {
      "lat": 47.728415,
      "long": -122.312674,
      "timestamp": 1548231000000,
      "description": "Aid Response",
      "address": "13741 15th Av Ne,Seattle,WA",
      "entries": 1,
      "neighborhood": "Olympic Hills/Victory Heights",
      "neighborhoodGroup": "North",
      "unitCount": 1,
      "severity": 0,
      "units": "E39"
    }
  },
  {
    "id_str": "F190007595",
    "created_at": "1/23/2019 12:03:31 AM",
    "derived": {
      "lat": 47.6246,
      "long": -122.360961,
      "timestamp": 1548230611000,
      "description": "Aid Response",
      "address": "326 W Mercer St,Seattle,WA",
      "entries": 1,
      "neighborhood": "Queen Anne",
      "neighborhoodGroup": "Magnolia/Queen Anne",
      "unitCount": 1,
      "severity": 0,
      "units": "A2"
    }
  },
  {
    "id_str": "F190007594",
    "created_at": "1/22/2019 11:56:23 PM",
    "derived": {
      "lat": 47.523307,
      "long": -122.269986,
      "timestamp": 1548230183000,
      "description": "Aid Response",
      "address": "Rainier Av S / S Henderson St,Seattle,WA",
      "entries": 1,
      "neighborhood": "Rainier Beach",
      "neighborhoodGroup": "Southeast",
      "unitCount": 1,
      "severity": 0,
      "units": "E28"
    }
  },
  {
    "id_str": "F190007593",
    "created_at": "1/22/2019 11:44:17 PM",
    "derived": {
      "lat": 47.533387,
      "long": -122.276409,
      "timestamp": 1548229457000,
      "description": "Aid Response",
      "address": "4507 S Holden St,Seattle,WA",
      "entries": 1,
      "neighborhood": "Columbia City",
      "neighborhoodGroup": "Southeast",
      "unitCount": 1,
      "severity": 0,
      "units": "E33"
    }
  },
  {
    "id_str": "F190007592",
    "created_at": "1/22/2019 11:24:15 PM",
    "derived": {
      "lat": 47.547569,
      "long": -122.272644,
      "timestamp": 1548228255000,
      "description": "Aid Response",
      "address": "6121 48th Av S,Seattle,WA",
      "entries": 1,
      "neighborhood": "Seward Park",
      "neighborhoodGroup": "Southeast",
      "unitCount": 1,
      "severity": 0,
      "units": "E28"
    }
  },
  {
    "id_str": "F190007591",
    "created_at": "1/22/2019 11:23:42 PM",
    "derived": {
      "lat": 47.553399,
      "long": -122.329551,
      "timestamp": 1548228222000,
      "description": "Aid Response",
      "address": "5500 4th Av S,Seattle,WA",
      "entries": 1,
      "neighborhood": "Georgetown",
      "neighborhoodGroup": "Greater Duwamish",
      "unitCount": 1,
      "severity": 0,
      "units": "E27"
    }
  },
  {
    "id_str": "F190007590",
    "created_at": "1/22/2019 11:17:33 PM",
    "derived": {
      "lat": 47.61695,
      "long": -122.352561,
      "timestamp": 1548227853000,
      "description": "Aid Response Yellow",
      "address": "2905 1st Av,Seattle,WA",
      "entries": 1,
      "neighborhood": "Belltown",
      "neighborhoodGroup": "Downtown",
      "unitCount": 1,
      "severity": 0,
      "units": "A2"
    }
  },
  {
    "id_str": "F190007589",
    "created_at": "1/22/2019 11:16:00 PM",
    "derived": {
      "lat": 47.502554,
      "long": -122.26445,
      "timestamp": 1548227760000,
      "description": "Aid Response",
      "address": "5523 S Leo St,Seattle,WA",
      "entries": 1,
      "neighborhood": "Rainier Beach",
      "neighborhoodGroup": "Southeast",
      "unitCount": 1,
      "severity": 0,
      "units": "E33"
    }
  },
  {
    "id_str": "F190007587",
    "created_at": "1/22/2019 11:07:02 PM",
    "derived": {
      "lat": 47.723143,
      "long": -122.326232,
      "timestamp": 1548227222000,
      "description": "MVI - Motor Vehicle Incident",
      "address": "3rd Av Ne / Ne 130th St,Seattle,WA",
      "entries": 1,
      "neighborhood": "Haller Lake",
      "neighborhoodGroup": "Northwest",
      "unitCount": 1,
      "severity": 0,
      "units": "E24"
    }
  },
  {
    "id_str": "F190007585",
    "created_at": "1/22/2019 10:59:53 PM",
    "derived": {
      "lat": 47.607997,
      "long": -122.296254,
      "timestamp": 1548226793000,
      "description": "Aid Response",
      "address": "M L King Jr Way / E Cherry St,Seattle,WA",
      "entries": 1,
      "neighborhood": "Central Area/Squire Park",
      "neighborhoodGroup": "Central",
      "unitCount": 1,
      "severity": 0,
      "units": "E6"
    }
  },
  {
    "id_str": "F190007586",
    "created_at": "1/22/2019 10:59:25 PM",
    "derived": {
      "lat": 47.656013,
      "long": -122.315699,
      "timestamp": 1548226765000,
      "description": "Aid Response",
      "address": "1201 Ne Campus Pkwy,Seattle,WA",
      "entries": 1,
      "neighborhood": "University District",
      "neighborhoodGroup": "Northeast",
      "unitCount": 1,
      "severity": 0,
      "units": "E17"
    }
  },
  {
    "id_str": "F190007583",
    "created_at": "1/22/2019 10:41:01 PM",
    "derived": {
      "lat": 47.670151,
      "long": -122.259536,
      "timestamp": 1548225661000,
      "description": "Aid Response",
      "address": "5727 64th Av Ne,Seattle,WA",
      "entries": 1,
      "neighborhood": "Laurelhurst/Sand Point",
      "neighborhoodGroup": "Northeast",
      "unitCount": 1,
      "severity": 0,
      "units": "E38"
    }
  },
  {
    "id_str": "F190007582",
    "created_at": "1/22/2019 10:38:50 PM",
    "derived": {
      "lat": 47.588024,
      "long": -122.395839,
      "timestamp": 1548225530000,
      "description": "Aid Response Yellow",
      "address": "1750 Alki Av Sw,Seattle,WA",
      "entries": 1,
      "neighborhood": "Alki/Admiral",
      "neighborhoodGroup": "Southwest",
      "unitCount": 1,
      "severity": 0,
      "units": "E29"
    }
  },
  {
    "id_str": "F190007579",
    "created_at": "1/22/2019 10:26:06 PM",
    "derived": {
      "lat": 47.727922,
      "long": -122.296068,
      "timestamp": 1548224766000,
      "description": "Aid Response",
      "address": "3025 Ne 137th St,Seattle,WA",
      "entries": 1,
      "neighborhood": "Cedar Park/Meadowbrook",
      "neighborhoodGroup": "North",
      "unitCount": 1,
      "severity": 0,
      "units": "E39"
    }
  },
  {
    "id_str": "F190007577",
    "created_at": "1/22/2019 10:19:08 PM",
    "derived": {
      "lat": 47.542466,
      "long": -122.396386,
      "timestamp": 1548224348000,
      "description": "Aid Response Yellow",
      "address": "6776 Beach Dr Sw,Seattle,WA",
      "entries": 1,
      "neighborhood": "Fauntleroy/Seaview",
      "neighborhoodGroup": "Southwest",
      "unitCount": 1,
      "severity": 0,
      "units": "E37"
    }
  },
  {
    "id_str": "F190007576",
    "created_at": "1/22/2019 10:15:49 PM",
    "derived": {
      "lat": 47.541576,
      "long": -122.298864,
      "timestamp": 1548224149000,
      "description": "MVI - Motor Vehicle Incident",
      "address": "6834 Beacon Av S,Seattle,WA",
      "entries": 1,
      "neighborhood": "South Beacon Hill/NewHolly",
      "neighborhoodGroup": "Greater Duwamish",
      "unitCount": 1,
      "severity": 0,
      "units": "E27"
    }
  },
  {
    "id_str": "F190007575",
    "created_at": "1/22/2019 10:07:00 PM",
    "derived": {
      "lat": 47.690481,
      "long": -122.306859,
      "timestamp": 1548223620000,
      "description": "Aid Response",
      "address": "8520 20th Av Ne,Seattle,WA",
      "entries": 1,
      "neighborhood": "Wedgwood/View Ridge",
      "neighborhoodGroup": "Northeast",
      "unitCount": 1,
      "severity": 0,
      "units": "E40"
    }
  },
  {
    "id_str": "F190007574",
    "created_at": "1/22/2019 10:05:04 PM",
    "derived": {
      "lat": 47.620503,
      "long": -122.312698,
      "timestamp": 1548223504000,
      "description": "Medic Response",
      "address": "1501 E Thomas St,Seattle,WA",
      "entries": 2,
      "neighborhood": "Capitol Hill",
      "neighborhoodGroup": "East",
      "unitCount": 2,
      "severity": 0,
      "units": "A25 M10"
    }
  },
  {
    "id_str": "F190007573",
    "created_at": "1/22/2019 10:03:03 PM",
    "derived": {
      "lat": 47.559045,
      "long": -122.321742,
      "timestamp": 1548223383000,
      "description": "MVI Freeway",
      "address": "SB I5 AT MICHIGAN,Seattle,WA",
      "entries": 5,
      "neighborhood": "Duwamish/SODO",
      "neighborhoodGroup": "Greater Duwamish",
      "unitCount": 6,
      "severity": 1,
      "units": "A14 E10 E13 E27 E33 E36"
    }
  },
  {
    "id_str": "F190007571",
    "created_at": "1/22/2019 9:56:43 PM",
    "derived": {
      "lat": 47.542466,
      "long": -122.275011,
      "timestamp": 1548223003000,
      "description": "Alarm Bell",
      "address": "4628 S Holly St,Seattle,WA",
      "entries": 1,
      "neighborhood": "Columbia City",
      "neighborhoodGroup": "Southeast",
      "unitCount": 2,
      "severity": 0,
      "units": "E28 L12"
    }
  },
  {
    "id_str": "F190007568",
    "created_at": "1/22/2019 9:19:39 PM",
    "derived": {
      "lat": 47.666363,
      "long": -122.284802,
      "timestamp": 1548220779000,
      "description": "Medic Response, 7 per Rule",
      "address": "5120 40th Av Ne,Seattle,WA",
      "entries": 2,
      "neighborhood": "Ravenna/Bryant",
      "neighborhoodGroup": "Northeast",
      "unitCount": 3,
      "severity": 0,
      "units": "E17 E38 M31"
    }
  },
  {
    "id_str": "F190007567",
    "created_at": "1/22/2019 9:05:24 PM",
    "derived": {
      "lat": 47.619897,
      "long": -122.332981,
      "timestamp": 1548219924000,
      "description": "Aid Response",
      "address": "221 Minor Av N,Seattle,WA",
      "entries": 1,
      "neighborhood": "Cascade/Eastlake",
      "neighborhoodGroup": "Lake Union",
      "unitCount": 1,
      "severity": 0,
      "units": "A2"
    }
  },
  {
    "id_str": "F190007566",
    "created_at": "1/22/2019 9:03:09 PM",
    "derived": {
      "lat": 47.606982,
      "long": -122.326056,
      "timestamp": 1548219789000,
      "description": "Aid Response",
      "address": "801 9th Av,Seattle,WA",
      "entries": 1,
      "neighborhood": "First Hill",
      "neighborhoodGroup": "East",
      "unitCount": 1,
      "severity": 0,
      "units": "A10"
    }
  },
  {
    "id_str": "F190007563",
    "created_at": "1/22/2019 8:57:10 PM",
    "derived": {
      "lat": 47.66749,
      "long": -122.383093,
      "timestamp": 1548219430000,
      "description": "Medic Response",
      "address": "5433 Leary Av Nw,Seattle,WA",
      "entries": 1,
      "neighborhood": "Ballard",
      "neighborhoodGroup": "Ballard",
      "unitCount": 2,
      "severity": 0,
      "units": "E18 M18"
    }
  },
  {
    "id_str": "F190007562",
    "created_at": "1/22/2019 8:56:03 PM",
    "derived": {
      "lat": 47.610743,
      "long": -122.338702,
      "timestamp": 1548219363000,
      "description": "Aid Response",
      "address": "300 Pine St,Seattle,WA",
      "entries": 1,
      "neighborhood": "Downtown Commercial Core",
      "neighborhoodGroup": "Downtown",
      "unitCount": 1,
      "severity": 0,
      "units": "E2"
    }
  },
  {
    "id_str": "F190007559",
    "created_at": "1/22/2019 8:52:23 PM",
    "derived": {
      "lat": 47.61313,
      "long": -122.336282,
      "timestamp": 1548219143000,
      "description": "Aid Response",
      "address": "Olive Way / 6th Av,Seattle,WA",
      "entries": 1,
      "neighborhood": "Cascade/Eastlake",
      "neighborhoodGroup": "Lake Union",
      "unitCount": 1,
      "severity": 0,
      "units": "A2"
    }
  },
  {
    "id_str": "F190007558",
    "created_at": "1/22/2019 8:46:22 PM",
    "derived": {
      "lat": 47.663371,
      "long": -122.313098,
      "timestamp": 1548218782000,
      "description": "Scenes Of Violence 7",
      "address": "4747 University Way Ne,Seattle,WA",
      "entries": 1,
      "neighborhood": "University District",
      "neighborhoodGroup": "Northeast",
      "unitCount": 5,
      "severity": 1,
      "units": "B6 E17 L9 M17 M44"
    }
  },
  {
    "id_str": "F190007556",
    "created_at": "1/22/2019 8:34:08 PM",
    "derived": {
      "lat": 47.533683,
      "long": -122.356387,
      "timestamp": 1548218048000,
      "description": "Aid Response",
      "address": "1700 Sw Holden St,Seattle,WA",
      "entries": 1,
      "neighborhood": "Roxhill/Westwood",
      "neighborhoodGroup": "Delridge Neighborhoods",
      "unitCount": 1,
      "severity": 0,
      "units": "E11"
    }
  },
  {
    "id_str": "F190007554",
    "created_at": "1/22/2019 8:31:37 PM",
    "derived": {
      "lat": 47.544123,
      "long": -122.299647,
      "timestamp": 1548217897000,
      "description": "MVI - Motor Vehicle Incident",
      "address": "6552 Beacon Av S,Seattle,WA",
      "entries": 1,
      "neighborhood": "South Beacon Hill/NewHolly",
      "neighborhoodGroup": "Greater Duwamish",
      "unitCount": 1,
      "severity": 0,
      "units": "L12"
    }
  },
  {
    "id_str": "F190007551",
    "created_at": "1/22/2019 8:30:17 PM",
    "derived": {
      "lat": 47.611207,
      "long": -122.337592,
      "timestamp": 1548217817000,
      "description": "Aid Response",
      "address": "4th Av / Pine St,Seattle,WA",
      "entries": 1,
      "neighborhood": "Downtown Commercial Core",
      "neighborhoodGroup": "Downtown",
      "unitCount": 1,
      "severity": 0,
      "units": "E2"
    }
  },
  {
    "id_str": "F190007550",
    "created_at": "1/22/2019 8:20:51 PM",
    "derived": {
      "lat": 47.732881,
      "long": -122.296531,
      "timestamp": 1548217251000,
      "description": "Aid Response",
      "address": "14396 30th Av Ne,Seattle,WA",
      "entries": 1,
      "neighborhood": "Olympic Hills/Victory Heights",
      "neighborhoodGroup": "North",
      "unitCount": 1,
      "severity": 0,
      "units": "E39"
    }
  },
  {
    "id_str": "F190007549",
    "created_at": "1/22/2019 8:19:01 PM",
    "derived": {
      "lat": 47.696315,
      "long": -122.339685,
      "timestamp": 1548217141000,
      "description": "Aid Response",
      "address": "9257 Ashworth Av N,Seattle,WA",
      "entries": 1,
      "neighborhood": "Licton Springs",
      "neighborhoodGroup": "Northwest",
      "unitCount": 1,
      "severity": 0,
      "units": "A31"
    }
  },
  {
    "id_str": "F190007547",
    "created_at": "1/22/2019 8:12:50 PM",
    "derived": {
      "lat": 47.546032,
      "long": -122.27532,
      "timestamp": 1548216770000,
      "description": "Medic Response",
      "address": "4601 S Graham St,Seattle,WA",
      "entries": 2,
      "neighborhood": "Seward Park",
      "neighborhoodGroup": "Southeast",
      "unitCount": 3,
      "severity": 0,
      "units": "E28 L12 M28"
    }
  },
  {
    "id_str": "F190007543",
    "created_at": "1/22/2019 7:46:51 PM",
    "derived": {
      "lat": 47.610986,
      "long": -122.32356,
      "timestamp": 1548215211000,
      "description": "Aid Response",
      "address": "1301 Spring St,Seattle,WA",
      "entries": 1,
      "neighborhood": "Capitol Hill",
      "neighborhoodGroup": "East",
      "unitCount": 2,
      "severity": 0,
      "units": "A25 M10"
    }
  },
  {
    "id_str": "F190007542",
    "created_at": "1/22/2019 7:46:23 PM",
    "derived": {
      "lat": 47.569608,
      "long": -122.290486,
      "timestamp": 1548215183000,
      "description": "Medic Response, 6 per Rule",
      "address": "3820 Rainier Av S,Seattle,WA",
      "entries": 1,
      "neighborhood": "Columbia City",
      "neighborhoodGroup": "Southeast",
      "unitCount": 3,
      "severity": 0,
      "units": "E13 E28 M28"
    }
  },
  {
    "id_str": "F190007541",
    "created_at": "1/22/2019 7:45:05 PM",
    "derived": {
      "lat": 47.561674,
      "long": -122.293783,
      "timestamp": 1548215105000,
      "description": "Aid Response",
      "address": "4616 M L King Jr Way S,Seattle,WA",
      "entries": 1,
      "neighborhood": "Columbia City",
      "neighborhoodGroup": "Southeast",
      "unitCount": 1,
      "severity": 0,
      "units": "E30"
    }
  },
  {
    "id_str": "F190007539",
    "created_at": "1/22/2019 7:31:11 PM",
    "derived": {
      "lat": 47.683276,
      "long": -122.360654,
      "timestamp": 1548214271000,
      "description": "MVI - Motor Vehicle Incident",
      "address": "3rd Av Nw / Nw 75th St,Seattle,WA",
      "entries": 1,
      "neighborhood": "Greenwood/Phinney Ridge",
      "neighborhoodGroup": "Northwest",
      "unitCount": 1,
      "severity": 0,
      "units": "E21"
    }
  },
  {
    "id_str": "F190007538",
    "created_at": "1/22/2019 7:21:45 PM",
    "derived": {
      "lat": 47.693931,
      "long": -122.30552,
      "timestamp": 1548213705000,
      "description": "Medic Response",
      "address": "9001 Lake City Way Ne,Seattle,WA",
      "entries": 2,
      "neighborhood": "Wedgwood/View Ridge",
      "neighborhoodGroup": "Northeast",
      "unitCount": 2,
      "severity": 0,
      "units": "E40 M17"
    }
  },
  {
    "id_str": "F190007537",
    "created_at": "1/22/2019 7:20:49 PM",
    "derived": {
      "lat": 47.592399,
      "long": -122.327256,
      "timestamp": 1548213649000,
      "description": "Medic Response",
      "address": "503 S Royal Brougham Way,Seattle,WA",
      "entries": 1,
      "neighborhood": "Duwamish/SODO",
      "neighborhoodGroup": "Greater Duwamish",
      "unitCount": 2,
      "severity": 0,
      "units": "A5 M1"
    }
  },
  {
    "id_str": "F190007536",
    "created_at": "1/22/2019 7:10:39 PM",
    "derived": {
      "lat": 47.526448,
      "long": -122.317231,
      "timestamp": 1548213039000,
      "description": "Medic Response",
      "address": "1226 S Cloverdale St,Seattle,WA",
      "entries": 1,
      "neighborhood": "South Park",
      "neighborhoodGroup": "Greater Duwamish",
      "unitCount": 2,
      "severity": 0,
      "units": "E27 M28"
    }
  },
  {
    "id_str": "F190007533",
    "created_at": "1/22/2019 6:54:25 PM",
    "derived": {
      "lat": 47.541883,
      "long": -122.343794,
      "timestamp": 1548212065000,
      "description": "Aid Response",
      "address": "6700 WEST MARGINAL WAY SW,Seattle,WA",
      "entries": 1,
      "neighborhood": "Riverview",
      "neighborhoodGroup": "Delridge Neighborhoods",
      "unitCount": 1,
      "severity": 0,
      "units": "E36"
    }
  },
  {
    "id_str": "F190007531",
    "created_at": "1/22/2019 6:50:37 PM",
    "derived": {
      "lat": 47.616642,
      "long": -122.325547,
      "timestamp": 1548211837000,
      "description": "Auto Fire Alarm",
      "address": "1722 Summit Av,Seattle,WA",
      "entries": 1,
      "neighborhood": "Capitol Hill",
      "neighborhoodGroup": "East",
      "unitCount": 2,
      "severity": 0,
      "units": "E25 L10"
    }
  },
  {
    "id_str": "F190007530",
    "created_at": "1/22/2019 6:49:02 PM",
    "derived": {
      "lat": 47.523307,
      "long": -122.269986,
      "timestamp": 1548211742000,
      "description": "Aid Response",
      "address": "9000 RAINIER AV S,Seattle,WA",
      "entries": 1,
      "neighborhood": "Rainier Beach",
      "neighborhoodGroup": "Southeast",
      "unitCount": 1,
      "severity": 0,
      "units": "E33"
    }
  },
  {
    "id_str": "F190007529",
    "created_at": "1/22/2019 6:48:53 PM",
    "derived": {
      "lat": 47.584234,
      "long": -122.299024,
      "timestamp": 1548211733000,
      "description": "Medic Response",
      "address": "2121 26th Av S,Seattle,WA",
      "entries": 1,
      "neighborhood": "Mt. Baker/North Rainier",
      "neighborhoodGroup": "Southeast",
      "unitCount": 2,
      "severity": 0,
      "units": "E30 M10"
    }
  },
  {
    "id_str": "F190007528",
    "created_at": "1/22/2019 6:45:20 PM",
    "derived": {
      "lat": 47.611109,
      "long": -122.327981,
      "timestamp": 1548211520000,
      "description": "Aid Response",
      "address": "1020 University St,Seattle,WA",
      "entries": 1,
      "neighborhood": "First Hill",
      "neighborhoodGroup": "East",
      "unitCount": 1,
      "severity": 0,
      "units": "A25"
    }
  },
  {
    "id_str": "F190007524",
    "created_at": "1/22/2019 6:27:59 PM",
    "derived": {
      "lat": 47.700416,
      "long": -122.323025,
      "timestamp": 1548210479000,
      "description": "Aid Response",
      "address": "510 Ne 98th St,Seattle,WA",
      "entries": 1,
      "neighborhood": "Northgate/Maple Leaf",
      "neighborhoodGroup": "North",
      "unitCount": 1,
      "severity": 0,
      "units": "L9"
    }
  },
  {
    "id_str": "F190007523",
    "created_at": "1/22/2019 6:25:51 PM",
    "derived": {
      "lat": 47.602172,
      "long": -122.330863,
      "timestamp": 1548210351000,
      "description": "Aid Response",
      "address": "517 3rd Av,Seattle,WA",
      "entries": 1,
      "neighborhood": "Downtown Commercial Core",
      "neighborhoodGroup": "Downtown",
      "unitCount": 1,
      "severity": 0,
      "units": "A10"
    }
  },
  {
    "id_str": "V190007520",
    "created_at": "1/22/2019 6:14:27 PM",
    "derived": {
      "lat": 47.49385,
      "long": -122.349955,
      "timestamp": 1548209667000,
      "description": "Mutual Aid, Engine",
      "address": "12201 Ambaum Blvd Sw,Seattle,WA",
      "entries": 2,
      "unitCount": 3,
      "severity": 0,
      "units": "B7 E11 E26"
    }
  },
  {
    "id_str": "F190007519",
    "created_at": "1/22/2019 6:10:57 PM",
    "derived": {
      "lat": 47.72343,
      "long": -122.348164,
      "timestamp": 1548209457000,
      "description": "Fire in Building",
      "address": "13030 Linden Av N,Seattle,WA",
      "entries": 3,
      "neighborhood": "Broadview/Bitter Lake",
      "neighborhoodGroup": "Northwest",
      "unitCount": 20,
      "severity": 2,
      "units": "A31 AIR10 B4 B6 DEP1 E16 E21 E31 E35 E39 E40 L5 L8 L9 M31 M44 MAR5 REHAB1 SAFT2 STAF10"
    }
  },
  {
    "id_str": "F190007518",
    "created_at": "1/22/2019 6:06:29 PM",
    "derived": {
      "lat": 47.607763,
      "long": -122.335976,
      "timestamp": 1548209189000,
      "description": "Rescue Elevator",
      "address": "1300 3rd Av,Seattle,WA",
      "entries": 1,
      "neighborhood": "Downtown Commercial Core",
      "neighborhoodGroup": "Downtown",
      "unitCount": 1,
      "severity": 0,
      "units": "L1"
    }
  },
  {
    "id_str": "F190007516",
    "created_at": "1/22/2019 6:02:55 PM",
    "derived": {
      "lat": 47.658037,
      "long": -122.325156,
      "timestamp": 1548208975000,
      "description": "Aid Response",
      "address": "4228 Latona Av Ne,Seattle,WA",
      "entries": 1,
      "neighborhood": "Wallingford",
      "neighborhoodGroup": "Lake Union",
      "unitCount": 1,
      "severity": 0,
      "units": "E17"
    }
  },
  {
    "id_str": "F190007515",
    "created_at": "1/22/2019 6:01:23 PM",
    "derived": {
      "lat": 47.726864,
      "long": -122.348012,
      "timestamp": 1548208883000,
      "description": "Aid Response Yellow",
      "address": "747 N 135th St,Seattle,WA",
      "entries": 1,
      "neighborhood": "Broadview/Bitter Lake",
      "neighborhoodGroup": "Northwest",
      "unitCount": 1,
      "severity": 0,
      "units": "E24"
    }
  },