[
  {
    "id_str": "F190101327",
    "created_at": "9/21/2019 4:59:55 PM",
    "derived": {
      "lat": 47.508215,
      "long": -122.378925,
      "timestamp": 1569110395000,
      "description": "Aid Response",
      "entries": 1,
      "neighborhood": "Arbor Heights",
      "neighborhoodGroup": "Southwest",
      "unitCount": 1,
      "severity": 0,
      "units": "E37",
      "address": "3715 Sw 106th St"
    }
  },
  {
    "id_str": "F190101326",
    "created_at": "9/21/2019 4:53:21 PM",
    "derived": {
      "lat": 47.663288,
      "long": -122.314235,
      "timestamp": 1569110001000,
      "description": "Aid Response",
      "entries": 1,
      "neighborhood": "University District",
      "neighborhoodGroup": "Northeast",
      "unitCount": 1,
      "severity": 0,
      "units": "E31",
      "address": "4732 Brooklyn Av Ne"
    }
  },
  {
    "id_str": "F190101324",
    "created_at": "9/21/2019 4:42:23 PM",
    "derived": {
      "lat": 47.576646,
      "long": -122.292968,
      "timestamp": 1569109343000,
      "description": "Aid Response",
      "entries": 1,
      "neighborhood": "Mt. Baker/North Rainier",
      "neighborhoodGroup": "Southeast",
      "unitCount": 1,
      "severity": 0,
      "units": "E30",
      "address": "3103 S Mount Baker Blvd"
    }
  },
  {
    "id_str": "F190101322",
    "created_at": "9/21/2019 4:38:38 PM",
    "derived": {
      "lat": 47.604426,
      "long": -122.310217,
      "timestamp": 1569109118000,
      "description": "Automatic Fire Alarm Resd",
      "entries": 1,
      "neighborhood": "Central Area/Squire Park",
      "neighborhoodGroup": "Central",
      "unitCount": 1,
      "severity": 0,
      "units": "E25",
      "address": "311 17th Av"
    }
  },
  {
    "id_str": "F190101321",
    "created_at": "9/21/2019 4:28:38 PM",
    "derived": {
      "lat": 47.599196,
      "long": -122.328636,
      "timestamp": 1569108518000,
      "description": "Aid Response",
      "entries": 1,
      "neighborhood": "Pioneer Square/International District",
      "neighborhoodGroup": "Downtown",
      "unitCount": 1,
      "severity": 0,
      "units": "A10",
      "address": "425 S Jackson St"
    }
  },
  {
    "id_str": "F190101320",
    "created_at": "9/21/2019 4:21:54 PM",
    "derived": {
      "lat": 47.608292,
      "long": -122.337995,
      "timestamp": 1569108114000,
      "description": "Aid Response",
      "entries": 1,
      "neighborhood": "Downtown Commercial Core",
      "neighborhoodGroup": "Downtown",
      "unitCount": 1,
      "severity": 0,
      "units": "A2",
      "address": "1401 2nd Av"
    }
  },
  {
    "id_str": "F190101319",
    "created_at": "9/21/2019 4:15:57 PM",
    "derived": {
      "lat": 47.526216,
      "long": -122.360471,
      "timestamp": 1569107757000,
      "description": "Automatic Fire Alarm False",
      "entries": 1,
      "neighborhood": "Roxhill/Westwood",
      "neighborhoodGroup": "Delridge Neighborhoods",
      "unitCount": 2,
      "severity": 0,
      "units": "E11 L11",
      "address": "8630 Delridge Way Sw"
    }
  },
  {
    "id_str": "F190101318",
    "created_at": "9/21/2019 4:15:09 PM",
    "derived": {
      "lat": 47.677948,
      "long": -122.291689,
      "timestamp": 1569107709000,
      "description": "Aid Response",
      "entries": 1,
      "neighborhood": "Ravenna/Bryant",
      "neighborhoodGroup": "Northeast",
      "unitCount": 1,
      "severity": 0,
      "units": "E38",
      "address": "6839 34th Av Ne"
    }
  },
  {
    "id_str": "F190101316",
    "created_at": "9/21/2019 4:09:46 PM",
    "derived": {
      "lat": 47.600843,
      "long": -122.330271,
      "timestamp": 1569107386000,
      "description": "Aid Response",
      "entries": 1,
      "neighborhood": "Pioneer Square/International District",
      "neighborhoodGroup": "Downtown",
      "unitCount": 1,
      "severity": 0,
      "units": "L1",
      "address": "204 3rd Av S"
    }
  },
  {
    "id_str": "F190101314",
    "created_at": "9/21/2019 4:03:35 PM",
    "derived": {
      "lat": 47.564554,
      "long": -122.386772,
      "timestamp": 1569107015000,
      "description": "Aid Response",
      "entries": 1,
      "neighborhood": "West Seattle Junction/Genesee Hill",
      "neighborhoodGroup": "Southwest",
      "unitCount": 1,
      "severity": 0,
      "units": "E32",
      "address": "4409 California Av Sw"
    }
  },
  {
    "id_str": "F190101313",
    "created_at": "9/21/2019 3:58:50 PM",
    "derived": {
      "lat": 47.611606,
      "long": -122.333354,
      "timestamp": 1569106730000,
      "description": "Aid Response",
      "entries": 2,
      "neighborhood": "First Hill",
      "neighborhoodGroup": "East",
      "unitCount": 1,
      "severity": 0,
      "units": "A2",
      "address": "700 Pike St"
    }
  },
  {
    "id_str": "F190101312",
    "created_at": "9/21/2019 3:47:05 PM",
    "derived": {
      "lat": 47.702503,
      "long": -122.363849,
      "timestamp": 1569106025000,
      "description": "Aid Response",
      "entries": 1,
      "neighborhood": "North Beach/Blue Ridge",
      "neighborhoodGroup": "Ballard",
      "unitCount": 1,
      "severity": 0,
      "units": "E24",
      "address": "Nw 100th Pl / 7th Av Nw"
    }
  },
  {
    "id_str": "F190101311",
    "created_at": "9/21/2019 3:46:00 PM",
    "derived": {
      "lat": 47.515606,
      "long": -122.376629,
      "timestamp": 1569105960000,
      "description": "Aid Response",
      "entries": 1,
      "neighborhood": "Arbor Heights",
      "neighborhoodGroup": "Southwest",
      "unitCount": 1,
      "severity": 0,
      "units": "E37",
      "address": "35th Av Sw / Sw 98th St"
    }
  },
  {
    "id_str": "F190101309",
    "created_at": "9/21/2019 3:44:06 PM",
    "derived": {
      "lat": 47.602172,
      "long": -122.330863,
      "timestamp": 1569105846000,
      "description": "Aid Response",
      "entries": 2,
      "neighborhood": "Downtown Commercial Core",
      "neighborhoodGroup": "Downtown",
      "unitCount": 2,
      "severity": 0,
      "units": "A5 E10",
      "address": "517 3rd Av"
    }
  },
  {
    "id_str": "F190101308",
    "created_at": "9/21/2019 3:43:58 PM",
    "derived": {
      "lat": 47.667904,
      "long": -122.329521,
      "timestamp": 1569105838000,
      "description": "Aid Response Yellow",
      "entries": 1,
      "neighborhood": "Green Lake",
      "neighborhoodGroup": "Northwest",
      "unitCount": 1,
      "severity": 0,
      "units": "E31",
      "address": "2303 N 54th St"
    }
  },
  {
    "id_str": "F190101307",
    "created_at": "9/21/2019 3:39:25 PM",
    "derived": {
      "lat": 47.608357,
      "long": -122.341124,
      "timestamp": 1569105565000,
      "description": "Medic Response",
      "entries": 2,
      "neighborhood": "Downtown Commercial Core",
      "neighborhoodGroup": "Downtown",
      "unitCount": 2,
      "severity": 0,
      "units": "A4 M10",
      "address": "1500 Western Av"
    }
  },
  {
    "id_str": "F190101304",
    "created_at": "9/21/2019 3:30:27 PM",
    "derived": {
      "lat": 47.668297,
      "long": -122.275798,
      "timestamp": 1569105027000,
      "description": "Investigate Out Of Service",
      "entries": 1,
      "neighborhood": "Laurelhurst/Sand Point",
      "neighborhoodGroup": "Northeast",
      "unitCount": 1,
      "severity": 0,
      "units": "E38",
      "address": "5430 Sand Point Way Ne"
    }
  },
  {
    "id_str": "F190101301",
    "created_at": "9/21/2019 3:22:44 PM",
    "derived": {
      "lat": 47.610516,
      "long": -122.324681,
      "timestamp": 1569104564000,
      "description": "Aid Response",
      "entries": 1,
      "neighborhood": "First Hill",
      "neighborhoodGroup": "East",
      "unitCount": 1,
      "severity": 0,
      "units": "E25",
      "address": "Minor Av / Spring St"
    }
  },
  {
    "id_str": "F190101299",
    "created_at": "9/21/2019 3:21:13 PM",
    "derived": {
      "lat": 47.654149,
      "long": -122.3534,
      "timestamp": 1569104473000,
      "description": "MVI - Motor Vehicle Incident",
      "entries": 1,
      "neighborhood": "Fremont",
      "neighborhoodGroup": "Lake Union",
      "unitCount": 1,
      "severity": 0,
      "units": "E9",
      "address": "Francis Av N / N 39th St"
    }
  },
  {
    "id_str": "F190101300",
    "created_at": "9/21/2019 3:20:58 PM",
    "derived": {
      "lat": 47.654149,
      "long": -122.3534,
      "timestamp": 1569104458000,
      "description": "MVI - Motor Vehicle Incident",
      "entries": 1,
      "neighborhood": "Fremont",
      "neighborhoodGroup": "Lake Union",
      "unitCount": 1,
      "severity": 0,
      "units": "E18",
      "address": "Francis Av N / N 39th St"
    }
  },
  {
    "id_str": "F190101298",
    "created_at": "9/21/2019 3:19:56 PM",
    "derived": {
      "lat": 47.620289,
      "long": -122.320879,
      "timestamp": 1569104396000,
      "description": "Fast Back Up",
      "entries": 1,
      "neighborhood": "Capitol Hill",
      "neighborhoodGroup": "East",
      "unitCount": 2,
      "severity": 0,
      "units": "B2 SAFT2",
      "address": "233 Broadway E"
    }
  },
  {
    "id_str": "F190101297",
    "created_at": "9/21/2019 3:00:39 PM",
    "derived": {
      "lat": 47.620289,
      "long": -122.320879,
      "timestamp": 1569103239000,
      "description": "Aid Response",
      "entries": 1,
      "neighborhood": "Capitol Hill",
      "neighborhoodGroup": "East",
      "unitCount": 1,
      "severity": 0,
      "units": "A10",
      "address": "233 BROADWAY E"
    }
  },
  {
    "id_str": "F190101295",
    "created_at": "9/21/2019 2:55:51 PM",
    "derived": {
      "lat": 47.716666,
      "long": -122.344887,
      "timestamp": 1569102951000,
      "description": "Auto Fire Alarm",
      "entries": 1,
      "neighborhood": "Broadview/Bitter Lake",
      "neighborhoodGroup": "Northwest",
      "unitCount": 2,
      "severity": 0,
      "units": "E24 L5",
      "address": "12015 Aurora Av N"
    }
  },
  {
    "id_str": "F190101294",
    "created_at": "9/21/2019 2:54:52 PM",
    "derived": {
      "lat": 47.571408,
      "long": -122.291001,
      "timestamp": 1569102892000,
      "description": "Aid Response Yellow",
      "entries": 1,
      "neighborhood": "Columbia City",
      "neighborhoodGroup": "Southeast",
      "unitCount": 1,
      "severity": 0,
      "units": "E30",
      "address": "3621 33rd Av S"
    }
  },
  {
    "id_str": "F190101293",
    "created_at": "9/21/2019 2:50:56 PM",
    "derived": {
      "lat": 47.609285,
      "long": -122.338904,
      "timestamp": 1569102656000,
      "description": "Rescue Elevator",
      "entries": 1,
      "neighborhood": "Downtown Commercial Core",
      "neighborhoodGroup": "Downtown",
      "unitCount": 1,
      "severity": 0,
      "units": "L4",
      "address": "Pike St / 2nd Av"
    }
  },
  {
    "id_str": "F190101292",
    "created_at": "9/21/2019 2:47:39 PM",
    "derived": {
      "lat": 47.542241,
      "long": -122.33422,
      "timestamp": 1569102459000,
      "description": "MVI - Motor Vehicle Incident",
      "entries": 1,
      "neighborhood": "South Park",
      "neighborhoodGroup": "Greater Duwamish",
      "unitCount": 3,
      "severity": 0,
      "units": "A14 E11 E26",
      "address": "Nb Sr509 At 1 Av S Bridge"
    }
  },
  {
    "id_str": "F190101291",
    "created_at": "9/21/2019 2:45:17 PM",
    "derived": {
      "lat": 47.619677,
      "long": -122.311383,
      "timestamp": 1569102317000,
      "description": "Auto Fire Alarm",
      "entries": 1,
      "neighborhood": "Miller Park",
      "neighborhoodGroup": "East",
      "unitCount": 2,
      "severity": 0,
      "units": "E25 L10",
      "address": "1601 E John St"
    }
  },
  {
    "id_str": "F190101288",
    "created_at": "9/21/2019 2:39:02 PM",
    "derived": {
      "lat": 47.656044,
      "long": -122.304567,
      "timestamp": 1569101942000,
      "description": "Aid Response",
      "entries": 1,
      "neighborhood": "University District",
      "neighborhoodGroup": "Northeast",
      "unitCount": 1,
      "severity": 0,
      "units": "E31",
      "address": "4001 East Stevens Way Ne"
    }
  },
  {
    "id_str": "F190101286",
    "created_at": "9/21/2019 2:26:04 PM",
    "derived": {
      "lat": 47.580593,
      "long": -122.313412,
      "timestamp": 1569101164000,
      "description": "Aid Response",
      "entries": 1,
      "neighborhood": "North Beacon Hill/Jefferson Park",
      "neighborhoodGroup": "Greater Duwamish",
      "unitCount": 1,
      "severity": 0,
      "units": "E30",
      "address": "15th Av S / Beacon Av S"
    }
  },
  {
    "id_str": "F190101284",
    "created_at": "9/21/2019 2:11:34 PM",
    "derived": {
      "lat": 47.666428,
      "long": -122.311916,
      "timestamp": 1569100294000,
      "description": "Aid Response",
      "entries": 1,
      "neighborhood": "University District",
      "neighborhoodGroup": "Northeast",
      "unitCount": 1,
      "severity": 0,
      "units": "E31",
      "address": "15th Av Ne / Ne 52nd St"
    }
  },
  {
    "id_str": "F190101283",
    "created_at": "9/21/2019 2:09:48 PM",
    "derived": {
      "lat": 47.560437,
      "long": -122.266934,
      "timestamp": 1569100188000,
      "description": "Aid Response",
      "entries": 2,
      "neighborhood": "Seward Park",
      "neighborhoodGroup": "Southeast",
      "unitCount": 2,
      "severity": 0,
      "units": "E28 L12",
      "address": "4714 53rd Av S"
    }
  },
  {
    "id_str": "F190101282",
    "created_at": "9/21/2019 2:06:50 PM",
    "derived": {
      "lat": 47.625438,
      "long": -122.35148,
      "timestamp": 1569100010000,
      "description": "Aid Response",
      "entries": 1,
      "neighborhood": "Queen Anne",
      "neighborhoodGroup": "Magnolia/Queen Anne",
      "unitCount": 1,
      "severity": 0,
      "units": "L6",
      "address": "3rd Av N / Roy St"
    }
  },
  {
    "id_str": "F190101281",
    "created_at": "9/21/2019 2:03:38 PM",
    "derived": {
      "lat": 47.625443,
      "long": -122.352785,
      "timestamp": 1569099818000,
      "description": "Aid Response",
      "entries": 1,
      "neighborhood": "Queen Anne",
      "neighborhoodGroup": "Magnolia/Queen Anne",
      "unitCount": 1,
      "severity": 0,
      "units": "E8",
      "address": "200 Roy St"
    }
  },
  {
    "id_str": "F190101280",
    "created_at": "9/21/2019 2:01:28 PM",
    "derived": {
      "lat": 47.623222,
      "long": -122.333001,
      "timestamp": 1569099688000,
      "description": "Aid Response",
      "entries": 1,
      "neighborhood": "Cascade/Eastlake",
      "neighborhoodGroup": "Lake Union",
      "unitCount": 1,
      "severity": 0,
      "units": "A4",
      "address": "510 Minor Av N"
    }
  },
  {
    "id_str": "F190101278",
    "created_at": "9/21/2019 1:54:41 PM",
    "derived": {
      "lat": 47.547175,
      "long": -122.368996,
      "timestamp": 1569099281000,
      "description": "Aid Response",
      "entries": 1,
      "neighborhood": "High Point",
      "neighborhoodGroup": "Delridge Neighborhoods",
      "unitCount": 1,
      "severity": 0,
      "units": "E37",
      "address": "6319 High Point Dr Sw"
    }
  },
  {
    "id_str": "F190101276",
    "created_at": "9/21/2019 1:49:47 PM",
    "derived": {
      "lat": 47.607945,
      "long": -122.328471,
      "timestamp": 1569098987000,
      "description": "Aid Response",
      "entries": 1,
      "neighborhood": "First Hill",
      "neighborhoodGroup": "East",
      "unitCount": 1,
      "severity": 0,
      "units": "A5",
      "address": "1000 8th Av"
    }
  },
  {
    "id_str": "F190101274",
    "created_at": "9/21/2019 1:46:19 PM",
    "derived": {
      "lat": 47.643183,
      "long": -122.303778,
      "timestamp": 1569098779000,
      "description": "Aid Response",
      "entries": 1,
      "neighborhood": "Montlake/Portage Bay",
      "neighborhoodGroup": "Northeast",
      "unitCount": 1,
      "severity": 0,
      "units": "E34",
      "address": "2605 22nd Av E"
    }
  },
  {
    "id_str": "F190101272",
    "created_at": "9/21/2019 1:44:07 PM",
    "derived": {
      "lat": 47.637923,
      "long": -122.307278,
      "timestamp": 1569098647000,
      "description": "Medic Response",
      "entries": 2,
      "neighborhood": "Montlake/Portage Bay",
      "neighborhoodGroup": "Northeast",
      "unitCount": 2,
      "severity": 0,
      "units": "E22 M17",
      "address": "2100 Boyer Av E"
    }
  },
  {
    "id_str": "F190101271",
    "created_at": "9/21/2019 1:41:20 PM",
    "derived": {
      "lat": 47.564617,
      "long": -122.329378,
      "timestamp": 1569098480000,
      "description": "Aid Response",
      "entries": 1,
      "neighborhood": "Duwamish/SODO",
      "neighborhoodGroup": "Greater Duwamish",
      "unitCount": 1,
      "severity": 0,
      "units": "A14",
      "address": "4401 4th Av S"
    }
  },
  {
    "id_str": "F190101270",
    "created_at": "9/21/2019 1:40:17 PM",
    "derived": {
      "lat": 47.658939,
      "long": -122.366112,
      "timestamp": 1569098417000,
      "description": "Aid Response",
      "entries": 1,
      "neighborhood": "Ballard",
      "neighborhoodGroup": "Ballard",
      "unitCount": 1,
      "severity": 0,
      "units": "E18",
      "address": "8TH AV NW / NW 43RD ST"
    }
  },
  {
    "id_str": "F190101267",
    "created_at": "9/21/2019 1:15:15 PM",
    "derived": {
      "lat": 47.639557,
      "long": -122.398337,
      "timestamp": 1569096915000,
      "description": "Medic Response",
      "entries": 2,
      "neighborhood": "Magnolia",
      "neighborhoodGroup": "Magnolia/Queen Anne",
      "unitCount": 2,
      "severity": 0,
      "units": "E41 M18",
      "address": "W Mcgraw St / 32nd Av W"
    }
  },
  {
    "id_str": "F190101266",
    "created_at": "9/21/2019 1:11:16 PM",
    "derived": {
      "lat": 47.553321,
      "long": -122.362969,
      "timestamp": 1569096676000,
      "description": "Medic Response",
      "entries": 3,
      "neighborhood": "High Point",
      "neighborhoodGroup": "Delridge Neighborhoods",
      "unitCount": 3,
      "severity": 0,
      "units": "E10 E11 M1",
      "address": "5444 Delridge Way Sw"
    }
  },
  {
    "id_str": "F190101265",
    "created_at": "9/21/2019 1:09:48 PM",
    "derived": {
      "lat": 47.602985,
      "long": -122.328535,
      "timestamp": 1569096588000,
      "description": "Aid Response",
      "entries": 2,
      "neighborhood": "First Hill",
      "neighborhoodGroup": "East",
      "unitCount": 2,
      "severity": 0,
      "units": "E10 L1",
      "address": "500 5th Av"
    }
  },
  {
    "id_str": "F190101264",
    "created_at": "9/21/2019 1:07:59 PM",
    "derived": {
      "lat": 47.601599,
      "long": -122.330006,
      "timestamp": 1569096479000,
      "description": "Aid Response",
      "entries": 1,
      "neighborhood": "Pioneer Square/International District",
      "neighborhoodGroup": "Downtown",
      "unitCount": 1,
      "severity": 0,
      "units": "A5",
      "address": "117 Prefontaine Pl S"
    }
  },
  {
    "id_str": "F190101263",
    "created_at": "9/21/2019 1:02:18 PM",
    "derived": {
      "lat": 47.561773,
      "long": -122.284909,
      "timestamp": 1569096138000,
      "description": "Aid Response",
      "entries": 1,
      "neighborhood": "Columbia City",
      "neighborhoodGroup": "Southeast",
      "unitCount": 1,
      "severity": 0,
      "units": "E28",
      "address": "4600 38th Av S"
    }
  },
  {
    "id_str": "F190101261",
    "created_at": "9/21/2019 12:56:07 PM",
    "derived": {
      "lat": 47.607742,
      "long": -122.326595,
      "timestamp": 1569095767000,
      "description": "Aid Response",
      "entries": 1,
      "neighborhood": "First Hill",
      "neighborhoodGroup": "East",
      "unitCount": 1,
      "severity": 0,
      "units": "A10",
      "address": "910 Marion St"
    }
  },
  {
    "id_str": "F190101260",
    "created_at": "9/21/2019 12:55:52 PM",
    "derived": {
      "lat": 47.619677,
      "long": -122.311383,
      "timestamp": 1569095752000,
      "description": "Auto Fire Alarm",
      "entries": 1,
      "neighborhood": "Miller Park",
      "neighborhoodGroup": "East",
      "unitCount": 2,
      "severity": 0,
      "units": "E25 L10",
      "address": "1601 E John St"
    }
  },
  {
    "id_str": "F190101259",
    "created_at": "9/21/2019 12:54:05 PM",
    "derived": {
      "lat": 47.602172,
      "long": -122.330863,
      "timestamp": 1569095645000,
      "description": "Aid Response",
      "entries": 1,
      "neighborhood": "Downtown Commercial Core",
      "neighborhoodGroup": "Downtown",
      "unitCount": 1,
      "severity": 0,
      "units": "A5",
      "address": "517 3rd Av"
    }
  },
  {
    "id_str": "F190101258",
    "created_at": "9/21/2019 12:49:49 PM",
    "derived": {
      "lat": 47.726854,
      "long": -122.337217,
      "timestamp": 1569095389000,
      "description": "Aid Response",
      "entries": 2,
      "neighborhood": "Haller Lake",
      "neighborhoodGroup": "Northwest",
      "unitCount": 2,
      "severity": 0,
      "units": "A25 E31",
      "address": "1819 N 135th St"
    }
  },
  {
    "id_str": "F190101257",
    "created_at": "9/21/2019 12:48:24 PM",
    "derived": {
      "lat": 47.666719,
      "long": -122.313047,
      "timestamp": 1569095304000,
      "description": "Aid Response",
      "entries": 1,
      "neighborhood": "University District",
      "neighborhoodGroup": "Northeast",
      "unitCount": 1,
      "severity": 0,
      "units": "E38",
      "address": "5241 University Way Ne"
    }
  },
  {
    "id_str": "F190101256",
    "created_at": "9/21/2019 12:45:51 PM",
    "derived": {
      "lat": 47.618412,
      "long": -122.355206,
      "timestamp": 1569095151000,
      "description": "Aid Response",
      "entries": 1,
      "neighborhood": "Belltown",
      "neighborhoodGroup": "Downtown",
      "unitCount": 1,
      "severity": 0,
      "units": "A4",
      "address": "94 Bay St"
    }
  },
  {
    "id_str": "F190101255",
    "created_at": "9/21/2019 12:41:38 PM",
    "derived": {
      "lat": 47.539433,
      "long": -122.320138,
      "timestamp": 1569094898000,
      "description": "Aid Response",
      "entries": 1,
      "neighborhood": "Georgetown",
      "neighborhoodGroup": "Greater Duwamish",
      "unitCount": 1,
      "severity": 0,
      "units": "E27",
      "address": "1020 S Myrtle St"
    }
  },
  {
    "id_str": "F190101254",
    "created_at": "9/21/2019 12:40:09 PM",
    "derived": {
      "lat": 47.50134,
      "long": -122.261873,
      "timestamp": 1569094809000,
      "description": "Automatic Fire Alarm Resd",
      "entries": 1,
      "neighborhood": "Rainier Beach",
      "neighborhoodGroup": "Southeast",
      "unitCount": 1,
      "severity": 0,
      "units": "E33",
      "address": "5654 S Avon St"
    }
  },
  {
    "id_str": "F190101253",
    "created_at": "9/21/2019 12:38:02 PM",
    "derived": {
      "lat": 47.66707,
      "long": -122.301946,
      "timestamp": 1569094682000,
      "description": "Aid Response",
      "entries": 2,
      "neighborhood": "Ravenna/Bryant",
      "neighborhoodGroup": "Northeast",
      "unitCount": 2,
      "severity": 0,
      "units": "A2 L9",
      "address": "5300 24th Av Ne"
    }
  },
  {
    "id_str": "F190101251",
    "created_at": "9/21/2019 12:36:14 PM",
    "derived": {
      "lat": 47.612626,
      "long": -122.341277,
      "timestamp": 1569094574000,
      "description": "Aid Response",
      "entries": 1,
      "neighborhood": "Cascade/Eastlake",
      "neighborhoodGroup": "Lake Union",
      "unitCount": 1,
      "severity": 0,
      "units": "L4",
      "address": "2030 3rd Av"
    }
  },
  {
    "id_str": "F190101250",
    "created_at": "9/21/2019 12:34:42 PM",
    "derived": {
      "lat": 47.602325,
      "long": -122.286151,
      "timestamp": 1569094482000,
      "description": "Investigate Out Of Service",
      "entries": 2,
      "neighborhood": "Madrona/Leschi",
      "neighborhoodGroup": "Central",
      "unitCount": 2,
      "severity": 0,
      "units": "L3 R1",
      "address": "Lake Washington Blvd / Erie Av"
    }
  },
  {
    "id_str": "F190101249",
    "created_at": "9/21/2019 12:32:57 PM",
    "derived": {
      "lat": 47.553512,
      "long": -122.362966,
      "timestamp": 1569094377000,
      "description": "Medic Response",
      "entries": 3,
      "neighborhood": "High Point",
      "neighborhoodGroup": "Delridge Neighborhoods",
      "unitCount": 3,
      "severity": 0,
      "units": "A14 M10 M32",
      "address": "5423 Delridge Way Sw"
    }
  },
  {
    "id_str": "F190101248",
    "created_at": "9/21/2019 12:31:06 PM",
    "derived": {
      "lat": 47.569629,
      "long": -122.362417,
      "timestamp": 1569094266000,
      "description": "Medic Response",
      "entries": 1,
      "neighborhood": "North Delridge",
      "neighborhoodGroup": "Delridge Neighborhoods",
      "unitCount": 2,
      "severity": 0,
      "units": "E37 M32",
      "address": "3845 Delridge Way Sw"
    }
  },
  {
    "id_str": "F190101246",
    "created_at": "9/21/2019 12:28:10 PM",
    "derived": {
      "lat": 47.677787,
      "long": -122.299552,
      "timestamp": 1569094090000,
      "description": "Medic Response, 6 per Rule",
      "entries": 1,
      "neighborhood": "Ravenna/Bryant",
      "neighborhoodGroup": "Northeast",
      "unitCount": 3,
      "severity": 0,
      "units": "E17 E38 M17",
      "address": "6822 26th Av Ne"
    }
  },
  {
    "id_str": "F190101247",
    "created_at": "9/21/2019 12:24:08 PM",
    "derived": {
      "lat": 47.617717,
      "long": -122.330057,
      "timestamp": 1569093848000,
      "description": "Aid Response",
      "entries": 1,
      "neighborhood": "Cascade/Eastlake",
      "neighborhoodGroup": "Lake Union",
      "unitCount": 1,
      "severity": 0,
      "units": "A4",
      "address": "1828 Yale Av"
    }
  },
  {
    "id_str": "F190101245",
    "created_at": "9/21/2019 12:22:12 PM",
    "derived": {
      "lat": 47.615059,
      "long": -122.333537,
      "timestamp": 1569093732000,
      "description": "Aid Response",
      "entries": 1,
      "neighborhood": "Cascade/Eastlake",
      "neighborhoodGroup": "Lake Union",
      "unitCount": 1,
      "severity": 0,
      "units": "A2",
      "address": "1830 9th Av"
    }
  },
  {
    "id_str": "F190101243",
    "created_at": "9/21/2019 12:17:16 PM",
    "derived": {
      "lat": 47.559277,
      "long": -122.376232,
      "timestamp": 1569093436000,
      "description": "Aid Response",
      "entries": 1,
      "neighborhood": "West Seattle Junction/Genesee Hill",
      "neighborhoodGroup": "Southwest",
      "unitCount": 1,
      "severity": 0,
      "units": "E37",
      "address": "35th Av Sw / Sw Edmunds St"
    }
  },
  {
    "id_str": "F190101240",
    "created_at": "9/21/2019 12:12:01 PM",
    "derived": {
      "lat": 47.682649,
      "long": -122.32964,
      "timestamp": 1569093121000,
      "description": "Aid Response",
      "entries": 2,
      "neighborhood": "Green Lake",
      "neighborhoodGroup": "Northwest",
      "unitCount": 2,
      "severity": 0,
      "units": "E16 E17",
      "address": "7456 East Green Lake Dr N"
    }
  },
  {
    "id_str": "F190101239",
    "created_at": "9/21/2019 12:11:11 PM",
    "derived": {
      "lat": 47.72838,
      "long": -122.292253,
      "timestamp": 1569093071000,
      "description": "Aid Response Yellow",
      "entries": 1,
      "neighborhood": "Cedar Park/Meadowbrook",
      "neighborhoodGroup": "North",
      "unitCount": 1,
      "severity": 0,
      "units": "E39",
      "address": "13716 Lake City Way Ne"
    }
  },
  {
    "id_str": "F190101238",
    "created_at": "9/21/2019 12:05:26 PM",
    "derived": {
      "lat": 47.604197,
      "long": -122.332714,
      "timestamp": 1569092726000,
      "description": "Aid Response",
      "entries": 1,
      "neighborhood": "Downtown Commercial Core",
      "neighborhoodGroup": "Downtown",
      "unitCount": 1,
      "severity": 0,
      "units": "A10",
      "address": "3rd Av / Columbia St"
    }
  },
  {
    "id_str": "F190101237",
    "created_at": "9/21/2019 12:03:07 PM",
    "derived": {
      "lat": 47.624659,
      "long": -122.355403,
      "timestamp": 1569092587000,
      "description": "Medic Response",
      "entries": 1,
      "neighborhood": "Queen Anne",
      "neighborhoodGroup": "Magnolia/Queen Anne",
      "unitCount": 2,
      "severity": 0,
      "units": "A4 M1",
      "address": "610 1st Av N"
    }
  },
  {
    "id_str": "F190101236",
    "created_at": "9/21/2019 12:00:39 PM",
    "derived": {
      "lat": 47.563314,
      "long": -122.376191,
      "timestamp": 1569092439000,
      "description": "Aid Response",
      "entries": 1,
      "neighborhood": "North Delridge",
      "neighborhoodGroup": "Delridge Neighborhoods",
      "unitCount": 1,
      "severity": 0,
      "units": "R1",
      "address": "4470 35th Av Sw"
    }
  },
  {
    "id_str": "F190101235",
    "created_at": "9/21/2019 12:00:32 PM",
    "derived": {
      "lat": 47.627192,
      "long": -122.356823,
      "timestamp": 1569092432000,
      "description": "Aid Response",
      "entries": 1,
      "neighborhood": "Queen Anne",
      "neighborhoodGroup": "Magnolia/Queen Anne",
      "unitCount": 1,
      "severity": 0,
      "units": "E2",
      "address": "11 W Aloha St"
    }
  },
  {
    "id_str": "F190101233",
    "created_at": "9/21/2019 11:54:43 AM",
    "derived": {
      "lat": 47.588027,
      "long": -122.386277,
      "timestamp": 1569092083000,
      "description": "Aid Response",
      "entries": 1,
      "neighborhood": "Alki/Admiral",
      "neighborhoodGroup": "Southwest",
      "unitCount": 1,
      "severity": 0,
      "units": "E29",
      "address": "1703 California Av Sw"
    }
  },
  {
    "id_str": "F190101232",
    "created_at": "9/21/2019 11:54:03 AM",
    "derived": {
      "lat": 47.51901,
      "long": -122.264902,
      "timestamp": 1569092043000,
      "description": "Aid Response",
      "entries": 1,
      "neighborhood": "Rainier Beach",
      "neighborhoodGroup": "Southeast",
      "unitCount": 1,
      "severity": 0,
      "units": "E33",
      "address": "5417 S Fletcher St"
    }
  },
  {
    "id_str": "F190101231",
    "created_at": "9/21/2019 11:42:15 AM",
    "derived": {
      "lat": 47.594623,
      "long": -122.297854,
      "timestamp": 1569091335000,
      "description": "Aid Response",
      "entries": 1,
      "neighborhood": "Madrona/Leschi",
      "neighborhoodGroup": "Central",
      "unitCount": 1,
      "severity": 0,
      "units": "L3",
      "address": "924 M L King Jr Way S"
    }
  },
  {
    "id_str": "F190101230",
    "created_at": "9/21/2019 11:31:06 AM",
    "derived": {
      "lat": 47.602985,
      "long": -122.328535,
      "timestamp": 1569090666000,
      "description": "Medic Response",
      "entries": 1,
      "neighborhood": "First Hill",
      "neighborhoodGroup": "East",
      "unitCount": 2,
      "severity": 0,
      "units": "A5 M10",
      "address": "500 5th Av"
    }
  },
  {
    "id_str": "F190101228",
    "created_at": "9/21/2019 11:30:38 AM",
    "derived": {
      "lat": 47.656948,
      "long": -122.348552,
      "timestamp": 1569090638000,
      "description": "Aid Response",
      "entries": 1,
      "neighborhood": "Fremont",
      "neighborhoodGroup": "Lake Union",
      "unitCount": 1,
      "severity": 0,
      "units": "L6",
      "address": "4127 Linden Av N"
    }
  },
  {
    "id_str": "F190101227",
    "created_at": "9/21/2019 11:16:41 AM",
    "derived": {
      "lat": 47.501866,
      "long": -122.247289,
      "timestamp": 1569089801000,
      "description": "Aid Response",
      "entries": 1,
      "neighborhood": "Rainier Beach",
      "neighborhoodGroup": "Southeast",
      "unitCount": 1,
      "severity": 0,
      "units": "E33",
      "address": "11417 69th Pl S"
    }
  },
  {
    "id_str": "F190101225",
    "created_at": "9/21/2019 11:12:49 AM",
    "derived": {
      "lat": 47.688709,
      "long": -122.336422,
      "timestamp": 1569089569000,
      "description": "Aid Response",
      "entries": 1,
      "neighborhood": "Green Lake",
      "neighborhoodGroup": "Northwest",
      "unitCount": 1,
      "severity": 0,
      "units": "E16",
      "address": "8200 Wallingford Av N"
    }
  },
  {
    "id_str": "F190101223",
    "created_at": "9/21/2019 11:09:10 AM",
    "derived": {
      "lat": 47.606982,
      "long": -122.326056,
      "timestamp": 1569089350000,
      "description": "Aid Response",
      "entries": 1,
      "neighborhood": "First Hill",
      "neighborhoodGroup": "East",
      "unitCount": 1,
      "severity": 0,
      "units": "A25",
      "address": "801 9th Av"
    }
  },
  {
    "id_str": "F190101222",
    "created_at": "9/21/2019 11:05:56 AM",
    "derived": {
      "lat": 47.716786,
      "long": -122.344889,
      "timestamp": 1569089156000,
      "description": "Aid Response",
      "entries": 1,
      "neighborhood": "Broadview/Bitter Lake",
      "neighborhoodGroup": "Northwest",
      "unitCount": 1,
      "severity": 0,
      "units": "E24",
      "address": "12035 Aurora Av N"
    }
  },
  {
    "id_str": "F190101221",
    "created_at": "9/21/2019 11:05:26 AM",
    "derived": {
      "lat": 47.615914,
      "long": -122.348823,
      "timestamp": 1569089126000,
      "description": "Aid Response",
      "entries": 1,
      "neighborhood": "Belltown",
      "neighborhoodGroup": "Downtown",
      "unitCount": 1,
      "severity": 0,
      "units": "A4",
      "address": "2nd Av / Vine St"
    }
  },
  {
    "id_str": "F190101220",
    "created_at": "9/21/2019 11:02:14 AM",
    "derived": {
      "lat": 47.530536,
      "long": -122.324493,
      "timestamp": 1569088934000,
      "description": "Aid Response",
      "entries": 1,
      "neighborhood": "South Park",
      "neighborhoodGroup": "Greater Duwamish",
      "unitCount": 1,
      "severity": 0,
      "units": "E27",
      "address": "726 S Elmgrove St"
    }
  },
  {
    "id_str": "F190101218",
    "created_at": "9/21/2019 10:57:49 AM",
    "derived": {
      "lat": 47.673829,
      "long": -122.384913,
      "timestamp": 1569088669000,
      "description": "Aid Response",
      "entries": 1,
      "neighborhood": "Whittier Heights",
      "neighborhoodGroup": "Ballard",
      "unitCount": 1,
      "severity": 0,
      "units": "E9",
      "address": "2213 Nw 62nd St"
    }
  },
  {
    "id_str": "F190101217",
    "created_at": "9/21/2019 10:53:54 AM",
    "derived": {
      "lat": 47.712167,
      "long": -122.312433,
      "timestamp": 1569088434000,
      "description": "Medic Response",
      "entries": 2,
      "neighborhood": "Olympic Hills/Victory Heights",
      "neighborhoodGroup": "North",
      "unitCount": 2,
      "severity": 0,
      "units": "E39 M17",
      "address": "11501 15th Av Ne"
    }
  },
  {
    "id_str": "F190101216",
    "created_at": "9/21/2019 10:53:02 AM",
    "derived": {
      "lat": 47.633499,
      "long": -122.376195,
      "timestamp": 1569088382000,
      "description": "Aid Response",
      "entries": 1,
      "neighborhood": "Interbay",
      "neighborhoodGroup": "Magnolia/Queen Anne",
      "unitCount": 1,
      "severity": 0,
      "units": "E20",
      "address": "W Garfield St / 15th Av W"
    }
  },
  {
    "id_str": "F190101215",
    "created_at": "9/21/2019 10:50:55 AM",
    "derived": {
      "lat": 47.61109,
      "long": -122.323671,
      "timestamp": 1569088255000,
      "description": "Aid Response",
      "entries": 1,
      "neighborhood": "Capitol Hill",
      "neighborhoodGroup": "East",
      "unitCount": 1,
      "severity": 0,
      "units": "A25",
      "address": "1116 Summit Av"
    }
  },
  {
    "id_str": "F190101213",
    "created_at": "9/21/2019 10:39:30 AM",
    "derived": {
      "lat": 47.624552,
      "long": -122.338435,
      "timestamp": 1569087570000,
      "description": "Aid Response",
      "entries": 1,
      "neighborhood": "Cascade/Eastlake",
      "neighborhoodGroup": "Lake Union",
      "unitCount": 1,
      "severity": 0,
      "units": "A2",
      "address": "Westlake Av N / Mercer St"
    }
  },
  {
    "id_str": "F190101212",
    "created_at": "9/21/2019 10:31:05 AM",
    "derived": {
      "lat": 47.660349,
      "long": -122.408933,
      "timestamp": 1569087065000,
      "description": "Illegal Burn",
      "entries": 1,
      "neighborhood": "Magnolia",
      "neighborhoodGroup": "Magnolia/Queen Anne",
      "unitCount": 1,
      "severity": 0,
      "units": "E41",
      "address": "3801 Discovery Park Blvd"
    }
  },
  {
    "id_str": "F190101209",
    "created_at": "9/21/2019 10:22:06 AM",
    "derived": {
      "lat": 47.618002,
      "long": -122.329182,
      "timestamp": 1569086526000,
      "description": "Medic Response",
      "entries": 2,
      "neighborhood": "Cascade/Eastlake",
      "neighborhoodGroup": "Lake Union",
      "unitCount": 2,
      "severity": 0,
      "units": "A2 M1",
      "address": "1811 Eastlake Av"
    }
  },
  {
    "id_str": "F190101208",
    "created_at": "9/21/2019 10:19:52 AM",
    "derived": {
      "lat": 47.607834,
      "long": -122.319302,
      "timestamp": 1569086392000,
      "description": "MVI - Motor Vehicle Incident",
      "entries": 1,
      "neighborhood": "First Hill",
      "neighborhoodGroup": "East",
      "unitCount": 1,
      "severity": 0,
      "units": "A25",
      "address": "1001 E James Way"
    }
  },
  {
    "id_str": "F190101207",
    "created_at": "9/21/2019 10:11:32 AM",
    "derived": {
      "lat": 47.555243,
      "long": -122.385486,
      "timestamp": 1569085892000,
      "description": "Aid Response",
      "entries": 1,
      "neighborhood": "West Seattle Junction/Genesee Hill",
      "neighborhoodGroup": "Southwest",
      "unitCount": 1,
      "severity": 0,
      "units": "E29",
      "address": "5248 42nd Av Sw"
    }
  },
  {
    "id_str": "F190101206",
    "created_at": "9/21/2019 10:10:33 AM",
    "derived": {
      "lat": 47.622,
      "long": -122.334274,
      "timestamp": 1569085833000,
      "description": "Aid Response",
      "entries": 1,
      "neighborhood": "Cascade/Eastlake",
      "neighborhoodGroup": "Lake Union",
      "unitCount": 2,
      "severity": 0,
      "units": "A4 M1",
      "address": "FAIRVIEW AV N / HARRISON ST"
    }
  },
  {
    "id_str": "F190101205",
    "created_at": "9/21/2019 10:08:12 AM",
    "derived": {
      "lat": 47.600875,
      "long": -122.328963,
      "timestamp": 1569085692000,
      "description": "Aid Response",
      "entries": 2,
      "neighborhood": "Pioneer Square/International District",
      "neighborhoodGroup": "Downtown",
      "unitCount": 2,
      "severity": 0,
      "units": "A4 A5",
      "address": "400 S Washington St"
    }
  },
  {
    "id_str": "F190101202",
    "created_at": "9/21/2019 9:57:56 AM",
    "derived": {
      "lat": 47.588225,
      "long": -122.321391,
      "timestamp": 1569085076000,
      "description": "Medic Response",
      "entries": 1,
      "neighborhood": "Duwamish/SODO",
      "neighborhoodGroup": "Greater Duwamish",
      "unitCount": 2,
      "severity": 0,
      "units": "A5 M1",
      "address": "1700 Airport Way S"
    }
  },
  {
    "id_str": "F190101200",
    "created_at": "9/21/2019 9:51:03 AM",
    "derived": {
      "lat": 47.618497,
      "long": -122.327854,
      "timestamp": 1569084663000,
      "description": "Automatic Medical Alarm",
      "entries": 1,
      "neighborhood": "Capitol Hill",
      "neighborhoodGroup": "East",
      "unitCount": 1,
      "severity": 0,
      "units": "A25",
      "address": "100 Melrose Av E"
    }
  },
  {
    "id_str": "F190101199",
    "created_at": "9/21/2019 9:46:59 AM",
    "derived": {
      "lat": 47.63339,
      "long": -122.285435,
      "timestamp": 1569084419000,
      "description": "Medic Response",
      "entries": 1,
      "neighborhood": "Madison Park",
      "neighborhoodGroup": "East",
      "unitCount": 2,
      "severity": 0,
      "units": "E34 M10",
      "address": "37TH AV E / E GARFIELD ST"
    }
  },
  {
    "id_str": "F190101197",
    "created_at": "9/21/2019 9:46:41 AM",
    "derived": {
      "lat": 47.669464,
      "long": -122.393408,
      "timestamp": 1569084401000,
      "description": "Aid Response",
      "entries": 1,
      "neighborhood": "Sunset Hill/Loyal Heights",
      "neighborhoodGroup": "Ballard",
      "unitCount": 1,
      "severity": 0,
      "units": "E9",
      "address": "2839 Nw 56th St"
    }
  },
  {
    "id_str": "F190101193",
    "created_at": "9/21/2019 9:33:37 AM",
    "derived": {
      "lat": 47.617855,
      "long": -122.326761,
      "timestamp": 1569083617000,
      "description": "Aid Response",
      "entries": 1,
      "neighborhood": "Capitol Hill",
      "neighborhoodGroup": "East",
      "unitCount": 1,
      "severity": 0,
      "units": "A2",
      "address": "1816 Bellevue Av"
    }
  },
  {
    "id_str": "F190101189",
    "created_at": "9/21/2019 9:16:41 AM",
    "derived": {
      "lat": 47.714432,
      "long": -122.33143,
      "timestamp": 1569082601000,
      "description": "Medic Response",
      "entries": 1,
      "neighborhood": "Haller Lake",
      "neighborhoodGroup": "Northwest",
      "unitCount": 2,
      "severity": 0,
      "units": "A31 M31",
      "address": "11757 Corliss Av N"
    }
  },
  {
    "id_str": "F190101187",
    "created_at": "9/21/2019 9:11:15 AM",
    "derived": {
      "lat": 47.654149,
      "long": -122.3534,
      "timestamp": 1569082275000,
      "description": "MVI - Motor Vehicle Incident",
      "entries": 1,
      "neighborhood": "Fremont",
      "neighborhoodGroup": "Lake Union",
      "unitCount": 1,
      "severity": 0,
      "units": "E9",
      "address": "N 39th St / Francis Av N"
    }
  },
  {
    "id_str": "F190101185",
    "created_at": "9/21/2019 8:48:06 AM",
    "derived": {
      "lat": 47.689113,
      "long": -122.344514,
      "timestamp": 1569080886000,
      "description": "Medic Response",
      "entries": 2,
      "neighborhood": "Green Lake",
      "neighborhoodGroup": "Northwest",
      "unitCount": 2,
      "severity": 0,
      "units": "E21 M31",
      "address": "8301 Aurora Av N"
    }
  },
  {
    "id_str": "F190101184",
    "created_at": "9/21/2019 8:47:05 AM",
    "derived": {
      "lat": 47.609634,
      "long": -122.342172,
      "timestamp": 1569080825000,
      "description": "Aid Response",
      "entries": 1,
      "neighborhood": "Belltown",
      "neighborhoodGroup": "Downtown",
      "unitCount": 1,
      "severity": 0,
      "units": "E5",
      "address": "Stewart St / Pike Pl"
    }
  },
  {
    "id_str": "F190101182",
    "created_at": "9/21/2019 8:40:47 AM",
    "derived": {
      "lat": 47.58006,
      "long": -122.408009,
      "timestamp": 1569080447000,
      "description": "Aid Response",
      "entries": 1,
      "neighborhood": "Alki/Admiral",
      "neighborhoodGroup": "Southwest",
      "unitCount": 1,
      "severity": 0,
      "units": "E36",
      "address": "Alki Av Sw / 59th Av Sw"
    }
  },
  {
    "id_str": "F190101181",
    "created_at": "9/21/2019 8:40:17 AM",
    "derived": {
      "lat": 47.58056,
      "long": -122.386571,
      "timestamp": 1569080417000,
      "description": "Aid Response",
      "entries": 1,
      "neighborhood": "West Seattle Junction/Genesee Hill",
      "neighborhoodGroup": "Southwest",
      "unitCount": 1,
      "severity": 0,
      "units": "E29",
      "address": "2633 California Av Sw"
    }
  },
  {
    "id_str": "F190101180",
    "created_at": "9/21/2019 8:38:07 AM",
    "derived": {
      "lat": 47.617528,
      "long": -122.343624,
      "timestamp": 1569080287000,
      "description": "Medic Response",
      "entries": 2,
      "neighborhood": "Cascade/Eastlake",
      "neighborhoodGroup": "Lake Union",
      "unitCount": 2,
      "severity": 0,
      "units": "E2 M17",
      "address": "6th Av / Battery St"
    }
  },
  {
    "id_str": "F190101178",
    "created_at": "9/21/2019 8:32:06 AM",
    "derived": {
      "lat": 47.561926,
      "long": -122.376204,
      "timestamp": 1569079926000,
      "description": "Aid Response",
      "entries": 1,
      "neighborhood": "North Delridge",
      "neighborhoodGroup": "Delridge Neighborhoods",
      "unitCount": 1,
      "severity": 0,
      "units": "E32",
      "address": "4611 35th Av Sw"
    }
  },
  {
    "id_str": "F190101177",
    "created_at": "9/21/2019 8:30:23 AM",
    "derived": {
      "lat": 47.650761,
      "long": -122.404678,
      "timestamp": 1569079823000,
      "description": "Automatic Fire Alarm Resd",
      "entries": 1,
      "neighborhood": "Magnolia",
      "neighborhoodGroup": "Magnolia/Queen Anne",
      "unitCount": 1,
      "severity": 0,
      "units": "E41",
      "address": "3435 37th Av W"
    }
  },
  {
    "id_str": "F190101176",
    "created_at": "9/21/2019 8:28:38 AM",
    "derived": {
      "lat": 47.611672,
      "long": -122.336484,
      "timestamp": 1569079718000,
      "description": "Medic Response",
      "entries": 1,
      "neighborhood": "Downtown Commercial Core",
      "neighborhoodGroup": "Downtown",
      "unitCount": 2,
      "severity": 0,
      "units": "A2 M1",
      "address": "5th Av / Pine St"
    }
  },
  {
    "id_str": "F190101174",
    "created_at": "9/21/2019 8:13:24 AM",
    "derived": {
      "lat": 47.582614,
      "long": -122.310786,
      "timestamp": 1569078804000,
      "description": "Medic Response",
      "entries": 2,
      "neighborhood": "North Beacon Hill/Jefferson Park",
      "neighborhoodGroup": "Greater Duwamish",
      "unitCount": 2,
      "severity": 0,
      "units": "E13 M10",
      "address": "2336 17th Av S"
    }
  },
  {
    "id_str": "F190101173",
    "created_at": "9/21/2019 8:13:01 AM",
    "derived": {
      "lat": 47.60916,
      "long": -122.33264,
      "timestamp": 1569078781000,
      "description": "Aid Response",
      "entries": 1,
      "neighborhood": "First Hill",
      "neighborhoodGroup": "East",
      "unitCount": 1,
      "severity": 0,
      "units": "A5",
      "address": "1301 6th Av"
    }
  },
  {
    "id_str": "F190101171",
    "created_at": "9/21/2019 8:03:18 AM",
    "derived": {
      "lat": 47.598354,
      "long": -122.326364,
      "timestamp": 1569078198000,
      "description": "Aid Response",
      "entries": 1,
      "neighborhood": "Pioneer Square/International District",
      "neighborhoodGroup": "Downtown",
      "unitCount": 1,
      "severity": 0,
      "units": "A10",
      "address": "6th Av S / S King St"
    }
  },
  {
    "id_str": "F190101170",
    "created_at": "9/21/2019 7:53:21 AM",
    "derived": {
      "lat": 47.551912,
      "long": -122.283458,
      "timestamp": 1569077601000,
      "description": "Medic Response, 7 per Rule",
      "entries": 1,
      "neighborhood": "Columbia City",
      "neighborhoodGroup": "Southeast",
      "unitCount": 3,
      "severity": 0,
      "units": "E28 L12 M28",
      "address": "5607 39th Av S"
    }
  },
  {
    "id_str": "F190101169",
    "created_at": "9/21/2019 7:42:04 AM",
    "derived": {
      "lat": 47.671744,
      "long": -122.352883,
      "timestamp": 1569076924000,
      "description": "1RED 1 Unit",
      "entries": 1,
      "neighborhood": "Greenwood/Phinney Ridge",
      "neighborhoodGroup": "Northwest",
      "unitCount": 1,
      "severity": 0,
      "units": "E21",
      "address": "N 59th St / Dayton Av N"
    }
  },
  {
    "id_str": "F190101168",
    "created_at": "9/21/2019 7:40:01 AM",
    "derived": {
      "lat": 47.619989,
      "long": -122.347609,
      "timestamp": 1569076801000,
      "description": "Aid Response",
      "entries": 1,
      "neighborhood": "Cascade/Eastlake",
      "neighborhoodGroup": "Lake Union",
      "unitCount": 1,
      "severity": 0,
      "units": "A2",
      "address": "222 5th Av N"
    }
  },
  {
    "id_str": "F190101166",
    "created_at": "9/21/2019 7:08:11 AM",
    "derived": {
      "lat": 47.586104,
      "long": -122.335122,
      "timestamp": 1569074891000,
      "description": "Aid Response",
      "entries": 1,
      "neighborhood": "Duwamish/SODO",
      "neighborhoodGroup": "Greater Duwamish",
      "unitCount": 1,
      "severity": 0,
      "units": "A14",
      "address": "S Holgate St / Utah Av S"
    }
  },
  {
    "id_str": "F190101165",
    "created_at": "9/21/2019 7:05:34 AM",
    "derived": {
      "lat": 47.676892,
      "long": -122.349315,
      "timestamp": 1569074734000,
      "description": "Aid Response Yellow",
      "entries": 1,
      "neighborhood": "Greenwood/Phinney Ridge",
      "neighborhoodGroup": "Northwest",
      "unitCount": 1,
      "severity": 0,
      "units": "E21",
      "address": "744 N 66th St"
    }
  },
  {
    "id_str": "F190101164",
    "created_at": "9/21/2019 7:02:28 AM",
    "derived": {
      "lat": 47.521022,
      "long": -122.365633,
      "timestamp": 1569074548000,
      "description": "Medic Response",
      "entries": 1,
      "neighborhood": "Roxhill/Westwood",
      "neighborhoodGroup": "Delridge Neighborhoods",
      "unitCount": 2,
      "severity": 0,
      "units": "E11 M1",
      "address": "2580 Sw Barton St"
    }
  },
  {
    "id_str": "F190101161",
    "created_at": "9/21/2019 6:56:46 AM",
    "derived": {
      "lat": 47.602172,
      "long": -122.330863,
      "timestamp": 1569074206000,
      "description": "Aid Response",
      "entries": 1,
      "neighborhood": "Downtown Commercial Core",
      "neighborhoodGroup": "Downtown",
      "unitCount": 1,
      "severity": 0,
      "units": "A5",
      "address": "517 3rd Av"
    }
  },
  {
    "id_str": "F190101157",
    "created_at": "9/21/2019 6:46:52 AM",
    "derived": {
      "lat": 47.557885,
      "long": -122.310107,
      "timestamp": 1569073612000,
      "description": "Aid Response",
      "entries": 1,
      "neighborhood": "Beacon Hill",
      "neighborhoodGroup": "Greater Duwamish",
      "unitCount": 1,
      "severity": 0,
      "units": "E13",
      "address": "1731 S Shelton St"
    }
  },
  {
    "id_str": "F190101158",
    "created_at": "9/21/2019 6:46:43 AM",
    "derived": {
      "lat": 47.683048,
      "long": -122.295852,
      "timestamp": 1569073603000,
      "description": "MVI - Motor Vehicle Incident",
      "entries": 1,
      "neighborhood": "Wedgwood/View Ridge",
      "neighborhoodGroup": "Northeast",
      "unitCount": 1,
      "severity": 0,
      "units": "E40",
      "address": "3003 Ne 75th St"
    }
  },
  {
    "id_str": "F190101154",
    "created_at": "9/21/2019 6:34:33 AM",
    "derived": {
      "lat": 47.643234,
      "long": -122.323195,
      "timestamp": 1569072873000,
      "description": "MVI - Motor Vehicle Incident",
      "entries": 2,
      "neighborhood": "Montlake/Portage Bay",
      "neighborhoodGroup": "Northeast",
      "unitCount": 3,
      "severity": 0,
      "units": "A25 E17 E31",
      "address": "Sb I5 At Roanoke"
    }
  },
  {
    "id_str": "F190101152",
    "created_at": "9/21/2019 6:14:55 AM",
    "derived": {
      "lat": 47.582722,
      "long": -122.392816,
      "timestamp": 1569071695000,
      "description": "Medic Response",
      "entries": 1,
      "neighborhood": "Alki/Admiral",
      "neighborhoodGroup": "Southwest",
      "unitCount": 2,
      "severity": 0,
      "units": "E29 M32",
      "address": "2356 48th Av Sw"
    }
  },
  {
    "id_str": "F190101150",
    "created_at": "9/21/2019 6:11:07 AM",
    "derived": {
      "lat": 47.653242,
      "long": -122.388087,
      "timestamp": 1569071467000,
      "description": "Aid Response",
      "entries": 1,
      "neighborhood": "Interbay",
      "neighborhoodGroup": "Magnolia/Queen Anne",
      "unitCount": 1,
      "severity": 0,
      "units": "E20",
      "address": "3661 24th Pl W"
    }
  },
  {
    "id_str": "F190101149",
    "created_at": "9/21/2019 6:10:57 AM",
    "derived": {
      "lat": 47.617381,
      "long": -122.305854,
      "timestamp": 1569071457000,
      "description": "Aid Response",
      "entries": 1,
      "neighborhood": "Central Area/Squire Park",
      "neighborhoodGroup": "Central",
      "unitCount": 1,
      "severity": 0,
      "units": "A25",
      "address": "2014 E Madison St"
    }
  },
  {
    "id_str": "F190101145",
    "created_at": "9/21/2019 5:50:32 AM",
    "derived": {
      "lat": 47.580054,
      "long": -122.408009,
      "timestamp": 1569070232000,
      "description": "Aid Response",
      "entries": 1,
      "neighborhood": "Alki/Admiral",
      "neighborhoodGroup": "Southwest",
      "unitCount": 1,
      "severity": 0,
      "units": "E29",
      "address": "2601 59th Av Sw"
    }
  },
  {
    "id_str": "F190101144",
    "created_at": "9/21/2019 5:37:42 AM",
    "derived": {
      "lat": 47.599201,
      "long": -122.331578,
      "timestamp": 1569069462000,
      "description": "Aid Response",
      "entries": 1,
      "neighborhood": "Duwamish/SODO",
      "neighborhoodGroup": "Greater Duwamish",
      "unitCount": 1,
      "severity": 0,
      "units": "A10",
      "address": "2nd Av S / S Jackson St"
    }
  },
  {
    "id_str": "F190101143",
    "created_at": "9/21/2019 5:36:30 AM",
    "derived": {
      "lat": 47.625446,
      "long": -122.353901,
      "timestamp": 1569069390000,
      "description": "Aid Response",
      "entries": 1,
      "neighborhood": "Queen Anne",
      "neighborhoodGroup": "Magnolia/Queen Anne",
      "unitCount": 1,
      "severity": 0,
      "units": "E8",
      "address": "157 Roy St"
    }
  },
  {
    "id_str": "F190101138",
    "created_at": "9/21/2019 5:05:43 AM",
    "derived": {
      "lat": 47.675901,
      "long": -122.393535,
      "timestamp": 1569067543000,
      "description": "Aid Response",
      "entries": 1,
      "neighborhood": "Sunset Hill/Loyal Heights",
      "neighborhoodGroup": "Ballard",
      "unitCount": 1,
      "severity": 0,
      "units": "E18",
      "address": "2843 Nw 65th St"
    }
  },
  {
    "id_str": "F190101137",
    "created_at": "9/21/2019 5:00:30 AM",
    "derived": {
      "lat": 47.698721,
      "long": -122.34681,
      "timestamp": 1569067230000,
      "description": "Aid Response",
      "entries": 1,
      "neighborhood": "Licton Springs",
      "neighborhoodGroup": "Northwest",
      "unitCount": 1,
      "severity": 0,
      "units": "E21",
      "address": "937 N 96th St"
    }
  },
  {
    "id_str": "F190101136",
    "created_at": "9/21/2019 4:53:11 AM",
    "derived": {
      "lat": 47.659307,
      "long": -122.400889,
      "timestamp": 1569066791000,
      "description": "Medic Response",
      "entries": 1,
      "neighborhood": "Magnolia",
      "neighborhoodGroup": "Magnolia/Queen Anne",
      "unitCount": 2,
      "severity": 0,
      "units": "E41 M18",
      "address": "3401 W Government Way"
    }
  },
  {
    "id_str": "F190101134",
    "created_at": "9/21/2019 4:26:06 AM",
    "derived": {
      "lat": 47.704925,
      "long": -122.318492,
      "timestamp": 1569065166000,
      "description": "Aid Response",
      "entries": 1,
      "neighborhood": "Northgate/Maple Leaf",
      "neighborhoodGroup": "North",
      "unitCount": 1,
      "severity": 0,
      "units": "E39",
      "address": "9th Av Ne / Ne 105th St"
    }
  },
  {
    "id_str": "F190101132",
    "created_at": "9/21/2019 4:14:18 AM",
    "derived": {
      "lat": 47.577728,
      "long": -122.334202,
      "timestamp": 1569064458000,
      "description": "Scenes Of Violence 7",
      "entries": 1,
      "neighborhood": "Duwamish/SODO",
      "neighborhoodGroup": "Greater Duwamish",
      "unitCount": 5,
      "severity": 1,
      "units": "A14 B5 M1 M44 R1",
      "address": "1ST AV S / S FOREST ST"
    }
  },
  {
    "id_str": "F190101130",
    "created_at": "9/21/2019 4:03:23 AM",
    "derived": {
      "lat": 47.526114,
      "long": -122.279265,
      "timestamp": 1569063803000,
      "description": "Aid Response",
      "entries": 1,
      "neighborhood": "South Beacon Hill/NewHolly",
      "neighborhoodGroup": "Greater Duwamish",
      "unitCount": 1,
      "severity": 0,
      "units": "E33",
      "address": "M L King Jr Way S / S Cloverdale St"
    }
  },
  {
    "id_str": "F190101129",
    "created_at": "9/21/2019 3:57:36 AM",
    "derived": {
      "lat": 47.588571,
      "long": -122.30595,
      "timestamp": 1569063456000,
      "description": "Aid Response",
      "entries": 1,
      "neighborhood": "North Beacon Hill/Jefferson Park",
      "neighborhoodGroup": "Greater Duwamish",
      "unitCount": 3,
      "severity": 0,
      "units": "A5 E13 E6",
      "address": "Eb I90 Fr Rainier Nb"
    }
  },
  {
    "id_str": "F190101128",
    "created_at": "9/21/2019 3:56:58 AM",
    "derived": {
      "lat": 47.67834,
      "long": -122.32895,
      "timestamp": 1569063418000,
      "description": "Aid Response",
      "entries": 1,
      "neighborhood": "Green Lake",
      "neighborhoodGroup": "Northwest",
      "unitCount": 1,
      "severity": 0,
      "units": "E16",
      "address": "6720 East Green Lake Way N"
    }
  },
  {
    "id_str": "F190101127",
    "created_at": "9/21/2019 3:46:27 AM",
    "derived": {
      "lat": 47.575931,
      "long": -122.293981,
      "timestamp": 1569062787000,
      "description": "Hang-Up, Aid",
      "entries": 1,
      "neighborhood": "Mt. Baker/North Rainier",
      "neighborhoodGroup": "Southeast",
      "unitCount": 1,
      "severity": 0,
      "units": "E30",
      "address": "3013 S Mount Baker Blvd"
    }
  },
  {
    "id_str": "F190101125",
    "created_at": "9/21/2019 3:38:49 AM",
    "derived": {
      "lat": 47.699675,
      "long": -122.362112,
      "timestamp": 1569062329000,
      "description": "Aid Response",
      "entries": 1,
      "neighborhood": "Greenwood/Phinney Ridge",
      "neighborhoodGroup": "Northwest",
      "unitCount": 1,
      "severity": 0,
      "units": "E35",
      "address": "410 Nw 97th St"
    }
  },
  {
    "id_str": "F190101124",
    "created_at": "9/21/2019 3:34:23 AM",
    "derived": {
      "lat": 47.564554,
      "long": -122.386772,
      "timestamp": 1569062063000,
      "description": "Aid Response",
      "entries": 1,
      "neighborhood": "West Seattle Junction/Genesee Hill",
      "neighborhoodGroup": "Southwest",
      "unitCount": 1,
      "severity": 0,
      "units": "E32",
      "address": "4409 CALIFORNIA AV SW"
    }
  },
  {
    "id_str": "F190101123",
    "created_at": "9/21/2019 3:32:02 AM",
    "derived": {
      "lat": 47.679596,
      "long": -122.378916,
      "timestamp": 1569061922000,
      "description": "Aid Response",
      "entries": 1,
      "neighborhood": "Whittier Heights",
      "neighborhoodGroup": "Ballard",
      "unitCount": 1,
      "severity": 0,
      "units": "E18",
      "address": "7013 17th Av Nw"
    }
  },
  {
    "id_str": "F190101122",
    "created_at": "9/21/2019 3:28:10 AM",
    "derived": {
      "lat": 47.69588,
      "long": -122.314852,
      "timestamp": 1569061690000,
      "description": "Aid Response",
      "entries": 1,
      "neighborhood": "Northgate/Maple Leaf",
      "neighborhoodGroup": "North",
      "unitCount": 1,
      "severity": 0,
      "units": "E16",
      "address": "9215 12th Av Ne"
    }
  },
  {
    "id_str": "F190101121",
    "created_at": "9/21/2019 3:23:41 AM",
    "derived": {
      "lat": 47.613167,
      "long": -122.342193,
      "timestamp": 1569061421000,
      "description": "Aid Response",
      "entries": 1,
      "neighborhood": "Cascade/Eastlake",
      "neighborhoodGroup": "Lake Union",
      "unitCount": 1,
      "severity": 0,
      "units": "A2",
      "address": "3rd Av / Lenora St"
    }
  },
  {
    "id_str": "F190101120",
    "created_at": "9/21/2019 3:15:54 AM",
    "derived": {
      "lat": 47.627166,
      "long": -122.349563,
      "timestamp": 1569060954000,
      "description": "Medic Response",
      "entries": 1,
      "neighborhood": "Queen Anne",
      "neighborhoodGroup": "Magnolia/Queen Anne",
      "unitCount": 2,
      "severity": 0,
      "units": "E8 M10",
      "address": "372 Aloha St"
    }
  },
  {
    "id_str": "F190101118",
    "created_at": "9/21/2019 3:08:31 AM",
    "derived": {
      "lat": 47.618497,
      "long": -122.327854,
      "timestamp": 1569060511000,
      "description": "Auto Fire Alarm",
      "entries": 1,
      "neighborhood": "Capitol Hill",
      "neighborhoodGroup": "East",
      "unitCount": 2,
      "severity": 0,
      "units": "E25 L10",
      "address": "100 Melrose Av E"
    }
  },
  {
    "id_str": "F190101117",
    "created_at": "9/21/2019 2:48:35 AM",
    "derived": {
      "lat": 47.691332,
      "long": -122.302092,
      "timestamp": 1569059315000,
      "description": "Aid Response",
      "entries": 1,
      "neighborhood": "Wedgwood/View Ridge",
      "neighborhoodGroup": "Northeast",
      "unitCount": 1,
      "severity": 0,
      "units": "E40",
      "address": "8626 Ravenna Av Ne"
    }
  },
  {
    "id_str": "F190101115",
    "created_at": "9/21/2019 2:38:21 AM",
    "derived": {
      "lat": 47.66722,
      "long": -122.336039,
      "timestamp": 1569058701000,
      "description": "Aid Response Yellow",
      "entries": 1,
      "neighborhood": "Green Lake",
      "neighborhoodGroup": "Northwest",
      "unitCount": 1,
      "severity": 0,
      "units": "E31",
      "address": "1839 N 53rd St"
    }
  },
  {
    "id_str": "F190101113",
    "created_at": "9/21/2019 2:15:57 AM",
    "derived": {
      "lat": 47.601687,
      "long": -122.31398,
      "timestamp": 1569057357000,
      "description": "Aid Response",
      "entries": 1,
      "neighborhood": "First Hill",
      "neighborhoodGroup": "East",
      "unitCount": 1,
      "severity": 0,
      "units": "A10",
      "address": "1414 E Yesler Way"
    }
  },
  {
    "id_str": "F190101110",
    "created_at": "9/21/2019 2:12:06 AM",
    "derived": {
      "lat": 47.708593,
      "long": -122.323047,
      "timestamp": 1569057126000,
      "description": "Auto Fire Alarm",
      "entries": 1,
      "neighborhood": "Northgate/Maple Leaf",
      "neighborhoodGroup": "North",
      "unitCount": 2,
      "severity": 0,
      "units": "E39 L5",
      "address": "525 Ne Northgate Way"
    }
  },
  {
    "id_str": "F190101111",
    "created_at": "9/21/2019 2:12:05 AM",
    "derived": {
      "lat": 47.601407,
      "long": -122.302235,
      "timestamp": 1569057125000,
      "description": "Aid Response",
      "entries": 1,
      "neighborhood": "Madrona/Leschi",
      "neighborhoodGroup": "Central",
      "unitCount": 1,
      "severity": 0,
      "units": "E6",
      "address": "140 23rd Av S"
    }
  },
  {
    "id_str": "F190101108",
    "created_at": "9/21/2019 2:07:18 AM",
    "derived": {
      "lat": 47.601407,
      "long": -122.302235,
      "timestamp": 1569056838000,
      "description": "Aid Response",
      "entries": 1,
      "neighborhood": "Madrona/Leschi",
      "neighborhoodGroup": "Central",
      "unitCount": 1,
      "severity": 0,
      "units": "E6",
      "address": "140 23rd Av S"
    }
  },
  {
    "id_str": "F190101107",
    "created_at": "9/21/2019 2:06:17 AM",
    "derived": {
      "lat": 47.614798,
      "long": -122.348918,
      "timestamp": 1569056777000,
      "description": "Aid Response",
      "entries": 2,
      "neighborhood": "Belltown",
      "neighborhoodGroup": "Downtown",
      "unitCount": 2,
      "severity": 0,
      "units": "A2 E2",
      "address": "2519 1st Av"
    }
  },
  {
    "id_str": "F190101106",
    "created_at": "9/21/2019 2:06:11 AM",
    "derived": {
      "lat": 47.603518,
      "long": -122.336697,
      "timestamp": 1569056771000,
      "description": "Aid Response",
      "entries": 1,
      "neighborhood": "Downtown Commercial Core",
      "neighborhoodGroup": "Downtown",
      "unitCount": 1,
      "severity": 0,
      "units": "E5",
      "address": "Marion St / Western Av"
    }
  },
  {
    "id_str": "F190101105",
    "created_at": "9/21/2019 1:54:54 AM",
    "derived": {
      "lat": 47.701329,
      "long": -122.323684,
      "timestamp": 1569056094000,
      "description": "Aid Response",
      "entries": 1,
      "neighborhood": "Northgate/Maple Leaf",
      "neighborhoodGroup": "North",
      "unitCount": 1,
      "severity": 0,
      "units": "E16",
      "address": "450 Ne 100th St"
    }
  },
  {
    "id_str": "F190101104",
    "created_at": "9/21/2019 1:49:04 AM",
    "derived": {
      "lat": 47.514666,
      "long": -122.376968,
      "timestamp": 1569055744000,
      "description": "Aid Response",
      "entries": 1,
      "neighborhood": "Arbor Heights",
      "neighborhoodGroup": "Southwest",
      "unitCount": 1,
      "severity": 0,
      "units": "E37",
      "address": "3535 Sw 99th St"
    }
  },
  {
    "id_str": "F190101103",
    "created_at": "9/21/2019 1:46:34 AM",
    "derived": {
      "lat": 47.599184,
      "long": -122.319639,
      "timestamp": 1569055594000,
      "description": "Aid Response",
      "entries": 1,
      "neighborhood": "Pioneer Square/International District",
      "neighborhoodGroup": "Downtown",
      "unitCount": 1,
      "severity": 0,
      "units": "A5",
      "address": "S Jackson St / 10th Av S"
    }
  },
  {
    "id_str": "F190101102",
    "created_at": "9/21/2019 1:43:53 AM",
    "derived": {
      "lat": 47.639797,
      "long": -122.325891,
      "timestamp": 1569055433000,
      "description": "Medic Response",
      "entries": 1,
      "neighborhood": "Montlake/Portage Bay",
      "neighborhoodGroup": "Northeast",
      "unitCount": 2,
      "severity": 0,
      "units": "E22 M17",
      "address": "2307 Eastlake Av E"
    }
  },
  {
    "id_str": "F190101101",
    "created_at": "9/21/2019 1:38:12 AM",
    "derived": {
      "lat": 47.615461,
      "long": -122.320802,
      "timestamp": 1569055092000,
      "description": "Aid Response",
      "entries": 1,
      "neighborhood": "Capitol Hill",
      "neighborhoodGroup": "East",
      "unitCount": 1,
      "severity": 0,
      "units": "A25",
      "address": "1620 Broadway"
    }
  },
  {
    "id_str": "F190101099",
    "created_at": "9/21/2019 1:29:24 AM",
    "derived": {
      "lat": 47.69425,
      "long": -122.375914,
      "timestamp": 1569054564000,
      "description": "Aid Response",
      "entries": 1,
      "neighborhood": "North Beach/Blue Ridge",
      "neighborhoodGroup": "Ballard",
      "unitCount": 1,
      "severity": 0,
      "units": "E35",
      "address": "9000 Holman Rd Nw"
    }
  },
  {
    "id_str": "F190101098",
    "created_at": "9/21/2019 1:28:49 AM",
    "derived": {
      "lat": 47.614064,
      "long": -122.337587,
      "timestamp": 1569054529000,
      "description": "Aid Response",
      "entries": 1,
      "neighborhood": "Cascade/Eastlake",
      "neighborhoodGroup": "Lake Union",
      "unitCount": 1,
      "severity": 0,
      "units": "L4",
      "address": "1940 Westlake Av"
    }
  },
  {
    "id_str": "F190101096",
    "created_at": "9/21/2019 1:28:06 AM",
    "derived": {
      "lat": 47.522406,
      "long": -122.355109,
      "timestamp": 1569054486000,
      "description": "Auto Fire Alarm",
      "entries": 1,
      "neighborhood": "Highland Park",
      "neighborhoodGroup": "Delridge Neighborhoods",
      "unitCount": 2,
      "severity": 0,
      "units": "E11 R1",
      "address": "9050 16th Av Sw"
    }
  },
  {
    "id_str": "F190101097",
    "created_at": "9/21/2019 1:27:57 AM",
    "derived": {
      "lat": 47.551917,
      "long": -122.346288,
      "timestamp": 1569054477000,
      "description": "MVI - Motor Vehicle Incident",
      "entries": 1,
      "neighborhood": "Riverview",
      "neighborhoodGroup": "Delridge Neighborhoods",
      "unitCount": 1,
      "severity": 0,
      "units": "E36",
      "address": "5600 West Marginal Way Sw"
    }
  },
  {
    "id_str": "F190101093",
    "created_at": "9/21/2019 1:20:52 AM",
    "derived": {
      "lat": 47.618761,
      "long": -122.338483,
      "timestamp": 1569054052000,
      "description": "Medic Response, 6 per Rule",
      "entries": 1,
      "neighborhood": "Cascade/Eastlake",
      "neighborhoodGroup": "Lake Union",
      "unitCount": 3,
      "severity": 0,
      "units": "A2 E2 M1",
      "address": "120 Westlake Av N"
    }
  },
  {
    "id_str": "F190101092",
    "created_at": "9/21/2019 1:13:12 AM",
    "derived": {
      "lat": 47.51133,
      "long": -122.373672,
      "timestamp": 1569053592000,
      "description": "Natural Gas Odor",
      "entries": 1,
      "neighborhood": "Arbor Heights",
      "neighborhoodGroup": "Southwest",
      "unitCount": 1,
      "severity": 0,
      "units": "L11",
      "address": "10248 33rd Av Sw"
    }
  },
  {
    "id_str": "F190101091",
    "created_at": "9/21/2019 1:08:39 AM",
    "derived": {
      "lat": 47.601683,
      "long": -122.311569,
      "timestamp": 1569053319000,
      "description": "Activated CO Detector",
      "entries": 1,
      "neighborhood": "Central Area/Squire Park",
      "neighborhoodGroup": "Central",
      "unitCount": 1,
      "severity": 0,
      "units": "L3",
      "address": "16th Av / E Yesler Way"
    }
  },
  {
    "id_str": "F190101090",
    "created_at": "9/21/2019 1:07:29 AM",
    "derived": {
      "lat": 47.611943,
      "long": -122.325987,
      "timestamp": 1569053249000,
      "description": "Aid Response",
      "entries": 1,
      "neighborhood": "First Hill",
      "neighborhoodGroup": "East",
      "unitCount": 1,
      "severity": 0,
      "units": "E25",
      "address": "1200 University St"
    }
  },
  {
    "id_str": "F190101089",
    "created_at": "9/21/2019 1:04:14 AM",
    "derived": {
      "lat": 47.506583,
      "long": -122.270133,
      "timestamp": 1569053054000,
      "description": "Aid Response",
      "entries": 1,
      "unitCount": 1,
      "severity": 0,
      "units": "E33",
      "address": "10500 51st Av S"
    }
  },
  {
    "id_str": "F190101088",
    "created_at": "9/21/2019 12:57:56 AM",
    "derived": {
      "lat": 47.599912,
      "long": -122.331574,
      "timestamp": 1569052676000,
      "description": "Aid Response",
      "entries": 1,
      "neighborhood": "Pioneer Square/International District",
      "neighborhoodGroup": "Downtown",
      "unitCount": 1,
      "severity": 0,
      "units": "A10",
      "address": "315 2nd Av S"
    }
  },
  {
    "id_str": "F190101087",
    "created_at": "9/21/2019 12:56:43 AM",
    "derived": {
      "lat": 47.706119,
      "long": -122.332607,
      "timestamp": 1569052603000,
      "description": "Aid Response",
      "entries": 1,
      "neighborhood": "Northgate/Maple Leaf",
      "neighborhoodGroup": "North",
      "unitCount": 1,
      "severity": 0,
      "units": "E24",
      "address": "10621 Bagley Av N"
    }
  },
  {
    "id_str": "F190101086",
    "created_at": "9/21/2019 12:52:39 AM",
    "derived": {
      "lat": 47.603682,
      "long": -122.319409,
      "timestamp": 1569052359000,
      "description": "Aid Response",
      "entries": 1,
      "neighborhood": "First Hill",
      "neighborhoodGroup": "East",
      "unitCount": 1,
      "severity": 0,
      "units": "A5",
      "address": "220 10th Av"
    }
  },
  {
    "id_str": "F190101085",
    "created_at": "9/21/2019 12:42:06 AM",
    "derived": {
      "lat": 47.614076,
      "long": -122.32078,
      "timestamp": 1569051726000,
      "description": "Aid Response",
      "entries": 1,
      "neighborhood": "Capitol Hill",
      "neighborhoodGroup": "East",
      "unitCount": 1,
      "severity": 0,
      "units": "E25",
      "address": "E Pike St / Broadway"
    }
  },
  {
    "id_str": "F190101084",
    "created_at": "9/21/2019 12:36:39 AM",
    "derived": {
      "lat": 47.603517,
      "long": -122.318076,
      "timestamp": 1569051399000,
      "description": "Aid Response",
      "entries": 1,
      "neighborhood": "First Hill",
      "neighborhoodGroup": "East",
      "unitCount": 1,
      "severity": 0,
      "units": "A25",
      "address": "1102 E Spruce St"
    }
  },
  {
    "id_str": "F190101082",
    "created_at": "9/21/2019 12:34:17 AM",
    "derived": {
      "lat": 47.730425,
      "long": -122.30866,
      "timestamp": 1569051257000,
      "description": "Aid Response",
      "entries": 1,
      "neighborhood": "Olympic Hills/Victory Heights",
      "neighborhoodGroup": "North",
      "unitCount": 1,
      "severity": 0,
      "units": "E39",
      "address": "14028 19th Av Ne"
    }
  },
  {
    "id_str": "F190101081",
    "created_at": "9/21/2019 12:25:58 AM",
    "derived": {
      "lat": 47.561106,
      "long": -122.386778,
      "timestamp": 1569050758000,
      "description": "Aid Response",
      "entries": 1,
      "neighborhood": "West Seattle Junction/Genesee Hill",
      "neighborhoodGroup": "Southwest",
      "unitCount": 1,
      "severity": 0,
      "units": "E32",
      "address": "Sw Alaska St / California Av Sw"
    }
  },
  {
    "id_str": "F190101079",
    "created_at": "9/21/2019 12:05:59 AM",
    "derived": {
      "lat": 47.709488,
      "long": -122.323301,
      "timestamp": 1569049559000,
      "description": "Aid Response Yellow",
      "entries": 1,
      "neighborhood": "Northgate/Maple Leaf",
      "neighborhoodGroup": "North",
      "unitCount": 1,
      "severity": 0,
      "units": "E39",
      "address": "11030 5th Av Ne"
    }
  },
  {
    "id_str": "F190101078",
    "created_at": "9/21/2019 12:05:47 AM",
    "derived": {
      "lat": 47.606881,
      "long": -122.333635,
      "timestamp": 1569049547000,
      "description": "Aid Response",
      "entries": 1,
      "neighborhood": "Downtown Commercial Core",
      "neighborhoodGroup": "Downtown",
      "unitCount": 1,
      "severity": 0,
      "units": "A10",
      "address": "1112 4th Av"
    }
  },
  {
    "id_str": "F190101077",
    "created_at": "9/21/2019 12:04:34 AM",
    "derived": {
      "lat": 47.599195,
      "long": -122.327667,
      "timestamp": 1569049474000,
      "description": "Aid Response",
      "entries": 1,
      "neighborhood": "Pioneer Square/International District",
      "neighborhoodGroup": "Downtown",
      "unitCount": 1,
      "severity": 0,
      "units": "A5",
      "address": "5th Av S / S Jackson St"
    }
  },
  {
    "id_str": "F190101076",
    "created_at": "9/20/2019 11:54:29 PM",
    "derived": {
      "lat": 47.663058,
      "long": -122.308354,
      "timestamp": 1569048869000,
      "description": "Aid Response",
      "entries": 1,
      "neighborhood": "University District",
      "neighborhoodGroup": "Northeast",
      "unitCount": 1,
      "severity": 0,
      "units": "E17",
      "address": "Ne 47th St / 18th Av Ne"
    }
  },
  {
    "id_str": "F190101075",
    "created_at": "9/20/2019 11:46:38 PM",
    "derived": {
      "lat": 47.615226,
      "long": -122.324268,
      "timestamp": 1569048398000,
      "description": "Aid Response",
      "entries": 2,
      "neighborhood": "Capitol Hill",
      "neighborhoodGroup": "East",
      "unitCount": 2,
      "severity": 0,
      "units": "A2 A25",
      "address": "619 E PINE ST"
    }
  },
  {
    "id_str": "F190101074",
    "created_at": "9/20/2019 11:43:28 PM",
    "derived": {
      "lat": 47.652987,
      "long": -122.305418,
      "timestamp": 1569048208000,
      "description": "Aid Response",
      "entries": 1,
      "neighborhood": "University District",
      "neighborhoodGroup": "Northeast",
      "unitCount": 1,
      "severity": 0,
      "units": "E31",
      "address": "3785 East Stevens Way Ne"
    }
  },
  {
    "id_str": "F190101073",
    "created_at": "9/20/2019 11:42:44 PM",
    "derived": {
      "lat": 47.66791,
      "long": -122.361572,
      "timestamp": 1569048164000,
      "description": "Aid Response",
      "entries": 1,
      "neighborhood": "Fremont",
      "neighborhoodGroup": "Lake Union",
      "unitCount": 1,
      "severity": 0,
      "units": "E18",
      "address": "350 Nw Market St"
    }
  },
  {
    "id_str": "F190101072",
    "created_at": "9/20/2019 11:40:35 PM",
    "derived": {
      "lat": 47.571421,
      "long": -122.329077,
      "timestamp": 1569048035000,
      "description": "Investigate Out Of Service",
      "entries": 1,
      "neighborhood": "Duwamish/SODO",
      "neighborhoodGroup": "Greater Duwamish",
      "unitCount": 1,
      "severity": 0,
      "units": "E13",
      "address": "4th Av S / S Spokane St"
    }
  },
  {
    "id_str": "F190101070",
    "created_at": "9/20/2019 11:24:11 PM",
    "derived": {
      "lat": 47.536027,
      "long": -122.338994,
      "timestamp": 1569047051000,
      "description": "Aid Response",
      "entries": 1,
      "neighborhood": "Highland Park",
      "neighborhoodGroup": "Delridge Neighborhoods",
      "unitCount": 1,
      "severity": 0,
      "units": "E11",
      "address": "7500 Detroit Av Sw"
    }
  },
  {
    "id_str": "F190101069",
    "created_at": "9/20/2019 11:23:20 PM",
    "derived": {
      "lat": 47.608693,
      "long": -122.333757,
      "timestamp": 1569047000000,
      "description": "Medic Response",
      "entries": 2,
      "neighborhood": "Downtown Commercial Core",
      "neighborhoodGroup": "Downtown",
      "unitCount": 3,
      "severity": 0,
      "units": "A10 E5 M10",
      "address": "5TH AV / UNIVERSITY ST"
    }
  },
  {
    "id_str": "F190101068",
    "created_at": "9/20/2019 11:11:13 PM",
    "derived": {
      "lat": 47.595741,
      "long": -122.325068,
      "timestamp": 1569046273000,
      "description": "Aid Response",
      "entries": 1,
      "neighborhood": "Duwamish/SODO",
      "neighborhoodGroup": "Greater Duwamish",
      "unitCount": 1,
      "severity": 0,
      "units": "A5",
      "address": "811 Maynard Av S"
    }
  },
  {
    "id_str": "F190101067",
    "created_at": "9/20/2019 11:07:29 PM",
    "derived": {
      "lat": 47.618693,
      "long": -122.334256,
      "timestamp": 1569046049000,
      "description": "Aid Response",
      "entries": 1,
      "neighborhood": "Cascade/Eastlake",
      "neighborhoodGroup": "Lake Union",
      "unitCount": 1,
      "severity": 0,
      "units": "A2",
      "address": "116 Fairview Av N"
    }
  },
  {
    "id_str": "F190101066",
    "created_at": "9/20/2019 10:32:27 PM",
    "derived": {
      "lat": 47.659793,
      "long": -122.31317,
      "timestamp": 1569043947000,
      "description": "Investigate Out Of Service",
      "entries": 2,
      "neighborhood": "University District",
      "neighborhoodGroup": "Northeast",
      "unitCount": 2,
      "severity": 0,
      "units": "E17 E31",
      "address": "4300 University Way Ne"
    }
  },
  {
    "id_str": "F190101065",
    "created_at": "9/20/2019 10:31:58 PM",
    "derived": {
      "lat": 47.594356,
      "long": -122.310367,
      "timestamp": 1569043918000,
      "description": "Aid Response",
      "entries": 1,
      "neighborhood": "North Beacon Hill/Jefferson Park",
      "neighborhoodGroup": "Greater Duwamish",
      "unitCount": 1,
      "severity": 0,
      "units": "E6",
      "address": "901 Rainier Av S"
    }
  },
  {
    "id_str": "F190101064",
    "created_at": "9/20/2019 10:31:13 PM",
    "derived": {
      "lat": 47.579411,
      "long": -122.312322,
      "timestamp": 1569043873000,
      "description": "Aid Response",
      "entries": 1,
      "neighborhood": "North Beacon Hill/Jefferson Park",
      "neighborhoodGroup": "Greater Duwamish",
      "unitCount": 1,
      "severity": 0,
      "units": "E13",
      "address": "2701 Beacon Av S"
    }
  },
  {
    "id_str": "F190101063",
    "created_at": "9/20/2019 10:19:59 PM",
    "derived": {
      "lat": 47.615384,
      "long": -122.347925,
      "timestamp": 1569043199000,
      "description": "Aid Response",
      "entries": 1,
      "neighborhood": "Belltown",
      "neighborhoodGroup": "Downtown",
      "unitCount": 1,
      "severity": 0,
      "units": "A10",
      "address": "2505 2nd Av"
    }
  },
  {
    "id_str": "F190101062",
    "created_at": "9/20/2019 10:18:31 PM",
    "derived": {
      "lat": 47.605387,
      "long": -122.327511,
      "timestamp": 1569043111000,
      "description": "Medic Response",
      "entries": 1,
      "neighborhood": "First Hill",
      "neighborhoodGroup": "East",
      "unitCount": 2,
      "severity": 0,
      "units": "A5 M1",
      "address": "710 Cherry St"
    }
  },
  {
    "id_str": "F190101060",
    "created_at": "9/20/2019 10:15:57 PM",
    "derived": {
      "lat": 47.6171,
      "long": -122.350827,
      "timestamp": 1569042957000,
      "description": "4RED - 2 + 1 + 1",
      "entries": 1,
      "neighborhood": "Belltown",
      "neighborhoodGroup": "Downtown",
      "unitCount": 4,
      "severity": 0,
      "units": "B2 E2 E5 L4",
      "address": "2815 2nd Av"
    }
  },
  {
    "id_str": "F190101059",
    "created_at": "9/20/2019 10:14:44 PM",
    "derived": {
      "lat": 47.622191,
      "long": -122.331712,
      "timestamp": 1569042884000,
      "description": "Aid Response",
      "entries": 1,
      "neighborhood": "Cascade/Eastlake",
      "neighborhoodGroup": "Lake Union",
      "unitCount": 1,
      "severity": 0,
      "units": "A2",
      "address": "420 Pontius Av N"
    }
  },
  {
    "id_str": "F190101058",
    "created_at": "9/20/2019 10:13:48 PM",
    "derived": {
      "lat": 47.578148,
      "long": -122.297997,
      "timestamp": 1569042828000,
      "description": "Aid Response",
      "entries": 1,
      "neighborhood": "Mt. Baker/North Rainier",
      "neighborhoodGroup": "Southeast",
      "unitCount": 1,
      "severity": 0,
      "units": "E30",
      "address": "2824 Rainier Av S"
    }
  },
  {
    "id_str": "F190101057",
    "created_at": "9/20/2019 10:07:52 PM",
    "derived": {
      "lat": 47.666525,
      "long": -122.300607,
      "timestamp": 1569042472000,
      "description": "Aid Response",
      "entries": 1,
      "neighborhood": "Ravenna/Bryant",
      "neighborhoodGroup": "Northeast",
      "unitCount": 1,
      "severity": 0,
      "units": "E17",
      "address": "5146 25th Av Ne"
    }
  },
  {
    "id_str": "F190101056",
    "created_at": "9/20/2019 10:07:17 PM",
    "derived": {
      "lat": 47.732321,
      "long": -122.338019,
      "timestamp": 1569042437000,
      "description": "Automatic Fire Alarm False",
      "entries": 1,
      "neighborhood": "Haller Lake",
      "neighborhoodGroup": "Northwest",
      "unitCount": 1,
      "severity": 0,
      "units": "E24",
      "address": "14302 Courtland Pl N"
    }
  },
  {
    "id_str": "F190101055",
    "created_at": "9/20/2019 10:05:59 PM",
    "derived": {
      "lat": 47.611585,
      "long": -122.32076,
      "timestamp": 1569042359000,
      "description": "Medic Response",
      "entries": 1,
      "neighborhood": "Capitol Hill",
      "neighborhoodGroup": "East",
      "unitCount": 2,
      "severity": 0,
      "units": "A25 M10",
      "address": "1158 Broadway"
    }
  },
  {
    "id_str": "F190101054",
    "created_at": "9/20/2019 9:59:49 PM",
    "derived": {
      "lat": 47.519853,
      "long": -122.268364,
      "timestamp": 1569041989000,
      "description": "Aid Response",
      "entries": 1,
      "neighborhood": "Rainier Beach",
      "neighborhoodGroup": "Southeast",
      "unitCount": 1,
      "severity": 0,
      "units": "E33",
      "address": "9262 Rainier Av S"
    }
  },
  {
    "id_str": "F190101053",
    "created_at": "9/20/2019 9:58:34 PM",
    "derived": {
      "lat": 47.623208,
      "long": -122.338174,
      "timestamp": 1569041914000,
      "description": "Auto Fire Alarm",
      "entries": 2,
      "neighborhood": "Cascade/Eastlake",
      "neighborhoodGroup": "Lake Union",
      "unitCount": 3,
      "severity": 0,
      "units": "E2 L4 L6",
      "address": "960 Republican St"
    }
  },
  {
    "id_str": "F190101052",
    "created_at": "9/20/2019 9:58:09 PM",
    "derived": {
      "lat": 47.670435,
      "long": -122.404087,
      "timestamp": 1569041889000,
      "description": "Illegal Burn",
      "entries": 1,
      "neighborhood": "Sunset Hill/Loyal Heights",
      "neighborhoodGroup": "Ballard",
      "unitCount": 1,
      "severity": 0,
      "units": "E18",
      "address": "37th Pl Nw / Seaview Av Nw"
    }
  },
  {
    "id_str": "F190101051",
    "created_at": "9/20/2019 9:52:06 PM",
    "derived": {
      "lat": 47.672462,
      "long": -122.295363,
      "timestamp": 1569041526000,
      "description": "Aid Response",
      "entries": 1,
      "neighborhood": "Ravenna/Bryant",
      "neighborhoodGroup": "Northeast",
      "unitCount": 1,
      "severity": 0,
      "units": "E38",
      "address": "6035 30th Av Ne"
    }
  },
  {
    "id_str": "F190101049",
    "created_at": "9/20/2019 9:49:13 PM",
    "derived": {
      "lat": 47.552875,
      "long": -122.304056,
      "timestamp": 1569041353000,
      "description": "Activated CO Detector",
      "entries": 1,
      "neighborhood": "Beacon Hill",
      "neighborhoodGroup": "Greater Duwamish",
      "unitCount": 1,
      "severity": 0,
      "units": "R1",
      "address": "5560 23rd Av S"
    }
  },
  {
    "id_str": "F190101048",
    "created_at": "9/20/2019 9:43:45 PM",
    "derived": {
      "lat": 47.665552,
      "long": -122.382188,
      "timestamp": 1569041025000,
      "description": "Aid Response",
      "entries": 1,
      "neighborhood": "Ballard",
      "neighborhoodGroup": "Ballard",
      "unitCount": 1,
      "severity": 0,
      "units": "E18",
      "address": "5206 Ballard Av Nw"
    }
  },
  {
    "id_str": "F190101045",
    "created_at": "9/20/2019 9:38:46 PM",
    "derived": {
      "lat": 47.676048,
      "long": -122.30382,
      "timestamp": 1569040726000,
      "description": "Aid Response",
      "entries": 1,
      "neighborhood": "Ravenna/Bryant",
      "neighborhoodGroup": "Northeast",
      "unitCount": 1,
      "severity": 0,
      "units": "E16",
      "address": "6545 Ravenna Av Ne"
    }
  },
  {
    "id_str": "F190101044",
    "created_at": "9/20/2019 9:37:38 PM",
    "derived": {
      "lat": 47.533928,
      "long": -122.269985,
      "timestamp": 1569040658000,
      "description": "4RED - 2 + 1 + 1",
      "entries": 1,
      "neighborhood": "Seward Park",
      "neighborhoodGroup": "Southeast",
      "unitCount": 4,
      "severity": 0,
      "units": "B5 E30 E33 L12",
      "address": "7631 Rainier Av S"
    }
  },
  {
    "id_str": "F190101042",
    "created_at": "9/20/2019 9:36:33 PM",
    "derived": {
      "lat": 47.618597,
      "long": -122.354147,
      "timestamp": 1569040593000,
      "description": "Aid Response",
      "entries": 1,
      "neighborhood": "Belltown",
      "neighborhoodGroup": "Downtown",
      "unitCount": 1,
      "severity": 0,
      "units": "A2",
      "address": "150 Denny Way"
    }
  },
  {
    "id_str": "F190101041",
    "created_at": "9/20/2019 9:35:35 PM",
    "derived": {
      "lat": 47.551138,
      "long": -122.269751,
      "timestamp": 1569040535000,
      "description": "Aid Response",
      "entries": 1,
      "neighborhood": "Seward Park",
      "neighborhoodGroup": "Southeast",
      "unitCount": 1,
      "severity": 0,
      "units": "E28",
      "address": "5106 S Orcas St"
    }
  },
  {
    "id_str": "F190101037",
    "created_at": "9/20/2019 9:26:37 PM",
    "derived": {
      "lat": 47.584234,
      "long": -122.299024,
      "timestamp": 1569039997000,
      "description": "Aid Response",
      "entries": 1,
      "neighborhood": "Mt. Baker/North Rainier",
      "neighborhoodGroup": "Southeast",
      "unitCount": 1,
      "severity": 0,
      "units": "E6",
      "address": "2121 26th Av S"
    }
  },
  {
    "id_str": "F190101036",
    "created_at": "9/20/2019 9:23:30 PM",
    "derived": {
      "lat": 47.52828,
      "long": -122.365857,
      "timestamp": 1569039810000,
      "description": "Aid Response",
      "entries": 1,
      "neighborhood": "Roxhill/Westwood",
      "neighborhoodGroup": "Delridge Neighborhoods",
      "unitCount": 1,
      "severity": 0,
      "units": "E37",
      "address": "2600 Sw Thistle St"
    }
  },
  {
    "id_str": "F190101035",
    "created_at": "9/20/2019 9:19:56 PM",
    "derived": {
      "lat": 47.58541,
      "long": -122.303541,
      "timestamp": 1569039596000,
      "description": "Aid Response",
      "entries": 1,
      "neighborhood": "North Beacon Hill/Jefferson Park",
      "neighborhoodGroup": "Greater Duwamish",
      "unitCount": 1,
      "severity": 0,
      "units": "E30",
      "address": "2009 Rainier Av S"
    }
  },
  {
    "id_str": "F190101034",
    "created_at": "9/20/2019 9:18:48 PM",
    "derived": {
      "lat": 47.623208,
      "long": -122.338174,
      "timestamp": 1569039528000,
      "description": "Auto Fire Alarm",
      "entries": 1,
      "neighborhood": "Cascade/Eastlake",
      "neighborhoodGroup": "Lake Union",
      "unitCount": 2,
      "severity": 0,
      "units": "E2 L4",
      "address": "960 Republican St"
    }
  },
  {
    "id_str": "F190101033",
    "created_at": "9/20/2019 9:15:48 PM",
    "derived": {
      "lat": 47.712732,
      "long": -122.348992,
      "timestamp": 1569039348000,
      "description": "Aid Response",
      "entries": 1,
      "neighborhood": "Broadview/Bitter Lake",
      "neighborhoodGroup": "Northwest",
      "unitCount": 1,
      "severity": 0,
      "units": "E24",
      "address": "11545 North Park Av N"
    }
  },
  {
    "id_str": "F190101031",
    "created_at": "9/20/2019 9:04:35 PM",
    "derived": {
      "lat": 47.614085,
      "long": -122.319447,
      "timestamp": 1569038675000,
      "description": "Aid Response",
      "entries": 1,
      "neighborhood": "Capitol Hill",
      "neighborhoodGroup": "East",
      "unitCount": 1,
      "severity": 0,
      "units": "E25",
      "address": "10th Av / E Pike St"
    }
  },
  {
    "id_str": "F190101028",
    "created_at": "9/20/2019 9:00:18 PM",
    "derived": {
      "lat": 47.664291,
      "long": -122.342091,
      "timestamp": 1569038418000,
      "description": "Aid Response",
      "entries": 1,
      "neighborhood": "Wallingford",
      "neighborhoodGroup": "Lake Union",
      "unitCount": 1,
      "severity": 0,
      "units": "E9",
      "address": "N 49th St / Stone Av N"
    }
  },
  {
    "id_str": "F190101027",
    "created_at": "9/20/2019 8:58:51 PM",
    "derived": {
      "lat": 47.659255,
      "long": -122.400941,
      "timestamp": 1569038331000,
      "description": "Unk Odor",
      "entries": 1,
      "neighborhood": "Magnolia",
      "neighborhoodGroup": "Magnolia/Queen Anne",
      "unitCount": 1,
      "severity": 0,
      "units": "E41",
      "address": "3406 W Government Way"
    }
  },
  {
    "id_str": "F190101026",
    "created_at": "9/20/2019 8:58:26 PM",
    "derived": {
      "lat": 47.612958,
      "long": -122.337873,
      "timestamp": 1569038306000,
      "description": "Aid Response",
      "entries": 1,
      "neighborhood": "Cascade/Eastlake",
      "neighborhoodGroup": "Lake Union",
      "unitCount": 1,
      "severity": 0,
      "units": "E2",
      "address": "1900 5th Av"
    }
  },
  {
    "id_str": "F190101024",
    "created_at": "9/20/2019 8:50:03 PM",
    "derived": {
      "lat": 47.609755,
      "long": -122.337782,
      "timestamp": 1569037803000,
      "description": "Aid Response",
      "entries": 1,
      "neighborhood": "Downtown Commercial Core",
      "neighborhoodGroup": "Downtown",
      "unitCount": 1,
      "severity": 0,
      "units": "A2",
      "address": "301 Pike St"
    }
  },
  {
    "id_str": "F190101019",
    "created_at": "9/20/2019 8:30:04 PM",
    "derived": {
      "lat": 47.612606,
      "long": -122.345213,
      "timestamp": 1569036604000,
      "description": "Auto Fire Alarm",
      "entries": 1,
      "neighborhood": "Belltown",
      "neighborhoodGroup": "Downtown",
      "unitCount": 2,
      "severity": 0,
      "units": "E2 L4",
      "address": "2201 1st Av"
    }
  },
  {
    "id_str": "F190101018",
    "created_at": "9/20/2019 8:28:37 PM",
    "derived": {
      "lat": 47.60187,
      "long": -122.311568,
      "timestamp": 1569036517000,
      "description": "Automatic Fire Alarm Resd",
      "entries": 1,
      "neighborhood": "Central Area/Squire Park",
      "neighborhoodGroup": "Central",
      "unitCount": 1,
      "severity": 0,
      "units": "E6",
      "address": "110 16th Av"
    }
  },
  {
    "id_str": "F190101017",
    "created_at": "9/20/2019 8:23:53 PM",
    "derived": {
      "lat": 47.533742,
      "long": -122.376619,
      "timestamp": 1569036233000,
      "description": "Medic Response",
      "entries": 2,
      "neighborhood": "Roxhill/Westwood",
      "neighborhoodGroup": "Delridge Neighborhoods",
      "unitCount": 2,
      "severity": 0,
      "units": "E37 M32",
      "address": "7700 35th Av Sw"
    }
  },
  {
    "id_str": "F190101016",
    "created_at": "9/20/2019 8:19:02 PM",
    "derived": {
      "lat": 47.588437,
      "long": -122.315855,
      "timestamp": 1569035942000,
      "description": "Auto Fire Alarm",
      "entries": 1,
      "neighborhood": "North Beacon Hill/Jefferson Park",
      "neighborhoodGroup": "Greater Duwamish",
      "unitCount": 2,
      "severity": 0,
      "units": "E13 R1",
      "address": "1311 S Massachusetts St"
    }
  },
  {
    "id_str": "F190101013",
    "created_at": "9/20/2019 8:10:46 PM",
    "derived": {
      "lat": 47.603698,
      "long": -122.329187,
      "timestamp": 1569035446000,
      "description": "Aid Response",
      "entries": 1,
      "neighborhood": "First Hill",
      "neighborhoodGroup": "East",
      "unitCount": 1,
      "severity": 0,
      "units": "A10",
      "address": "5th Av / James St"
    }
  },
  {
    "id_str": "F190101012",
    "created_at": "9/20/2019 8:00:58 PM",
    "derived": {
      "lat": 47.607945,
      "long": -122.328471,
      "timestamp": 1569034858000,
      "description": "Auto Fire Alarm",
      "entries": 1,
      "neighborhood": "First Hill",
      "neighborhoodGroup": "East",
      "unitCount": 2,
      "severity": 0,
      "units": "E25 L1",
      "address": "1000 8th Av"
    }
  },
  {
    "id_str": "F190101011",
    "created_at": "9/20/2019 7:55:16 PM",
    "derived": {
      "lat": 47.687008,
      "long": -122.376793,
      "timestamp": 1569034516000,
      "description": "Aid Response",
      "entries": 3,
      "neighborhood": "Whittier Heights",
      "neighborhoodGroup": "Ballard",
      "unitCount": 3,
      "severity": 0,
      "units": "A25 E21 E35",
      "address": "8022 15th Av Nw"
    }
  },
  {
    "id_str": "F190101010",
    "created_at": "9/20/2019 7:55:06 PM",
    "derived": {
      "lat": 47.599968,
      "long": -122.328965,
      "timestamp": 1569034506000,
      "description": "Aid Response",
      "entries": 2,
      "neighborhood": "Pioneer Square/International District",
      "neighborhoodGroup": "Downtown",
      "unitCount": 2,
      "severity": 0,
      "units": "A10 A5",
      "address": "308 4th Av S"
    }
  },
  {
    "id_str": "F190101008",
    "created_at": "9/20/2019 7:53:42 PM",
    "derived": {
      "lat": 47.65722,
      "long": -122.322633,
      "timestamp": 1569034422000,
      "description": "MVI - Motor Vehicle Incident",
      "entries": 1,
      "neighborhood": "Wallingford",
      "neighborhoodGroup": "Lake Union",
      "unitCount": 3,
      "severity": 0,
      "units": "A2 E16 E22",
      "address": "Sb I5 At 45"
    }
  },
  {
    "id_str": "F190101007",
    "created_at": "9/20/2019 7:51:43 PM",
    "derived": {
      "lat": 47.661806,
      "long": -122.320725,
      "timestamp": 1569034303000,
      "description": "Aid Response",
      "entries": 1,
      "neighborhood": "Wallingford",
      "neighborhoodGroup": "Lake Union",
      "unitCount": 3,
      "severity": 0,
      "units": "A25 E17 E31",
      "address": "Nb I5 Fr 45"
    }
  },
  {
    "id_str": "F190101006",
    "created_at": "9/20/2019 7:51:23 PM",
    "derived": {
      "lat": 47.634773,
      "long": -122.367742,
      "timestamp": 1569034283000,
      "description": "Unk Odor",
      "entries": 1,
      "neighborhood": "Queen Anne",
      "neighborhoodGroup": "Magnolia/Queen Anne",
      "unitCount": 1,
      "severity": 0,
      "units": "E20",
      "address": "1800 8th Av W"
    }
  },
  {
    "id_str": "F190101005",
    "created_at": "9/20/2019 7:51:21 PM",
    "derived": {
      "lat": 47.614953,
      "long": -122.335295,
      "timestamp": 1569034281000,
      "description": "Aid Response",
      "entries": 1,
      "neighborhood": "Cascade/Eastlake",
      "neighborhoodGroup": "Lake Union",
      "unitCount": 1,
      "severity": 0,
      "units": "A4",
      "address": "800 Stewart St"
    }
  },
  {
    "id_str": "F190101004",
    "created_at": "9/20/2019 7:50:27 PM",
    "derived": {
      "lat": 47.726935,
      "long": -122.334198,
      "timestamp": 1569034227000,
      "description": "Aid Response",
      "entries": 2,
      "neighborhood": "Haller Lake",
      "neighborhoodGroup": "Northwest",
      "unitCount": 2,
      "severity": 0,
      "units": "A31 E24",
      "address": "13510 Meridian Av N"
    }
  },
  {
    "id_str": "F190101003",
    "created_at": "9/20/2019 7:48:45 PM",
    "derived": {
      "lat": 47.599203,
      "long": -122.29502,
      "timestamp": 1569034125000,
      "description": "Aid Response",
      "entries": 1,
      "neighborhood": "Madrona/Leschi",
      "neighborhoodGroup": "Central",
      "unitCount": 1,
      "severity": 0,
      "units": "L3",
      "address": "29th Av S / S Jackson St"
    }
  },
  {
    "id_str": "F190101000",
    "created_at": "9/20/2019 7:45:24 PM",
    "derived": {
      "lat": 47.57473,
      "long": -122.313383,
      "timestamp": 1569033924000,
      "description": "Automatic Fire Alarm Resd",
      "entries": 1,
      "neighborhood": "North Beacon Hill/Jefferson Park",
      "neighborhoodGroup": "Greater Duwamish",
      "unitCount": 1,
      "severity": 0,
      "units": "E13",
      "address": "3236 15th Av S"
    }
  },
  {
    "id_str": "F190100999",
    "created_at": "9/20/2019 7:38:43 PM",
    "derived": {
      "lat": 47.689095,
      "long": -122.3768,
      "timestamp": 1569033523000,
      "description": "Aid Response",
      "entries": 1,
      "neighborhood": "Whittier Heights",
      "neighborhoodGroup": "Ballard",
      "unitCount": 1,
      "severity": 0,
      "units": "E35",
      "address": "8340 15th Av Nw"
    }
  },
  {
    "id_str": "F190100998",
    "created_at": "9/20/2019 7:35:07 PM",
    "derived": {
      "lat": 47.618002,
      "long": -122.329182,
      "timestamp": 1569033307000,
      "description": "Aid Response",
      "entries": 1,
      "neighborhood": "Cascade/Eastlake",
      "neighborhoodGroup": "Lake Union",
      "unitCount": 1,
      "severity": 0,
      "units": "A4",
      "address": "1811 Eastlake Av"
    }
  },
  {
    "id_str": "F190100997",
    "created_at": "9/20/2019 7:32:48 PM",
    "derived": {
      "lat": 47.525065,
      "long": -122.287324,
      "timestamp": 1569033168000,
      "description": "Aid Response",
      "entries": 1,
      "neighborhood": "South Beacon Hill/NewHolly",
      "neighborhoodGroup": "Greater Duwamish",
      "unitCount": 1,
      "severity": 0,
      "units": "E33",
      "address": "8648 Beacon Av S"
    }
  },
  {
    "id_str": "F190100996",
    "created_at": "9/20/2019 7:31:28 PM",
    "derived": {
      "lat": 47.599211,
      "long": -122.313621,
      "timestamp": 1569033088000,
      "description": "Aid Response",
      "entries": 1,
      "neighborhood": "Judkins Park",
      "neighborhoodGroup": "Central",
      "unitCount": 1,
      "severity": 0,
      "units": "E6",
      "address": "1440 S Jackson St"
    }
  },