[
  {
    "id_str": "F190044240",
    "created_at": "5/2/2019 4:57:37 PM",
    "derived": {
      "lat": 47.658298,
      "long": -122.317782,
      "timestamp": 1556841457000,
      "description": "Aid Response",
      "address": "4245 Roosevelt Way Ne,Seattle,WA",
      "units": "E17",
      "entries": 1,
      "neighborhood": "Wallingford",
      "neighborhoodGroup": "Lake Union"
    }
  },
  {
    "id_str": "F190044239",
    "created_at": "5/2/2019 4:50:34 PM",
    "derived": {
      "lat": 47.690501,
      "long": -122.33644,
      "timestamp": 1556841034000,
      "description": "Aid Response",
      "address": "Wallingford Av N / N 85th St,Seattle,WA",
      "units": "E16",
      "entries": 1,
      "neighborhood": "Green Lake",
      "neighborhoodGroup": "Northwest"
    }
  },
  {
    "id_str": "F190044238",
    "created_at": "5/2/2019 4:43:17 PM",
    "derived": {
      "lat": 47.603517,
      "long": -122.318076,
      "timestamp": 1556840597000,
      "description": "Aid Response",
      "address": "1102 E Spruce St,Seattle,WA",
      "units": "A25",
      "entries": 1,
      "neighborhood": "First Hill",
      "neighborhoodGroup": "East"
    }
  },
  {
    "id_str": "F190044234",
    "created_at": "5/2/2019 4:25:31 PM",
    "derived": {
      "lat": 47.6029,
      "long": -122.331529,
      "timestamp": 1556839531000,
      "description": "Auto Fire Alarm",
      "address": "619 3rd Av,Seattle,WA",
      "units": "E10 L1",
      "entries": 1,
      "neighborhood": "Downtown Commercial Core",
      "neighborhoodGroup": "Downtown"
    }
  },
  {
    "id_str": "F190044233",
    "created_at": "5/2/2019 4:24:21 PM",
    "derived": {
      "lat": 47.581214,
      "long": -122.391903,
      "timestamp": 1556839461000,
      "description": "Aid Response",
      "address": "4700 Sw Admiral Way,Seattle,WA",
      "units": "E29",
      "entries": 1,
      "neighborhood": "West Seattle Junction/Genesee Hill",
      "neighborhoodGroup": "Southwest"
    }
  },
  {
    "id_str": "F190044232",
    "created_at": "5/2/2019 4:22:01 PM",
    "derived": {
      "lat": 47.615949,
      "long": -122.336979,
      "timestamp": 1556839321000,
      "description": "Auto Fire Alarm",
      "address": "2030 8th Av,Seattle,WA",
      "units": "E2 E25 L10 L6",
      "entries": 3,
      "neighborhood": "Cascade/Eastlake",
      "neighborhoodGroup": "Lake Union"
    }
  },
  {
    "id_str": "F190044231",
    "created_at": "5/2/2019 4:21:24 PM",
    "derived": {
      "lat": 47.596499,
      "long": -122.322456,
      "timestamp": 1556839284000,
      "description": "Medic Response",
      "address": "720 8th Av S,Seattle,WA",
      "units": "A5 M1",
      "entries": 1,
      "neighborhood": "Pioneer Square/International District",
      "neighborhoodGroup": "Downtown"
    }
  },
  {
    "id_str": "F190044230",
    "created_at": "5/2/2019 4:20:39 PM",
    "derived": {
      "lat": 47.617571,
      "long": -122.320836,
      "timestamp": 1556839239000,
      "description": "Aid Response",
      "address": "BROADWAY / E HOWELL ST,Seattle,WA",
      "units": "A25",
      "entries": 1,
      "neighborhood": "Capitol Hill",
      "neighborhoodGroup": "East"
    }
  },
  {
    "id_str": "F190044229",
    "created_at": "5/2/2019 4:18:27 PM",
    "derived": {
      "lat": 47.535851,
      "long": -122.390408,
      "timestamp": 1556839107000,
      "description": "Aid Response Yellow",
      "address": "7500 45th Av Sw,Seattle,WA",
      "units": "E37",
      "entries": 1,
      "neighborhood": "Fauntleroy/Seaview",
      "neighborhoodGroup": "Southwest"
    }
  },
  {
    "id_str": "F190044228",
    "created_at": "5/2/2019 4:10:07 PM",
    "derived": {
      "lat": 47.618597,
      "long": -122.354147,
      "timestamp": 1556838607000,
      "description": "Water Job Minor",
      "address": "150 Denny Way,Seattle,WA",
      "units": "L4",
      "entries": 1,
      "neighborhood": "Belltown",
      "neighborhoodGroup": "Downtown"
    }
  },
  {
    "id_str": "F190044227",
    "created_at": "5/2/2019 4:03:40 PM",
    "derived": {
      "lat": 47.542466,
      "long": -122.275011,
      "timestamp": 1556838220000,
      "description": "Aid Response",
      "address": "4628 S Holly St,Seattle,WA",
      "units": "E28",
      "entries": 1,
      "neighborhood": "Columbia City",
      "neighborhoodGroup": "Southeast"
    }
  },
  {
    "id_str": "F190044219",
    "created_at": "5/2/2019 3:44:34 PM",
    "derived": {
      "lat": 47.708594,
      "long": -122.323211,
      "timestamp": 1556837074000,
      "description": "Medic Response",
      "address": "507 Ne Northgate Way,Seattle,WA",
      "units": "E39 M31",
      "entries": 1,
      "neighborhood": "Northgate/Maple Leaf",
      "neighborhoodGroup": "North"
    }
  },
  {
    "id_str": "F190044220",
    "created_at": "5/2/2019 3:44:21 PM",
    "derived": {
      "lat": 47.670647,
      "long": -122.357717,
      "timestamp": 1556837061000,
      "description": "Aid Response",
      "address": "101 Nw 58th St,Seattle,WA",
      "units": "E21",
      "entries": 1,
      "neighborhood": "Greenwood/Phinney Ridge",
      "neighborhoodGroup": "Northwest"
    }
  },
  {
    "id_str": "F190044218",
    "created_at": "5/2/2019 3:43:13 PM",
    "derived": {
      "lat": 47.610155,
      "long": -122.333545,
      "timestamp": 1556836993000,
      "description": "Auto Fire Alarm",
      "address": "601 Union St,Seattle,WA",
      "units": "E2 L4",
      "entries": 1,
      "neighborhood": "First Hill",
      "neighborhoodGroup": "East"
    }
  },
  {
    "id_str": "F190044217",
    "created_at": "5/2/2019 3:36:05 PM",
    "derived": {
      "lat": 47.669446,
      "long": -122.37945,
      "timestamp": 1556836565000,
      "description": "Medic Response",
      "address": "1753 Nw 56th St,Seattle,WA",
      "units": "E18 L8 M18",
      "entries": 2,
      "neighborhood": "Ballard",
      "neighborhoodGroup": "Ballard"
    }
  },
  {
    "id_str": "F190044216",
    "created_at": "5/2/2019 3:32:55 PM",
    "derived": {
      "lat": 47.608444,
      "long": -122.331995,
      "timestamp": 1556836375000,
      "description": "Aid Response",
      "address": "6th Av / Seneca St,Seattle,WA",
      "units": "A10",
      "entries": 1,
      "neighborhood": "First Hill",
      "neighborhoodGroup": "East"
    }
  },
  {
    "id_str": "F190044215",
    "created_at": "5/2/2019 3:25:59 PM",
    "derived": {
      "lat": 47.615461,
      "long": -122.320802,
      "timestamp": 1556835959000,
      "description": "AFA4 - Auto Alarm 2 + 1 + 1",
      "address": "1620 Broadway,Seattle,WA",
      "units": "B2 E2 E25 L10",
      "entries": 1,
      "neighborhood": "Capitol Hill",
      "neighborhoodGroup": "East"
    }
  },
  {
    "id_str": "F190044214",
    "created_at": "5/2/2019 3:25:42 PM",
    "derived": {
      "lat": 47.619219,
      "long": -122.326346,
      "timestamp": 1556835942000,
      "description": "Aid Response",
      "address": "418 E Loretta Pl,Seattle,WA",
      "units": "A25",
      "entries": 1,
      "neighborhood": "Capitol Hill",
      "neighborhoodGroup": "East"
    }
  },
  {
    "id_str": "F190044213",
    "created_at": "5/2/2019 3:23:49 PM",
    "derived": {
      "lat": 47.581886,
      "long": -122.329055,
      "timestamp": 1556835829000,
      "description": "Aid Response",
      "address": "2401 4th Av S,Seattle,WA",
      "units": "E10",
      "entries": 1,
      "neighborhood": "Duwamish/SODO",
      "neighborhoodGroup": "Greater Duwamish"
    }
  },
  {
    "id_str": "F190044212",
    "created_at": "5/2/2019 3:15:14 PM",
    "derived": {
      "lat": 47.653933,
      "long": -122.387564,
      "timestamp": 1556835314000,
      "description": "Aid Response Yellow",
      "address": "2410 W Manor Pl,Seattle,WA",
      "units": "E20",
      "entries": 1,
      "neighborhood": "Interbay",
      "neighborhoodGroup": "Magnolia/Queen Anne"
    }
  },
  {
    "id_str": "F190044210",
    "created_at": "5/2/2019 3:14:25 PM",
    "derived": {
      "lat": 47.710415,
      "long": -122.36084,
      "timestamp": 1556835265000,
      "description": "MVI - Motor Vehicle Incident",
      "address": "3rd Av Nw / Nw 112th St,Seattle,WA",
      "units": "E35",
      "entries": 1,
      "neighborhood": "North Beach/Blue Ridge",
      "neighborhoodGroup": "Ballard"
    }
  },
  {
    "id_str": "F190044211",
    "created_at": "5/2/2019 3:13:29 PM",
    "derived": {
      "lat": 47.619754,
      "long": -122.345007,
      "timestamp": 1556835209000,
      "description": "Rescue Elevator",
      "address": "203 6TH AV N,Seattle,WA",
      "units": "L4",
      "entries": 2,
      "neighborhood": "Cascade/Eastlake",
      "neighborhoodGroup": "Lake Union"
    }
  },
  {
    "id_str": "F190044209",
    "created_at": "5/2/2019 3:10:57 PM",
    "derived": {
      "lat": 47.618554,
      "long": -122.343368,
      "timestamp": 1556835057000,
      "description": "Aid Response",
      "address": "Denny Way / Borealis Av,Seattle,WA",
      "units": "A2",
      "entries": 1,
      "neighborhood": "Cascade/Eastlake",
      "neighborhoodGroup": "Lake Union"
    }
  },
  {
    "id_str": "F190044207",
    "created_at": "5/2/2019 3:06:16 PM",
    "derived": {
      "lat": 47.601886,
      "long": -122.330511,
      "timestamp": 1556834776000,
      "description": "Illegal Burn",
      "address": "450 3rd Av,Seattle,WA",
      "units": "L1",
      "entries": 1,
      "neighborhood": "Downtown Commercial Core",
      "neighborhoodGroup": "Downtown"
    }
  },
  {
    "id_str": "F190044206",
    "created_at": "5/2/2019 3:03:38 PM",
    "derived": {
      "lat": 47.699329,
      "long": -122.29748,
      "timestamp": 1556834618000,
      "description": "Aid Response",
      "address": "2738 Ne 97th St,Seattle,WA",
      "units": "E40",
      "entries": 1,
      "neighborhood": "Wedgwood/View Ridge",
      "neighborhoodGroup": "Northeast"
    }
  },
  {
    "id_str": "F190044205",
    "created_at": "5/2/2019 3:01:59 PM",
    "derived": {
      "lat": 47.60902,
      "long": -122.337126,
      "timestamp": 1556834519000,
      "description": "Aid Response",
      "address": "1427 3rd Av,Seattle,WA",
      "units": "A10",
      "entries": 1,
      "neighborhood": "Downtown Commercial Core",
      "neighborhoodGroup": "Downtown"
    }
  },
  {
    "id_str": "F190044203",
    "created_at": "5/2/2019 2:57:11 PM",
    "derived": {
      "lat": 47.612701,
      "long": -122.334021,
      "timestamp": 1556834231000,
      "description": "Aid Response",
      "address": "721 PINE ST,Seattle,WA",
      "units": "A4",
      "entries": 1,
      "neighborhood": "First Hill",
      "neighborhoodGroup": "East"
    }
  },
  {
    "id_str": "F190044202",
    "created_at": "5/2/2019 2:52:32 PM",
    "derived": {
      "lat": 47.616491,
      "long": -122.302623,
      "timestamp": 1556833952000,
      "description": "Auto Fire Alarm",
      "address": "1700 23rd Av,Seattle,WA",
      "units": "E25 L10",
      "entries": 1,
      "neighborhood": "Central Area/Squire Park",
      "neighborhoodGroup": "Central"
    }
  },
  {
    "id_str": "F190044200",
    "created_at": "5/2/2019 2:39:44 PM",
    "derived": {
      "lat": 47.613247,
      "long": -122.327187,
      "timestamp": 1556833184000,
      "description": "Aid Response",
      "address": "1431 Minor Av,Seattle,WA",
      "units": "A25",
      "entries": 1,
      "neighborhood": "Capitol Hill",
      "neighborhoodGroup": "East"
    }
  },
  {
    "id_str": "F190044199",
    "created_at": "5/2/2019 2:38:32 PM",
    "derived": {
      "lat": 47.646867,
      "long": -122.333927,
      "timestamp": 1556833112000,
      "description": "Aid Response Yellow",
      "address": "2101 N Northlake Way,Seattle,WA",
      "units": "E9",
      "entries": 1,
      "neighborhood": "Fremont",
      "neighborhoodGroup": "Lake Union"
    }
  },
  {
    "id_str": "F190044195",
    "created_at": "5/2/2019 2:15:35 PM",
    "derived": {
      "lat": 47.600015,
      "long": -122.31723,
      "timestamp": 1556831735000,
      "description": "Illegal Burn",
      "address": "12th Av S / S Main St,Seattle,WA",
      "units": "E10 L1",
      "entries": 2,
      "neighborhood": "Pioneer Square/International District",
      "neighborhoodGroup": "Downtown"
    }
  },
  {
    "id_str": "F190044194",
    "created_at": "5/2/2019 2:14:45 PM",
    "derived": {
      "lat": 47.601886,
      "long": -122.330511,
      "timestamp": 1556831685000,
      "description": "Aid Response",
      "address": "450 3rd Av,Seattle,WA",
      "units": "E10 L1",
      "entries": 2,
      "neighborhood": "Downtown Commercial Core",
      "neighborhoodGroup": "Downtown"
    }
  },
  {
    "id_str": "F190044193",
    "created_at": "5/2/2019 2:10:41 PM",
    "derived": {
      "lat": 47.733952,
      "long": -122.312749,
      "timestamp": 1556831441000,
      "description": "Aid Response",
      "address": "15th Av Ne/ne 145th St,Seattle,WA",
      "units": "E39",
      "entries": 1
    }
  },
  {
    "id_str": "F190044192",
    "created_at": "5/2/2019 2:10:30 PM",
    "derived": {
      "lat": 47.626215,
      "long": -122.329199,
      "timestamp": 1556831430000,
      "description": "Medic Response",
      "address": "825 Eastlake Av E,Seattle,WA",
      "units": "A4 E10 E2 M17",
      "entries": 3,
      "neighborhood": "Cascade/Eastlake",
      "neighborhoodGroup": "Lake Union"
    }
  },
  {
    "id_str": "F190044190",
    "created_at": "5/2/2019 2:01:25 PM",
    "derived": {
      "lat": 47.596499,
      "long": -122.322456,
      "timestamp": 1556830885000,
      "description": "Medic Response",
      "address": "720 8th Av S,Seattle,WA",
      "units": "A10 M10",
      "entries": 1,
      "neighborhood": "Pioneer Square/International District",
      "neighborhoodGroup": "Downtown"
    }
  },
  {
    "id_str": "F190044188",
    "created_at": "5/2/2019 1:58:51 PM",
    "derived": {
      "lat": 47.61392,
      "long": -122.351402,
      "timestamp": 1556830731000,
      "description": "Auto Fire Alarm",
      "address": "2601 Elliott Av,Seattle,WA",
      "units": "E2 L4",
      "entries": 1,
      "neighborhood": "Belltown",
      "neighborhoodGroup": "Downtown"
    }
  },
  {
    "id_str": "F190044189",
    "created_at": "5/2/2019 1:58:40 PM",
    "derived": {
      "lat": 47.509597,
      "long": -122.374625,
      "timestamp": 1556830720000,
      "description": "Medic Response",
      "address": "10443 34th Av Sw,Seattle,WA",
      "units": "E37 M32",
      "entries": 2,
      "neighborhood": "Arbor Heights",
      "neighborhoodGroup": "Southwest"
    }
  },
  {
    "id_str": "F190044186",
    "created_at": "5/2/2019 1:53:05 PM",
    "derived": {
      "lat": 47.609343,
      "long": -122.325128,
      "timestamp": 1556830385000,
      "description": "Medic Response, 7 per Rule",
      "address": "1101 Madison St,Seattle,WA",
      "units": "A25 E25 M10",
      "entries": 1,
      "neighborhood": "First Hill",
      "neighborhoodGroup": "East"
    }
  },
  {
    "id_str": "F190044185",
    "created_at": "5/2/2019 1:33:51 PM",
    "derived": {
      "lat": 47.597509,
      "long": -122.322452,
      "timestamp": 1556829231000,
      "description": "Aid Response",
      "address": "8th Av S / S Weller St,Seattle,WA",
      "units": "E10",
      "entries": 1,
      "neighborhood": "Pioneer Square/International District",
      "neighborhoodGroup": "Downtown"
    }
  },
  {
    "id_str": "F190044184",
    "created_at": "5/2/2019 1:28:14 PM",
    "derived": {
      "lat": 47.658865,
      "long": -122.397033,
      "timestamp": 1556828894000,
      "description": "Aid Response",
      "address": "4332 31st Av W,Seattle,WA",
      "units": "E18",
      "entries": 1,
      "neighborhood": "Magnolia",
      "neighborhoodGroup": "Magnolia/Queen Anne"
    }
  },
  {
    "id_str": "F190044183",
    "created_at": "5/2/2019 1:26:59 PM",
    "derived": {
      "lat": 47.654064,
      "long": -122.397204,
      "timestamp": 1556828819000,
      "description": "Aid Response",
      "address": "3122 W Emerson St,Seattle,WA",
      "units": "E20",
      "entries": 1,
      "neighborhood": "Magnolia",
      "neighborhoodGroup": "Magnolia/Queen Anne"
    }
  },
  {
    "id_str": "F190044182",
    "created_at": "5/2/2019 1:21:11 PM",
    "derived": {
      "lat": 47.717343,
      "long": -122.292781,
      "timestamp": 1556828471000,
      "description": "Medic Response",
      "address": "12300 33rd Av Ne,Seattle,WA",
      "units": "E39 M31",
      "entries": 1,
      "neighborhood": "Olympic Hills/Victory Heights",
      "neighborhoodGroup": "North"
    }
  },
  {
    "id_str": "F190044181",
    "created_at": "5/2/2019 1:21:03 PM",
    "derived": {
      "lat": 47.61048,
      "long": -122.341617,
      "timestamp": 1556828463000,
      "description": "Aid Response",
      "address": "1925 1st Av,Seattle,WA",
      "units": "A2 E2",
      "entries": 2,
      "neighborhood": "Belltown",
      "neighborhoodGroup": "Downtown"
    }
  },
  {
    "id_str": "F190044178",
    "created_at": "5/2/2019 1:12:12 PM",
    "derived": {
      "lat": 47.617316,
      "long": -122.347229,
      "timestamp": 1556827932000,
      "description": "Medic Response",
      "address": "2614 4th Av,Seattle,WA",
      "units": "A4 M10",
      "entries": 1,
      "neighborhood": "Cascade/Eastlake",
      "neighborhoodGroup": "Lake Union"
    }
  },
  {
    "id_str": "F190044177",
    "created_at": "5/2/2019 1:07:35 PM",
    "derived": {
      "lat": 47.612398,
      "long": -122.340892,
      "timestamp": 1556827655000,
      "description": "Car Fire",
      "address": "3rd Av / Virginia St,Seattle,WA",
      "units": "E2",
      "entries": 1,
      "neighborhood": "Cascade/Eastlake",
      "neighborhoodGroup": "Lake Union"
    }
  },
  {
    "id_str": "F190044175",
    "created_at": "5/2/2019 1:07:05 PM",
    "derived": {
      "lat": 47.645873,
      "long": -122.355532,
      "timestamp": 1556827625000,
      "description": "Aid Response",
      "address": "2906 1st Av N,Seattle,WA",
      "units": "E9",
      "entries": 1,
      "neighborhood": "Queen Anne",
      "neighborhoodGroup": "Magnolia/Queen Anne"
    }
  },
  {
    "id_str": "F190044173",
    "created_at": "5/2/2019 1:03:55 PM",
    "derived": {
      "lat": 47.610617,
      "long": -122.332441,
      "timestamp": 1556827435000,
      "description": "Medic Response, 6 per Rule",
      "address": "701 Union St,Seattle,WA",
      "units": "A10 E25 M1",
      "entries": 1,
      "neighborhood": "First Hill",
      "neighborhoodGroup": "East"
    }
  },
  {
    "id_str": "F190044172",
    "created_at": "5/2/2019 1:02:27 PM",
    "derived": {
      "lat": 47.524577,
      "long": -122.314942,
      "timestamp": 1556827347000,
      "description": "Aid Response",
      "address": "8819 14th Av S,Seattle,WA",
      "units": "E26",
      "entries": 1,
      "neighborhood": "South Park",
      "neighborhoodGroup": "Greater Duwamish"
    }
  },
  {
    "id_str": "F190044169",
    "created_at": "5/2/2019 12:51:30 PM",
    "derived": {
      "lat": 47.723218,
      "long": -122.348195,
      "timestamp": 1556826690000,
      "description": "Aid Response",
      "address": "13000 Linden Av N,Seattle,WA",
      "units": "A31",
      "entries": 1,
      "neighborhood": "Broadview/Bitter Lake",
      "neighborhoodGroup": "Northwest"
    }
  },
  {
    "id_str": "F190044166",
    "created_at": "5/2/2019 12:48:19 PM",
    "derived": {
      "lat": 47.606801,
      "long": -122.333562,
      "timestamp": 1556826499000,
      "description": "Aid Response",
      "address": "1101 4th Av,Seattle,WA",
      "units": "A10",
      "entries": 1,
      "neighborhood": "Downtown Commercial Core",
      "neighborhoodGroup": "Downtown"
    }
  },
  {
    "id_str": "F190044163",
    "created_at": "5/2/2019 12:33:41 PM",
    "derived": {
      "lat": 47.666431,
      "long": -122.373591,
      "timestamp": 1556825621000,
      "description": "Aid Response",
      "address": "1400 Nw 52nd St,Seattle,WA",
      "units": "E18",
      "entries": 1,
      "neighborhood": "Ballard",
      "neighborhoodGroup": "Ballard"
    }
  },
  {
    "id_str": "F190044161",
    "created_at": "5/2/2019 12:22:11 PM",
    "derived": {
      "lat": 47.606976,
      "long": -122.333721,
      "timestamp": 1556824931000,
      "description": "Aid Response",
      "address": "1125 4th Av,Seattle,WA",
      "units": "A10",
      "entries": 1,
      "neighborhood": "Downtown Commercial Core",
      "neighborhoodGroup": "Downtown"
    }
  },
  {
    "id_str": "F190044160",
    "created_at": "5/2/2019 12:10:57 PM",
    "derived": {
      "lat": 47.611656,
      "long": -122.344147,
      "timestamp": 1556824257000,
      "description": "Aid Response",
      "address": "92 Lenora St,Seattle,WA",
      "units": "E5",
      "entries": 1,
      "neighborhood": "Belltown",
      "neighborhoodGroup": "Downtown"
    }
  },
  {
    "id_str": "F190044159",
    "created_at": "5/2/2019 12:07:35 PM",
    "derived": {
      "lat": 47.619997,
      "long": -122.346304,
      "timestamp": 1556824055000,
      "description": "Aid Response",
      "address": "223 Taylor Av N,Seattle,WA",
      "units": "A4",
      "entries": 1,
      "neighborhood": "Cascade/Eastlake",
      "neighborhoodGroup": "Lake Union"
    }
  },
  {
    "id_str": "F190044158",
    "created_at": "5/2/2019 11:58:52 AM",
    "derived": {
      "lat": 47.710417,
      "long": -122.361141,
      "timestamp": 1556823532000,
      "description": "Aid Response",
      "address": "317 Nw 112th St,Seattle,WA",
      "units": "E24",
      "entries": 1,
      "neighborhood": "Broadview/Bitter Lake",
      "neighborhoodGroup": "Northwest"
    }
  },
  {
    "id_str": "F190044157",
    "created_at": "5/2/2019 11:55:08 AM",
    "derived": {
      "lat": 47.588603,
      "long": -122.32597,
      "timestamp": 1556823308000,
      "description": "Aid Response",
      "address": "1653 6th Av S,Seattle,WA",
      "units": "A10",
      "entries": 1,
      "neighborhood": "Duwamish/SODO",
      "neighborhoodGroup": "Greater Duwamish"
    }
  },
  {
    "id_str": "F190044156",
    "created_at": "5/2/2019 11:53:43 AM",
    "derived": {
      "lat": 47.595022,
      "long": -122.387399,
      "timestamp": 1556823223000,
      "description": "Automatic Medical Alarm",
      "address": "1170 Alki Av Sw,Seattle,WA",
      "units": "E29",
      "entries": 1,
      "neighborhood": "Alki/Admiral",
      "neighborhoodGroup": "Southwest"
    }
  },
  {
    "id_str": "F190044154",
    "created_at": "5/2/2019 11:50:30 AM",
    "derived": {
      "lat": 47.65688,
      "long": -122.304811,
      "timestamp": 1556823030000,
      "description": "Aid Response",
      "address": "4072 East Stevens Way Ne,Seattle,WA",
      "units": "E17",
      "entries": 1,
      "neighborhood": "University District",
      "neighborhoodGroup": "Northeast"
    }
  },
  {
    "id_str": "F190044152",
    "created_at": "5/2/2019 11:40:01 AM",
    "derived": {
      "lat": 47.597929,
      "long": -122.299923,
      "timestamp": 1556822401000,
      "description": "Automatic Medical Alarm",
      "address": "525 25th Av S,Seattle,WA",
      "units": "A5",
      "entries": 1,
      "neighborhood": "Madrona/Leschi",
      "neighborhoodGroup": "Central"
    }
  },
  {
    "id_str": "F190044151",
    "created_at": "5/2/2019 11:38:34 AM",
    "derived": {
      "lat": 47.627547,
      "long": -122.339892,
      "timestamp": 1556822314000,
      "description": "Auto Fire Alarm",
      "address": "925 Westlake Av N,Seattle,WA",
      "units": "E2 L4",
      "entries": 1,
      "neighborhood": "Queen Anne",
      "neighborhoodGroup": "Magnolia/Queen Anne"
    }
  },
  {
    "id_str": "F190044149",
    "created_at": "5/2/2019 11:34:04 AM",
    "derived": {
      "lat": 47.661592,
      "long": -122.286606,
      "timestamp": 1556822044000,
      "description": "Aid Response",
      "address": "4540 Sand Point Way Ne,Seattle,WA",
      "units": "E38",
      "entries": 1,
      "neighborhood": "Laurelhurst/Sand Point",
      "neighborhoodGroup": "Northeast"
    }
  },
  {
    "id_str": "F190044147",
    "created_at": "5/2/2019 11:26:57 AM",
    "derived": {
      "lat": 47.621076,
      "long": -122.320892,
      "timestamp": 1556821617000,
      "description": "Aid Response",
      "address": "E Thomas St / Broadway E,Seattle,WA",
      "units": "A25",
      "entries": 1,
      "neighborhood": "Capitol Hill",
      "neighborhoodGroup": "East"
    }
  },
  {
    "id_str": "F190044146",
    "created_at": "5/2/2019 11:10:27 AM",
    "derived": {
      "lat": 47.567382,
      "long": -122.275773,
      "timestamp": 1556820627000,
      "description": "Aid Response",
      "address": "4021 46th Av S,Seattle,WA",
      "units": "E28",
      "entries": 1,
      "neighborhood": "Columbia City",
      "neighborhoodGroup": "Southeast"
    }
  },
  {
    "id_str": "F190044145",
    "created_at": "5/2/2019 11:05:03 AM",
    "derived": {
      "lat": 47.604739,
      "long": -122.336278,
      "timestamp": 1556820303000,
      "description": "Auto Fire Alarm",
      "address": "1007 1st Av,Seattle,WA",
      "units": "E2 L4 L9",
      "entries": 2,
      "neighborhood": "Downtown Commercial Core",
      "neighborhoodGroup": "Downtown"
    }
  },
  {
    "id_str": "F190044144",
    "created_at": "5/2/2019 10:59:49 AM",
    "derived": {
      "lat": 47.710125,
      "long": -122.285344,
      "timestamp": 1556819989000,
      "description": "Aid Response",
      "address": "11302 40th Av Ne,Seattle,WA",
      "units": "E40",
      "entries": 1,
      "neighborhood": "Cedar Park/Meadowbrook",
      "neighborhoodGroup": "North"
    }
  },
  {
    "id_str": "F190044143",
    "created_at": "5/2/2019 10:59:00 AM",
    "derived": {
      "lat": 47.587573,
      "long": -122.329055,
      "timestamp": 1556819940000,
      "description": "Aid Response",
      "address": "1763 4th Av S,Seattle,WA",
      "units": "A14",
      "entries": 1,
      "neighborhood": "Duwamish/SODO",
      "neighborhoodGroup": "Greater Duwamish"
    }
  },
  {
    "id_str": "F190044141",
    "created_at": "5/2/2019 10:51:38 AM",
    "derived": {
      "lat": 47.609402,
      "long": -122.332864,
      "timestamp": 1556819498000,
      "description": "Aid Response",
      "address": "1325 6th Av,Seattle,WA",
      "units": "A2 A4",
      "entries": 2,
      "neighborhood": "First Hill",
      "neighborhoodGroup": "East"
    }
  },
  {
    "id_str": "F190044140",
    "created_at": "5/2/2019 10:49:21 AM",
    "derived": {
      "lat": 47.586203,
      "long": -122.304142,
      "timestamp": 1556819361000,
      "description": "Aid Response",
      "address": "1915 Rainier Av S,Seattle,WA",
      "units": "A5",
      "entries": 1,
      "neighborhood": "North Beacon Hill/Jefferson Park",
      "neighborhoodGroup": "Greater Duwamish"
    }
  },
  {
    "id_str": "F190044138",
    "created_at": "5/2/2019 10:45:40 AM",
    "derived": {
      "lat": 47.575267,
      "long": -122.28364,
      "timestamp": 1556819140000,
      "description": "Medic Response",
      "address": "3200 Cascadia Av S,Seattle,WA",
      "units": "E30 M28",
      "entries": 1,
      "neighborhood": "Mt. Baker/North Rainier",
      "neighborhoodGroup": "Southeast"
    }
  },
  {
    "id_str": "F190044137",
    "created_at": "5/2/2019 10:44:45 AM",
    "derived": {
      "lat": 47.712593,
      "long": -122.311108,
      "timestamp": 1556819085000,
      "description": "Medic Response",
      "address": "11549 16th Av Ne,Seattle,WA",
      "units": "E39 M31",
      "entries": 1,
      "neighborhood": "Olympic Hills/Victory Heights",
      "neighborhoodGroup": "North"
    }
  },
  {
    "id_str": "F190044136",
    "created_at": "5/2/2019 10:44:41 AM",
    "derived": {
      "lat": 47.561072,
      "long": -122.377749,
      "timestamp": 1556819081000,
      "description": "Medic Response",
      "address": "3623 Sw Alaska St,Seattle,WA",
      "units": "E32 M10",
      "entries": 2,
      "neighborhood": "West Seattle Junction/Genesee Hill",
      "neighborhoodGroup": "Southwest"
    }
  },
  {
    "id_str": "F190044135",
    "created_at": "5/2/2019 10:42:47 AM",
    "derived": {
      "lat": 47.600878,
      "long": -122.319366,
      "timestamp": 1556818967000,
      "description": "Brush Fire",
      "address": "10th Av S / S Washington St,Seattle,WA",
      "units": "E2",
      "entries": 1,
      "neighborhood": "Pioneer Square/International District",
      "neighborhoodGroup": "Downtown"
    }
  },
  {
    "id_str": "F190044134",
    "created_at": "5/2/2019 10:28:24 AM",
    "derived": {
      "lat": 47.54887,
      "long": -122.354833,
      "timestamp": 1556818104000,
      "description": "Aid Response",
      "address": "6000 16th Av Sw,Seattle,WA",
      "units": "E37",
      "entries": 1,
      "neighborhood": "Riverview",
      "neighborhoodGroup": "Delridge Neighborhoods"
    }
  },
  {
    "id_str": "F190044133",
    "created_at": "5/2/2019 10:28:24 AM",
    "derived": {
      "lat": 47.640239,
      "long": -122.32346,
      "timestamp": 1556818104000,
      "description": "Auto Fire Alarm",
      "address": "2345 Boylston Av E,Seattle,WA",
      "units": "E22 L9",
      "entries": 1,
      "neighborhood": "Montlake/Portage Bay",
      "neighborhoodGroup": "Northeast"
    }
  },
  {
    "id_str": "F190044131",
    "created_at": "5/2/2019 10:24:59 AM",
    "derived": {
      "lat": 47.608682,
      "long": -122.341421,
      "timestamp": 1556817899000,
      "description": "Aid Response",
      "address": "1533 Western Av,Seattle,WA",
      "units": "A4",
      "entries": 1,
      "neighborhood": "Downtown Commercial Core",
      "neighborhoodGroup": "Downtown"
    }
  },
  {
    "id_str": "F190044130",
    "created_at": "5/2/2019 10:23:38 AM",
    "derived": {
      "lat": 47.618127,
      "long": -122.338419,
      "timestamp": 1556817818000,
      "description": "Auto Fire Alarm",
      "address": "2201 9th Av,Seattle,WA",
      "units": "E2 L4",
      "entries": 1,
      "neighborhood": "Cascade/Eastlake",
      "neighborhoodGroup": "Lake Union"
    }
  },
  {
    "id_str": "F190044129",
    "created_at": "5/2/2019 10:15:11 AM",
    "derived": {
      "lat": 47.587604,
      "long": -122.329054,
      "timestamp": 1556817311000,
      "description": "Aid Response",
      "address": "1760 4th Av S,Seattle,WA",
      "units": "A14",
      "entries": 1,
      "neighborhood": "Duwamish/SODO",
      "neighborhoodGroup": "Greater Duwamish"
    }
  },
  {
    "id_str": "F190044123",
    "created_at": "5/2/2019 10:07:53 AM",
    "derived": {
      "lat": 47.617381,
      "long": -122.305854,
      "timestamp": 1556816873000,
      "description": "Aid Response",
      "address": "2014 E Madison St,Seattle,WA",
      "units": "E25",
      "entries": 1,
      "neighborhood": "Central Area/Squire Park",
      "neighborhoodGroup": "Central"
    }
  },
  {
    "id_str": "F190044118",
    "created_at": "5/2/2019 10:05:36 AM",
    "derived": {
      "lat": 47.521244,
      "long": -122.336301,
      "timestamp": 1556816736000,
      "description": "Automatic Medical Alarm",
      "address": "9200 2nd Av Sw,Seattle,WA",
      "units": "E26",
      "entries": 1,
      "neighborhood": "Highland Park",
      "neighborhoodGroup": "Delridge Neighborhoods"
    }
  },
  {
    "id_str": "F190044117",
    "created_at": "5/2/2019 10:05:11 AM",
    "derived": {
      "lat": 47.594576,
      "long": -122.317924,
      "timestamp": 1556816711000,
      "description": "Car Fire Freeway",
      "address": "Wb I90 To 4,Seattle,WA",
      "units": "E10 E13 L1",
      "entries": 2,
      "neighborhood": "Duwamish/SODO",
      "neighborhoodGroup": "Greater Duwamish"
    }
  },
  {
    "id_str": "F190044116",
    "created_at": "5/2/2019 10:01:35 AM",
    "derived": {
      "lat": 47.663666,
      "long": -122.377037,
      "timestamp": 1556816495000,
      "description": "Aid Response",
      "address": "1553 Nw Leary Way,Seattle,WA",
      "units": "E18",
      "entries": 1,
      "neighborhood": "Ballard",
      "neighborhoodGroup": "Ballard"
    }
  },
  {
    "id_str": "F190044115",
    "created_at": "5/2/2019 9:59:55 AM",
    "derived": {
      "lat": 47.627192,
      "long": -122.356823,
      "timestamp": 1556816395000,
      "description": "Aid Response",
      "address": "11 W Aloha St,Seattle,WA",
      "units": "A2",
      "entries": 1,
      "neighborhood": "Queen Anne",
      "neighborhoodGroup": "Magnolia/Queen Anne"
    }
  },
  {
    "id_str": "F190044114",
    "created_at": "5/2/2019 9:57:16 AM",
    "derived": {
      "lat": 47.615523,
      "long": -122.324477,
      "timestamp": 1556816236000,
      "description": "Aid Response",
      "address": "1627 Belmont Av,Seattle,WA",
      "units": "A25",
      "entries": 1,
      "neighborhood": "Capitol Hill",
      "neighborhoodGroup": "East"
    }
  },
  {
    "id_str": "F190044112",
    "created_at": "5/2/2019 9:54:50 AM",
    "derived": {
      "lat": 47.558988,
      "long": -122.376234,
      "timestamp": 1556816090000,
      "description": "Medic Response",
      "address": "4831 35th Av Sw,Seattle,WA",
      "units": "E32 M1",
      "entries": 1,
      "neighborhood": "West Seattle Junction/Genesee Hill",
      "neighborhoodGroup": "Southwest"
    }
  },
  {
    "id_str": "F190044111",
    "created_at": "5/2/2019 9:50:13 AM",
    "derived": {
      "lat": 47.668683,
      "long": -122.333575,
      "timestamp": 1556815813000,
      "description": "Aid Response",
      "address": "2110 N 55th St,Seattle,WA",
      "units": "E17 L9",
      "entries": 2,
      "neighborhood": "Green Lake",
      "neighborhoodGroup": "Northwest"
    }
  },
  {
    "id_str": "F190044110",
    "created_at": "5/2/2019 9:48:48 AM",
    "derived": {
      "lat": 47.596676,
      "long": -122.32637,
      "timestamp": 1556815728000,
      "description": "Aid Response",
      "address": "700 6th Av S,Seattle,WA",
      "units": "A5 M18",
      "entries": 2,
      "neighborhood": "Pioneer Square/International District",
      "neighborhoodGroup": "Downtown"
    }
  },
  {
    "id_str": "F190044109",
    "created_at": "5/2/2019 9:34:19 AM",
    "derived": {
      "lat": 47.610214,
      "long": -122.336683,
      "timestamp": 1556814859000,
      "description": "Aid Response",
      "address": "1501 4th Av,Seattle,WA",
      "units": "A2",
      "entries": 1,
      "neighborhood": "Downtown Commercial Core",
      "neighborhoodGroup": "Downtown"
    }
  },
  {
    "id_str": "F190044105",
    "created_at": "5/2/2019 9:26:42 AM",
    "derived": {
      "lat": 47.703757,
      "long": -122.374085,
      "timestamp": 1556814402000,
      "description": "Aid Response",
      "address": "10344 14th Av Nw,Seattle,WA",
      "units": "E35",
      "entries": 1,
      "neighborhood": "North Beach/Blue Ridge",
      "neighborhoodGroup": "Ballard"
    }
  },
  {
    "id_str": "F190044104",
    "created_at": "5/2/2019 9:26:33 AM",
    "derived": {
      "lat": 47.601718,
      "long": -122.331581,
      "timestamp": 1556814393000,
      "description": "Medic Response",
      "address": "223 Yesler Way,Seattle,WA",
      "units": "A4 M28",
      "entries": 1,
      "neighborhood": "Downtown Commercial Core",
      "neighborhoodGroup": "Downtown"
    }
  },
  {
    "id_str": "F190044102",
    "created_at": "5/2/2019 9:20:31 AM",
    "derived": {
      "lat": 47.584234,
      "long": -122.299024,
      "timestamp": 1556814031000,
      "description": "Medic Response",
      "address": "2121 26th Av S,Seattle,WA",
      "units": "E6 M1",
      "entries": 1,
      "neighborhood": "Mt. Baker/North Rainier",
      "neighborhoodGroup": "Southeast"
    }
  },
  {
    "id_str": "F190044100",
    "created_at": "5/2/2019 9:14:29 AM",
    "derived": {
      "lat": 47.657942,
      "long": -122.317791,
      "timestamp": 1556813669000,
      "description": "Medic Response",
      "address": "4225 Roosevelt Way Ne,Seattle,WA",
      "units": "E17 L9 M18",
      "entries": 2,
      "neighborhood": "Wallingford",
      "neighborhoodGroup": "Lake Union"
    }
  },
  {
    "id_str": "F190044098",
    "created_at": "5/2/2019 9:10:45 AM",
    "derived": {
      "lat": 47.611943,
      "long": -122.325987,
      "timestamp": 1556813445000,
      "description": "Auto Fire Alarm",
      "address": "1200 University St,Seattle,WA",
      "units": "E25 L1",
      "entries": 1,
      "neighborhood": "First Hill",
      "neighborhoodGroup": "East"
    }
  },
  {
    "id_str": "F190044099",
    "created_at": "5/2/2019 9:10:06 AM",
    "derived": {
      "lat": 47.602985,
      "long": -122.328535,
      "timestamp": 1556813406000,
      "description": "Aid Response",
      "address": "500 5th Av,Seattle,WA",
      "units": "E10",
      "entries": 1,
      "neighborhood": "First Hill",
      "neighborhoodGroup": "East"
    }
  },
  {
    "id_str": "F190044097",
    "created_at": "5/2/2019 9:10:05 AM",
    "derived": {
      "lat": 47.599991,
      "long": -122.330342,
      "timestamp": 1556813405000,
      "description": "Aid Response",
      "address": "3rd Av S / S Main St,Seattle,WA",
      "units": "A5",
      "entries": 1,
      "neighborhood": "Pioneer Square/International District",
      "neighborhoodGroup": "Downtown"
    }
  },
  {
    "id_str": "F190044095",
    "created_at": "5/2/2019 9:07:28 AM",
    "derived": {
      "lat": 47.72526,
      "long": -122.347901,
      "timestamp": 1556813248000,
      "description": "Aid Response",
      "address": "13280 Linden Av N,Seattle,WA",
      "units": "E24",
      "entries": 1,
      "neighborhood": "Broadview/Bitter Lake",
      "neighborhoodGroup": "Northwest"
    }
  },
  {
    "id_str": "F190044094",
    "created_at": "5/2/2019 9:04:17 AM",
    "derived": {
      "lat": 47.617134,
      "long": -122.350886,
      "timestamp": 1556813057000,
      "description": "Auto Fire Alarm",
      "address": "2821 2nd Av,Seattle,WA",
      "units": "E2 L4",
      "entries": 2,
      "neighborhood": "Belltown",
      "neighborhoodGroup": "Downtown"
    }
  },
  {
    "id_str": "F190044092",
    "created_at": "5/2/2019 8:53:12 AM",
    "derived": {
      "lat": 47.569237,
      "long": -122.371429,
      "timestamp": 1556812392000,
      "description": "Rescue Elevator",
      "address": "3021 Sw Bradford St,Seattle,WA",
      "units": "L1 L3",
      "entries": 2,
      "neighborhood": "North Delridge",
      "neighborhoodGroup": "Delridge Neighborhoods"
    }
  },
  {
    "id_str": "F190044091",
    "created_at": "5/2/2019 8:52:03 AM",
    "derived": {
      "lat": 47.694148,
      "long": -122.337827,
      "timestamp": 1556812323000,
      "description": "Medic Response",
      "address": "1700 N 90th St,Seattle,WA",
      "units": "E31 M17",
      "entries": 1,
      "neighborhood": "Licton Springs",
      "neighborhoodGroup": "Northwest"
    }
  },
  {
    "id_str": "F190044088",
    "created_at": "5/2/2019 8:48:05 AM",
    "derived": {
      "lat": 47.684756,
      "long": -122.264472,
      "timestamp": 1556812085000,
      "description": "MVI - Motor Vehicle Incident",
      "address": "Sand Point Way Ne / Ne 77th St,Seattle,WA",
      "units": "E40",
      "entries": 1,
      "neighborhood": "Laurelhurst/Sand Point",
      "neighborhoodGroup": "Northeast"
    }
  },
  {
    "id_str": "F190044087",
    "created_at": "5/2/2019 8:47:16 AM",
    "derived": {
      "lat": 47.558651,
      "long": -122.283385,
      "timestamp": 1556812036000,
      "description": "Aid Response",
      "address": "3909 S Edmunds St,Seattle,WA",
      "units": "L12",
      "entries": 1,
      "neighborhood": "Columbia City",
      "neighborhoodGroup": "Southeast"
    }
  },
  {
    "id_str": "F190044085",
    "created_at": "5/2/2019 8:33:53 AM",
    "derived": {
      "lat": 47.708935,
      "long": -122.320569,
      "timestamp": 1556811233000,
      "description": "Automatic Medical Alarm",
      "address": "11050 8th Av Ne,Seattle,WA",
      "units": "E31",
      "entries": 1,
      "neighborhood": "Northgate/Maple Leaf",
      "neighborhoodGroup": "North"
    }
  },
  {
    "id_str": "F190044084",
    "created_at": "5/2/2019 8:26:54 AM",
    "derived": {
      "lat": 47.571233,
      "long": -122.291003,
      "timestamp": 1556810814000,
      "description": "Medic Response",
      "address": "3642 33rd Av S,Seattle,WA",
      "units": "E28 M10",
      "entries": 2,
      "neighborhood": "Columbia City",
      "neighborhoodGroup": "Southeast"
    }
  },
  {
    "id_str": "F190044082",
    "created_at": "5/2/2019 8:20:17 AM",
    "derived": {
      "lat": 47.607742,
      "long": -122.326595,
      "timestamp": 1556810417000,
      "description": "Aid Response",
      "address": "910 Marion St,Seattle,WA",
      "units": "A10",
      "entries": 1,
      "neighborhood": "First Hill",
      "neighborhoodGroup": "East"
    }
  },
  {
    "id_str": "F190044081",
    "created_at": "5/2/2019 8:18:14 AM",
    "derived": {
      "lat": 47.567999,
      "long": -122.326756,
      "timestamp": 1556810294000,
      "description": "1RED 1 Unit",
      "address": "4005 6th Av S,Seattle,WA",
      "units": "R1",
      "entries": 1,
      "neighborhood": "Duwamish/SODO",
      "neighborhoodGroup": "Greater Duwamish"
    }
  },
  {
    "id_str": "F190044078",
    "created_at": "5/2/2019 8:06:40 AM",
    "derived": {
      "lat": 47.63913,
      "long": -122.388705,
      "timestamp": 1556809600000,
      "description": "Aid Response",
      "address": "2435 W Lynn St,Seattle,WA",
      "units": "E41",
      "entries": 1,
      "neighborhood": "Interbay",
      "neighborhoodGroup": "Magnolia/Queen Anne"
    }
  },
  {
    "id_str": "F190044077",
    "created_at": "5/2/2019 8:05:35 AM",
    "derived": {
      "lat": 47.554742,
      "long": -122.30982,
      "timestamp": 1556809535000,
      "description": "Automatic Fire Alarm Resd",
      "address": "1722 S Bennett St,Seattle,WA",
      "units": "E13",
      "entries": 1,
      "neighborhood": "Beacon Hill",
      "neighborhoodGroup": "Greater Duwamish"
    }
  },
  {
    "id_str": "F190044075",
    "created_at": "5/2/2019 8:00:23 AM",
    "derived": {
      "lat": 47.53865,
      "long": -122.32063,
      "timestamp": 1556809223000,
      "description": "Medic Response, 6 per Rule",
      "address": "Ellis Av S / East Marginal Way S,Seattle,WA",
      "units": "E26 E27 M28",
      "entries": 1,
      "neighborhood": "Georgetown",
      "neighborhoodGroup": "Greater Duwamish"
    }
  },
  {
    "id_str": "F190044074",
    "created_at": "5/2/2019 7:56:34 AM",
    "derived": {
      "lat": 47.653148,
      "long": -122.305313,
      "timestamp": 1556808994000,
      "description": "Aid Response",
      "address": "3800 East Stevens Way Ne,Seattle,WA",
      "units": "E17",
      "entries": 1,
      "neighborhood": "University District",
      "neighborhoodGroup": "Northeast"
    }
  },
  {
    "id_str": "F190044071",
    "created_at": "5/2/2019 7:47:48 AM",
    "derived": {
      "lat": 47.689992,
      "long": -122.355301,
      "timestamp": 1556808468000,
      "description": "Alarm Bell",
      "address": "8421 Greenwood Av N,Seattle,WA",
      "units": "E21 L5",
      "entries": 1,
      "neighborhood": "Greenwood/Phinney Ridge",
      "neighborhoodGroup": "Northwest"
    }
  },
  {
    "id_str": "F190044070",
    "created_at": "5/2/2019 7:43:29 AM",
    "derived": {
      "lat": 47.669446,
      "long": -122.37945,
      "timestamp": 1556808209000,
      "description": "Aid Response",
      "address": "1753 Nw 56th St,Seattle,WA",
      "units": "E18",
      "entries": 1,
      "neighborhood": "Ballard",
      "neighborhoodGroup": "Ballard"
    }
  },
  {
    "id_str": "F190044069",
    "created_at": "5/2/2019 7:39:00 AM",
    "derived": {
      "lat": 47.716325,
      "long": -122.362264,
      "timestamp": 1556807940000,
      "description": "Aid Response",
      "address": "12030 4th Av Nw,Seattle,WA",
      "units": "E24",
      "entries": 1,
      "neighborhood": "Broadview/Bitter Lake",
      "neighborhoodGroup": "Northwest"
    }
  },
  {
    "id_str": "F190044067",
    "created_at": "5/2/2019 7:29:19 AM",
    "derived": {
      "lat": 47.614798,
      "long": -122.348918,
      "timestamp": 1556807359000,
      "description": "Auto Fire Alarm",
      "address": "2519 1st Av,Seattle,WA",
      "units": "E2 L4",
      "entries": 1,
      "neighborhood": "Belltown",
      "neighborhoodGroup": "Downtown"
    }
  },
  {
    "id_str": "F190044066",
    "created_at": "5/2/2019 7:17:36 AM",
    "derived": {
      "lat": 47.699221,
      "long": -122.325766,
      "timestamp": 1556806656000,
      "description": "Medic Response",
      "address": "9709 3rd Av Ne,Seattle,WA",
      "units": "E31 M31",
      "entries": 2,
      "neighborhood": "Northgate/Maple Leaf",
      "neighborhoodGroup": "North"
    }
  },
  {
    "id_str": "F190044064",
    "created_at": "5/2/2019 7:06:01 AM",
    "derived": {
      "lat": 47.553128,
      "long": -122.263687,
      "timestamp": 1556805961000,
      "description": "Water Job Minor",
      "address": "5410 Seward Park Av S,Seattle,WA",
      "units": "E8 L12",
      "entries": 2,
      "neighborhood": "Seward Park",
      "neighborhoodGroup": "Southeast"
    }
  },
  {
    "id_str": "F190044063",
    "created_at": "5/2/2019 6:54:25 AM",
    "derived": {
      "lat": 47.524551,
      "long": -122.377992,
      "timestamp": 1556805265000,
      "description": "Aid Response",
      "address": "8814 36th Av Sw,Seattle,WA",
      "units": "E37",
      "entries": 1,
      "neighborhood": "Roxhill/Westwood",
      "neighborhoodGroup": "Delridge Neighborhoods"
    }
  },
  {
    "id_str": "F190044062",
    "created_at": "5/2/2019 6:52:18 AM",
    "derived": {
      "lat": 47.655631,
      "long": -122.383386,
      "timestamp": 1556805138000,
      "description": "Aid Response",
      "address": "21st Av W / W Emerson Pl,Seattle,WA",
      "units": "E20",
      "entries": 1,
      "neighborhood": "Interbay",
      "neighborhoodGroup": "Magnolia/Queen Anne"
    }
  },
  {
    "id_str": "F190044060",
    "created_at": "5/2/2019 6:39:12 AM",
    "derived": {
      "lat": 47.732044,
      "long": -122.292376,
      "timestamp": 1556804352000,
      "description": "Aid Response",
      "address": "14312 Lake City Way Ne,Seattle,WA",
      "units": "E40",
      "entries": 1,
      "neighborhood": "Cedar Park/Meadowbrook",
      "neighborhoodGroup": "North"
    }
  },
  {
    "id_str": "F190044058",
    "created_at": "5/2/2019 6:33:47 AM",
    "derived": {
      "lat": 47.720932,
      "long": -122.286229,
      "timestamp": 1556804027000,
      "description": "Aid Response",
      "address": "3913 Ne 127th St,Seattle,WA",
      "units": "E39",
      "entries": 1,
      "neighborhood": "Cedar Park/Meadowbrook",
      "neighborhoodGroup": "North"
    }
  },
  {
    "id_str": "F190044055",
    "created_at": "5/2/2019 5:51:33 AM",
    "derived": {
      "lat": 47.719674,
      "long": -122.355539,
      "timestamp": 1556801493000,
      "description": "Medic Response",
      "address": "12509 Greenwood Av N,Seattle,WA",
      "units": "E31 M31",
      "entries": 1,
      "neighborhood": "Broadview/Bitter Lake",
      "neighborhoodGroup": "Northwest"
    }
  },
  {
    "id_str": "F190044054",
    "created_at": "5/2/2019 5:47:13 AM",
    "derived": {
      "lat": 47.614798,
      "long": -122.348918,
      "timestamp": 1556801233000,
      "description": "1RED 1 Unit",
      "address": "2519 1st Av,Seattle,WA",
      "units": "E2",
      "entries": 1,
      "neighborhood": "Belltown",
      "neighborhoodGroup": "Downtown"
    }
  },
  {
    "id_str": "F190044053",
    "created_at": "5/2/2019 5:46:03 AM",
    "derived": {
      "lat": 47.612701,
      "long": -122.334021,
      "timestamp": 1556801163000,
      "description": "Aid Response",
      "address": "721 Pine St,Seattle,WA",
      "units": "A25",
      "entries": 1,
      "neighborhood": "First Hill",
      "neighborhoodGroup": "East"
    }
  },
  {
    "id_str": "F190044051",
    "created_at": "5/2/2019 5:44:28 AM",
    "derived": {
      "lat": 47.733376,
      "long": -122.355569,
      "timestamp": 1556801068000,
      "description": "Aid Response",
      "address": "14419 Greenwood Av N,Seattle,WA",
      "units": "E24",
      "entries": 1,
      "neighborhood": "Broadview/Bitter Lake",
      "neighborhoodGroup": "Northwest"
    }
  },
  {
    "id_str": "F190044050",
    "created_at": "5/2/2019 5:41:19 AM",
    "derived": {
      "lat": 47.600843,
      "long": -122.330271,
      "timestamp": 1556800879000,
      "description": "Aid Response",
      "address": "204 3rd Av S,Seattle,WA",
      "units": "A5",
      "entries": 1,
      "neighborhood": "Pioneer Square/International District",
      "neighborhoodGroup": "Downtown"
    }
  },
  {
    "id_str": "F190044048",
    "created_at": "5/2/2019 5:16:28 AM",
    "derived": {
      "lat": 47.614798,
      "long": -122.348918,
      "timestamp": 1556799388000,
      "description": "Alarm Bell",
      "address": "2519 1st Av,Seattle,WA",
      "units": "E2 L4",
      "entries": 1,
      "neighborhood": "Belltown",
      "neighborhoodGroup": "Downtown"
    }
  },
  {
    "id_str": "F190044047",
    "created_at": "5/2/2019 5:15:02 AM",
    "derived": {
      "lat": 47.683111,
      "long": -122.31749,
      "timestamp": 1556799302000,
      "description": "Aid Response",
      "address": "7501 Roosevelt Way Ne,Seattle,WA",
      "units": "E16",
      "entries": 1,
      "neighborhood": "Green Lake",
      "neighborhoodGroup": "Northwest"
    }
  },
  {
    "id_str": "F190044046",
    "created_at": "5/2/2019 5:13:17 AM",
    "derived": {
      "lat": 47.614585,
      "long": -122.350542,
      "timestamp": 1556799197000,
      "description": "Aid Response",
      "address": "Vine St / Western Av,Seattle,WA",
      "units": "A2",
      "entries": 1,
      "neighborhood": "Belltown",
      "neighborhoodGroup": "Downtown"
    }
  },
  {
    "id_str": "F190044045",
    "created_at": "5/2/2019 5:12:02 AM",
    "derived": {
      "lat": 47.658342,
      "long": -122.31552,
      "timestamp": 1556799122000,
      "description": "Aid Response",
      "address": "12th Av Ne / Ne 42nd St,Seattle,WA",
      "units": "E17",
      "entries": 1,
      "neighborhood": "University District",
      "neighborhoodGroup": "Northeast"
    }
  },
  {
    "id_str": "F190044040",
    "created_at": "5/2/2019 4:59:41 AM",
    "derived": {
      "lat": 47.614798,
      "long": -122.348918,
      "timestamp": 1556798381000,
      "description": "Auto Fire Alarm",
      "address": "2519 1st Av,Seattle,WA",
      "units": "E2 L4",
      "entries": 1,
      "neighborhood": "Belltown",
      "neighborhoodGroup": "Downtown"
    }
  },
  {
    "id_str": "F190044038",
    "created_at": "5/2/2019 4:51:24 AM",
    "derived": {
      "lat": 47.605387,
      "long": -122.327511,
      "timestamp": 1556797884000,
      "description": "Aid Response",
      "address": "710 Cherry St,Seattle,WA",
      "units": "A5",
      "entries": 1,
      "neighborhood": "First Hill",
      "neighborhoodGroup": "East"
    }
  },
  {
    "id_str": "F190044037",
    "created_at": "5/2/2019 4:50:20 AM",
    "derived": {
      "lat": 47.552107,
      "long": -122.316869,
      "timestamp": 1556797820000,
      "description": "1RED 1 Unit",
      "address": "NB I5 AT SPOKANE,Seattle,WA",
      "units": "E27 E36 R1",
      "entries": 3,
      "neighborhood": "Beacon Hill",
      "neighborhoodGroup": "Greater Duwamish"
    }
  },
  {
    "id_str": "F190044036",
    "created_at": "5/2/2019 4:48:15 AM",
    "derived": {
      "lat": 47.561845,
      "long": -122.310824,
      "timestamp": 1556797695000,
      "description": "Aid Response",
      "address": "1660 S Columbian Way,Seattle,WA",
      "units": "E13",
      "entries": 2,
      "neighborhood": "North Beacon Hill/Jefferson Park",
      "neighborhoodGroup": "Greater Duwamish"
    }
  },
  {
    "id_str": "F190044035",
    "created_at": "5/2/2019 4:46:24 AM",
    "derived": {
      "lat": 47.614798,
      "long": -122.348918,
      "timestamp": 1556797584000,
      "description": "Auto Fire Alarm",
      "address": "2519 1st Av,Seattle,WA",
      "units": "E2 L4",
      "entries": 1,
      "neighborhood": "Belltown",
      "neighborhoodGroup": "Downtown"
    }
  },
  {
    "id_str": "F190044033",
    "created_at": "5/2/2019 4:43:57 AM",
    "derived": {
      "lat": 47.679478,
      "long": -122.322726,
      "timestamp": 1556797437000,
      "description": "Medic Response",
      "address": "505 Ne 70th St,Seattle,WA",
      "units": "E16 M17",
      "entries": 2,
      "neighborhood": "Green Lake",
      "neighborhoodGroup": "Northwest"
    }
  },
  {
    "id_str": "F190044032",
    "created_at": "5/2/2019 4:31:13 AM",
    "derived": {
      "lat": 47.547357,
      "long": -122.320152,
      "timestamp": 1556796673000,
      "description": "1RED 1 Unit",
      "address": "Carleton Av S / S Bailey St,Seattle,WA",
      "units": "E36",
      "entries": 1,
      "neighborhood": "Georgetown",
      "neighborhoodGroup": "Greater Duwamish"
    }
  },
  {
    "id_str": "F190044030",
    "created_at": "5/2/2019 4:21:12 AM",
    "derived": {
      "lat": 47.698135,
      "long": -122.35672,
      "timestamp": 1556796072000,
      "description": "Aid Response",
      "address": "9533 Palatine Av N,Seattle,WA",
      "units": "E35",
      "entries": 1,
      "neighborhood": "Greenwood/Phinney Ridge",
      "neighborhoodGroup": "Northwest"
    }
  },
  {
    "id_str": "F190044031",
    "created_at": "5/2/2019 4:20:16 AM",
    "derived": {
      "lat": 47.559045,
      "long": -122.321742,
      "timestamp": 1556796016000,
      "description": "Brush Fire Freeway",
      "address": "Sb I5 At Michigan,Seattle,WA",
      "units": "B5 E13 E30 E36",
      "entries": 1,
      "neighborhood": "Duwamish/SODO",
      "neighborhoodGroup": "Greater Duwamish"
    }
  },
  {
    "id_str": "F190044029",
    "created_at": "5/2/2019 4:19:22 AM",
    "derived": {
      "lat": 47.609343,
      "long": -122.325128,
      "timestamp": 1556795962000,
      "description": "Aid Response",
      "address": "1101 Madison St,Seattle,WA",
      "units": "E25",
      "entries": 1,
      "neighborhood": "First Hill",
      "neighborhoodGroup": "East"
    }
  },
  {
    "id_str": "F190044028",
    "created_at": "5/2/2019 4:18:10 AM",
    "derived": {
      "lat": 47.622073,
      "long": -122.347012,
      "timestamp": 1556795890000,
      "description": "4RED - 2 + 1 + 1",
      "address": "516 Harrison St,Seattle,WA",
      "units": "B2 E10 E8 L10",
      "entries": 2,
      "neighborhood": "Cascade/Eastlake",
      "neighborhoodGroup": "Lake Union"
    }
  },
  {
    "id_str": "F190044027",
    "created_at": "5/2/2019 4:16:48 AM",
    "derived": {
      "lat": 47.62254,
      "long": -122.347588,
      "timestamp": 1556795808000,
      "description": "Auto Fire Alarm",
      "address": "440 5th Av N,Seattle,WA",
      "units": "E2 L6",
      "entries": 1,
      "neighborhood": "Cascade/Eastlake",
      "neighborhoodGroup": "Lake Union"
    }
  },
  {
    "id_str": "F190044026",
    "created_at": "5/2/2019 4:14:03 AM",
    "derived": {
      "lat": 47.611563,
      "long": -122.316779,
      "timestamp": 1556795643000,
      "description": "Medic Response, 7 per Rule",
      "address": "1110 E Spring St,Seattle,WA",
      "units": "A25 E25 M10",
      "entries": 3,
      "neighborhood": "First Hill",
      "neighborhoodGroup": "East"
    }
  },
  {
    "id_str": "F190044025",
    "created_at": "5/2/2019 4:13:23 AM",
    "derived": {
      "lat": 47.602588,
      "long": -122.334202,
      "timestamp": 1556795603000,
      "description": "Medic Response",
      "address": "107 Cherry St,Seattle,WA",
      "units": "A10 M1",
      "entries": 1,
      "neighborhood": "Downtown Commercial Core",
      "neighborhoodGroup": "Downtown"
    }
  },
  {
    "id_str": "F190044023",
    "created_at": "5/2/2019 4:09:40 AM",
    "derived": {
      "lat": 47.610536,
      "long": -122.341711,
      "timestamp": 1556795380000,
      "description": "Auto Fire Alarm",
      "address": "1932 1st Av,Seattle,WA",
      "units": "E5 L4",
      "entries": 1,
      "neighborhood": "Belltown",
      "neighborhoodGroup": "Downtown"
    }
  },
  {
    "id_str": "F190044022",
    "created_at": "5/2/2019 4:02:51 AM",
    "derived": {
      "lat": 47.604991,
      "long": -122.333174,
      "timestamp": 1556794971000,
      "description": "Aid Response",
      "address": "317 Marion St,Seattle,WA",
      "units": "A5",
      "entries": 1,
      "neighborhood": "Downtown Commercial Core",
      "neighborhoodGroup": "Downtown"
    }
  },
  {
    "id_str": "F190044021",
    "created_at": "5/2/2019 3:46:52 AM",
    "derived": {
      "lat": 47.542785,
      "long": -122.354922,
      "timestamp": 1556794012000,
      "description": "Aid Response",
      "address": "6708 16th Av Sw,Seattle,WA",
      "units": "E11",
      "entries": 1,
      "neighborhood": "Riverview",
      "neighborhoodGroup": "Delridge Neighborhoods"
    }
  },
  {
    "id_str": "F190044020",
    "created_at": "5/2/2019 3:27:55 AM",
    "derived": {
      "lat": 47.521411,
      "long": -122.269997,
      "timestamp": 1556792875000,
      "description": "Aid Response",
      "address": "RAINIER AV S / S FISHER PL,Seattle,WA",
      "units": "E33",
      "entries": 1,
      "neighborhood": "Rainier Beach",
      "neighborhoodGroup": "Southeast"
    }
  },
  {
    "id_str": "F190044019",
    "created_at": "5/2/2019 3:22:56 AM",
    "derived": {
      "lat": 47.604991,
      "long": -122.333174,
      "timestamp": 1556792576000,
      "description": "Aid Response",
      "address": "317 Marion St,Seattle,WA",
      "units": "A10",
      "entries": 1,
      "neighborhood": "Downtown Commercial Core",
      "neighborhoodGroup": "Downtown"
    }
  },
  {
    "id_str": "F190044017",
    "created_at": "5/2/2019 3:19:26 AM",
    "derived": {
      "lat": 47.544347,
      "long": -122.373764,
      "timestamp": 1556792366000,
      "description": "Aid Response",
      "address": "6535 32nd Av Sw,Seattle,WA",
      "units": "E37",
      "entries": 1,
      "neighborhood": "High Point",
      "neighborhoodGroup": "Delridge Neighborhoods"
    }
  },
  {
    "id_str": "F190044015",
    "created_at": "5/2/2019 2:59:25 AM",
    "derived": {
      "lat": 47.610357,
      "long": -122.307605,
      "timestamp": 1556791165000,
      "description": "MVI - Motor Vehicle Incident",
      "address": "19th Av / E Marion St,Seattle,WA",
      "units": "E25",
      "entries": 1,
      "neighborhood": "Central Area/Squire Park",
      "neighborhoodGroup": "Central"
    }
  },
  {
    "id_str": "F190044013",
    "created_at": "5/2/2019 2:37:17 AM",
    "derived": {
      "lat": 47.605346,
      "long": -122.319413,
      "timestamp": 1556789837000,
      "description": "Automatic Medical Alarm",
      "address": "415 10th Av,Seattle,WA",
      "units": "A25",
      "entries": 1,
      "neighborhood": "First Hill",
      "neighborhoodGroup": "East"
    }
  },
  {
    "id_str": "F190044014",
    "created_at": "5/2/2019 2:37:12 AM",
    "derived": {
      "lat": 47.594072,
      "long": -122.31015,
      "timestamp": 1556789832000,
      "description": "Scenes Of Violence 7",
      "address": "Rainier Av S / S Charles St,Seattle,WA",
      "units": "A5 B2 E6 M10 M44",
      "entries": 1,
      "neighborhood": "North Beacon Hill/Jefferson Park",
      "neighborhoodGroup": "Greater Duwamish"
    }
  },
  {
    "id_str": "F190044012",
    "created_at": "5/2/2019 2:27:48 AM",
    "derived": {
      "lat": 47.667292,
      "long": -122.319526,
      "timestamp": 1556789268000,
      "description": "Aid Response",
      "address": "5324 8th Av Ne,Seattle,WA",
      "units": "E17",
      "entries": 1,
      "neighborhood": "Wallingford",
      "neighborhoodGroup": "Lake Union"
    }
  },
  {
    "id_str": "F190044009",
    "created_at": "5/2/2019 2:09:12 AM",
    "derived": {
      "lat": 47.619219,
      "long": -122.326346,
      "timestamp": 1556788152000,
      "description": "Aid Response",
      "address": "418 E Loretta Pl,Seattle,WA",
      "units": "A25",
      "entries": 1,
      "neighborhood": "Capitol Hill",
      "neighborhoodGroup": "East"
    }
  },
  {
    "id_str": "F190044007",
    "created_at": "5/2/2019 2:03:04 AM",
    "derived": {
      "lat": 47.664908,
      "long": -122.31421,
      "timestamp": 1556787784000,
      "description": "Aid Response",
      "address": "Brooklyn Av Ne / Ne 50th St,Seattle,WA",
      "units": "E17",
      "entries": 1,
      "neighborhood": "University District",
      "neighborhoodGroup": "Northeast"
    }
  },
  {
    "id_str": "F190044005",
    "created_at": "5/2/2019 1:56:23 AM",
    "derived": {
      "lat": 47.557847,
      "long": -122.28456,
      "timestamp": 1556787383000,
      "description": "Medic Response",
      "address": "3830 S Ferdinand St,Seattle,WA",
      "units": "E28 M28",
      "entries": 1,
      "neighborhood": "Columbia City",
      "neighborhoodGroup": "Southeast"
    }
  },
  {
    "id_str": "F190044004",
    "created_at": "5/2/2019 1:53:08 AM",
    "derived": {
      "lat": 47.602172,
      "long": -122.330863,
      "timestamp": 1556787188000,
      "description": "Aid Response",
      "address": "517 3rd Av,Seattle,WA",
      "units": "A5",
      "entries": 1,
      "neighborhood": "Downtown Commercial Core",
      "neighborhoodGroup": "Downtown"
    }
  },
  {
    "id_str": "F190044001",
    "created_at": "5/2/2019 1:42:33 AM",
    "derived": {
      "lat": 47.61855,
      "long": -122.342402,
      "timestamp": 1556786553000,
      "description": "Aid Response",
      "address": "Denny Way / Dexter Av N,Seattle,WA",
      "units": "A2",
      "entries": 1,
      "neighborhood": "Cascade/Eastlake",
      "neighborhoodGroup": "Lake Union"
    }
  },
  {
    "id_str": "F190043998",
    "created_at": "5/2/2019 1:35:16 AM",
    "derived": {
      "lat": 47.607763,
      "long": -122.335976,
      "timestamp": 1556786116000,
      "description": "Aid Response",
      "address": "3rd Av / University St,Seattle,WA",
      "units": "A10",
      "entries": 1,
      "neighborhood": "Downtown Commercial Core",
      "neighborhoodGroup": "Downtown"
    }
  },
  {
    "id_str": "F190043997",
    "created_at": "5/2/2019 1:35:07 AM",
    "derived": {
      "lat": 47.62975,
      "long": -122.356619,
      "timestamp": 1556786107000,
      "description": "Aid Response",
      "address": "1221 Queen Anne Av N,Seattle,WA",
      "units": "E8",
      "entries": 1,
      "neighborhood": "Queen Anne",
      "neighborhoodGroup": "Magnolia/Queen Anne"
    }
  },
  {
    "id_str": "F190043996",
    "created_at": "5/2/2019 1:33:35 AM",
    "derived": {
      "lat": 47.535515,
      "long": -122.36216,
      "timestamp": 1556786015000,
      "description": "Aid Response",
      "address": "2300 Sw Webster St,Seattle,WA",
      "units": "E11",
      "entries": 1,
      "neighborhood": "High Point",
      "neighborhoodGroup": "Delridge Neighborhoods"
    }
  },
  {
    "id_str": "F190043993",
    "created_at": "5/2/2019 1:25:06 AM",
    "derived": {
      "lat": 47.575086,
      "long": -122.30844,
      "timestamp": 1556785506000,
      "description": "Hang-Up, Aid",
      "address": "1806 S Hanford St,Seattle,WA",
      "units": "E13",
      "entries": 1,
      "neighborhood": "North Beacon Hill/Jefferson Park",
      "neighborhoodGroup": "Greater Duwamish"
    }
  },
  {
    "id_str": "F190043991",
    "created_at": "5/2/2019 1:24:33 AM",
    "derived": {
      "lat": 47.689837,
      "long": -122.355083,
      "timestamp": 1556785473000,
      "description": "Aid Response",
      "address": "316 N 84th St,Seattle,WA",
      "units": "E21",
      "entries": 1,
      "neighborhood": "Greenwood/Phinney Ridge",
      "neighborhoodGroup": "Northwest"
    }
  },
  {
    "id_str": "F190043990",
    "created_at": "5/2/2019 1:21:24 AM",
    "derived": {
      "lat": 47.669446,
      "long": -122.37945,
      "timestamp": 1556785284000,
      "description": "Medic Response",
      "address": "1753 Nw 56th St,Seattle,WA",
      "units": "E18 M18",
      "entries": 1,
      "neighborhood": "Ballard",
      "neighborhoodGroup": "Ballard"
    }
  },
  {
    "id_str": "F190043987",
    "created_at": "5/2/2019 1:08:25 AM",
    "derived": {
      "lat": 47.603593,
      "long": -122.322954,
      "timestamp": 1556784505000,
      "description": "Aid Response",
      "address": "326 9th Av,Seattle,WA",
      "units": "A5",
      "entries": 1,
      "neighborhood": "First Hill",
      "neighborhoodGroup": "East"
    }
  },
  {
    "id_str": "F190043986",
    "created_at": "5/2/2019 12:59:25 AM",
    "derived": {
      "lat": 47.623682,
      "long": -122.310011,
      "timestamp": 1556783965000,
      "description": "Scenes Of Violence 7",
      "address": "535 17th Av E,Seattle,WA",
      "units": "A25 B2 E25 M1 M44",
      "entries": 1,
      "neighborhood": "Miller Park",
      "neighborhoodGroup": "East"
    }
  },
  {
    "id_str": "F190043985",
    "created_at": "5/2/2019 12:44:16 AM",
    "derived": {
      "lat": 47.632618,
      "long": -122.342281,
      "timestamp": 1556783056000,
      "description": "Aid Response",
      "address": "1511 Dexter Av N,Seattle,WA",
      "units": "A2",
      "entries": 1,
      "neighborhood": "Queen Anne",
      "neighborhoodGroup": "Magnolia/Queen Anne"
    }
  },
  {
    "id_str": "F190043984",
    "created_at": "5/2/2019 12:39:36 AM",
    "derived": {
      "lat": 47.690595,
      "long": -122.355302,
      "timestamp": 1556782776000,
      "description": "Alarm Bell",
      "address": "N 85th St / Greenwood Av N,Seattle,WA",
      "units": "E21",
      "entries": 1,
      "neighborhood": "Greenwood/Phinney Ridge",
      "neighborhoodGroup": "Northwest"
    }
  },
  {
    "id_str": "F190043983",
    "created_at": "5/2/2019 12:32:40 AM",
    "derived": {
      "lat": 47.553398,
      "long": -122.278378,
      "timestamp": 1556782360000,
      "description": "Medic Response, 6 per Rule",
      "address": "4440 S Brandon St,Seattle,WA",
      "units": "E28 L12 M28",
      "entries": 1,
      "neighborhood": "Columbia City",
      "neighborhoodGroup": "Southeast"
    }
  },
  {
    "id_str": "F190043982",
    "created_at": "5/2/2019 12:27:59 AM",
    "derived": {
      "lat": 47.600194,
      "long": -122.330541,
      "timestamp": 1556782079000,
      "description": "Aid Response",
      "address": "318 2nd Av Et S,Seattle,WA",
      "units": "A10",
      "entries": 1,
      "neighborhood": "Pioneer Square/International District",
      "neighborhoodGroup": "Downtown"
    }
  },
  {
    "id_str": "F190043981",
    "created_at": "5/2/2019 12:25:08 AM",
    "derived": {
      "lat": 47.609634,
      "long": -122.326789,
      "timestamp": 1556781908000,
      "description": "Medic Response",
      "address": "1010 Spring St,Seattle,WA",
      "units": "A25 M1",
      "entries": 1,
      "neighborhood": "First Hill",
      "neighborhoodGroup": "East"
    }
  },
  {
    "id_str": "F190043979",
    "created_at": "5/2/2019 12:22:19 AM",
    "derived": {
      "lat": 47.533698,
      "long": -122.363185,
      "timestamp": 1556781739000,
      "description": "Aid Response",
      "address": "2401 Sw Holden St,Seattle,WA",
      "units": "E37",
      "entries": 1,
      "neighborhood": "High Point",
      "neighborhoodGroup": "Delridge Neighborhoods"
    }
  },
  {
    "id_str": "F190043976",
    "created_at": "5/2/2019 12:03:21 AM",
    "derived": {
      "lat": 47.673808,
      "long": -122.366806,
      "timestamp": 1556780601000,
      "description": "Automatic Medical Alarm",
      "address": "827 Nw 62nd St,Seattle,WA",
      "units": "E18",
      "entries": 1,
      "neighborhood": "Whittier Heights",
      "neighborhoodGroup": "Ballard"
    }
  },
  {
    "id_str": "F190043974",
    "created_at": "5/1/2019 11:56:23 PM",
    "derived": {
      "lat": 47.66005,
      "long": -122.312025,
      "timestamp": 1556780183000,
      "description": "Auto Fire Alarm",
      "address": "4337 15th Av Ne,Seattle,WA",
      "units": "E17 L9",
      "entries": 1,
      "neighborhood": "University District",
      "neighborhoodGroup": "Northeast"
    }
  },
  {
    "id_str": "F190043973",
    "created_at": "5/1/2019 11:54:51 PM",
    "derived": {
      "lat": 47.606018,
      "long": -122.323641,
      "timestamp": 1556780091000,
      "description": "Hang-Up, Aid",
      "address": "James St / Terry Av,Seattle,WA",
      "units": "A5",
      "entries": 1,
      "neighborhood": "First Hill",
      "neighborhoodGroup": "East"
    }
  },
  {
    "id_str": "F190043970",
    "created_at": "5/1/2019 11:15:18 PM",
    "derived": {
      "lat": 47.58532,
      "long": -122.383278,
      "timestamp": 1556777718000,
      "description": "Aid Response",
      "address": "4064 Sw Hill St,Seattle,WA",
      "units": "E29",
      "entries": 1,
      "neighborhood": "Alki/Admiral",
      "neighborhoodGroup": "Southwest"
    }
  },
  {
    "id_str": "F190043969",
    "created_at": "5/1/2019 11:07:36 PM",
    "derived": {
      "lat": 47.608682,
      "long": -122.341421,
      "timestamp": 1556777256000,
      "description": "Aid Response",
      "address": "1533 Western Av,Seattle,WA",
      "units": "E5",
      "entries": 1,
      "neighborhood": "Downtown Commercial Core",
      "neighborhoodGroup": "Downtown"
    }
  },
  {
    "id_str": "F190043965",
    "created_at": "5/1/2019 10:57:33 PM",
    "derived": {
      "lat": 47.602114,
      "long": -122.330809,
      "timestamp": 1556776653000,
      "description": "Aid Response",
      "address": "509 3rd Av,Seattle,WA",
      "units": "A5",
      "entries": 1,
      "neighborhood": "Downtown Commercial Core",
      "neighborhoodGroup": "Downtown"
    }
  },
  {
    "id_str": "F190043963",
    "created_at": "5/1/2019 10:40:10 PM",
    "derived": {
      "lat": 47.620742,
      "long": -122.328647,
      "timestamp": 1556775610000,
      "description": "Aid Response Freeway",
      "address": "Sb I5 At Denny,Seattle,WA",
      "units": "A2 A25 E2 E25",
      "entries": 2,
      "neighborhood": "Cascade/Eastlake",
      "neighborhoodGroup": "Lake Union"
    }
  },
  {
    "id_str": "F190043961",
    "created_at": "5/1/2019 10:32:33 PM",
    "derived": {
      "lat": 47.503353,
      "long": -122.262794,
      "timestamp": 1556775153000,
      "description": "Aid Response",
      "address": "5615 S Fountain St,Seattle,WA",
      "units": "E33",
      "entries": 1,
      "neighborhood": "Rainier Beach",
      "neighborhoodGroup": "Southeast"
    }
  },
  {
    "id_str": "F190043959",
    "created_at": "5/1/2019 10:29:13 PM",
    "derived": {
      "lat": 47.548171,
      "long": -122.373688,
      "timestamp": 1556774953000,
      "description": "Aid Response",
      "address": "6025 Lanham Pl Sw,Seattle,WA",
      "units": "E37",
      "entries": 1,
      "neighborhood": "High Point",
      "neighborhoodGroup": "Delridge Neighborhoods"
    }
  },
  {
    "id_str": "F190043957",
    "created_at": "5/1/2019 10:17:04 PM",
    "derived": {
      "lat": 47.624552,
      "long": -122.338435,
      "timestamp": 1556774224000,
      "description": "Aid Response",
      "address": "Mercer St / Westlake Av N,Seattle,WA",
      "units": "A2",
      "entries": 1,
      "neighborhood": "Cascade/Eastlake",
      "neighborhoodGroup": "Lake Union"
    }
  },
  {
    "id_str": "F190043956",
    "created_at": "5/1/2019 10:14:52 PM",
    "derived": {
      "lat": 47.548953,
      "long": -122.302251,
      "timestamp": 1556774092000,
      "description": "Aid Response",
      "address": "5940 24th Av S,Seattle,WA",
      "units": "E13",
      "entries": 1,
      "neighborhood": "Beacon Hill",
      "neighborhoodGroup": "Greater Duwamish"
    }
  },
  {
    "id_str": "F190043955",
    "created_at": "5/1/2019 10:09:10 PM",
    "derived": {
      "lat": 47.696178,
      "long": -122.360692,
      "timestamp": 1556773750000,
      "description": "Medic Response",
      "address": "9223 3rd Av Nw,Seattle,WA",
      "units": "E35 M18",
      "entries": 1,
      "neighborhood": "Greenwood/Phinney Ridge",
      "neighborhoodGroup": "Northwest"
    }
  },
  {
    "id_str": "F190043954",
    "created_at": "5/1/2019 10:03:58 PM",
    "derived": {
      "lat": 47.664876,
      "long": -122.309476,
      "timestamp": 1556773438000,
      "description": "Aid Response",
      "address": "17th Av Ne / Ne 50th St,Seattle,WA",
      "units": "E17",
      "entries": 1,
      "neighborhood": "University District",
      "neighborhoodGroup": "Northeast"
    }
  },
  {
    "id_str": "F190043953",
    "created_at": "5/1/2019 10:02:17 PM",
    "derived": {
      "lat": 47.615477,
      "long": -122.30744,
      "timestamp": 1556773337000,
      "description": "Auto Fire Alarm",
      "address": "1615 19th Av,Seattle,WA",
      "units": "E25 L10",
      "entries": 1,
      "neighborhood": "Central Area/Squire Park",
      "neighborhoodGroup": "Central"
    }
  },
  {
    "id_str": "F190043951",
    "created_at": "5/1/2019 9:53:00 PM",
    "derived": {
      "lat": 47.677657,
      "long": -122.297382,
      "timestamp": 1556772780000,
      "description": "Aid Response",
      "address": "6806 28th Av Ne,Seattle,WA",
      "units": "E38",
      "entries": 1,
      "neighborhood": "Ravenna/Bryant",
      "neighborhoodGroup": "Northeast"
    }
  },
  {
    "id_str": "F190043949",
    "created_at": "5/1/2019 9:43:52 PM",
    "derived": {
      "lat": 47.598292,
      "long": -122.334191,
      "timestamp": 1556772232000,
      "description": "Aid Response",
      "address": "S King St / 1st Av S,Seattle,WA",
      "units": "A10",
      "entries": 1,
      "neighborhood": "Duwamish/SODO",
      "neighborhoodGroup": "Greater Duwamish"
    }
  },
  {
    "id_str": "F190043947",
    "created_at": "5/1/2019 9:36:47 PM",
    "derived": {
      "lat": 47.618571,
      "long": -122.347621,
      "timestamp": 1556771807000,
      "description": "Aid Response",
      "address": "5th Av / Denny Way,Seattle,WA",
      "units": "E2",
      "entries": 1,
      "neighborhood": "Cascade/Eastlake",
      "neighborhoodGroup": "Lake Union"
    }
  },
  {
    "id_str": "F190043946",
    "created_at": "5/1/2019 9:36:04 PM",
    "derived": {
      "lat": 47.569237,
      "long": -122.371429,
      "timestamp": 1556771764000,
      "description": "Aid Response",
      "address": "3021 Sw Bradford St,Seattle,WA",
      "units": "E36",
      "entries": 1,
      "neighborhood": "North Delridge",
      "neighborhoodGroup": "Delridge Neighborhoods"
    }
  },
  {
    "id_str": "F190043945",
    "created_at": "5/1/2019 9:30:25 PM",
    "derived": {
      "lat": 47.696178,
      "long": -122.360692,
      "timestamp": 1556771425000,
      "description": "Medic Response",
      "address": "9223 3rd Av Nw,Seattle,WA",
      "units": "E35 M18",
      "entries": 1,
      "neighborhood": "Greenwood/Phinney Ridge",
      "neighborhoodGroup": "Northwest"
    }
  },
  {
    "id_str": "F190043944",
    "created_at": "5/1/2019 9:27:37 PM",
    "derived": {
      "lat": 47.710081,
      "long": -122.325994,
      "timestamp": 1556771257000,
      "description": "Aid Response",
      "address": "11255 3rd Av Ne,Seattle,WA",
      "units": "E31",
      "entries": 1,
      "neighborhood": "Northgate/Maple Leaf",
      "neighborhoodGroup": "North"
    }
  },
  {
    "id_str": "F190043937",
    "created_at": "5/1/2019 9:21:20 PM",
    "derived": {
      "lat": 47.595825,
      "long": -122.319215,
      "timestamp": 1556770880000,
      "description": "1RED 1 Unit",
      "address": "10th Av S / S Dearborn St,Seattle,WA",
      "units": "E10 E6",
      "entries": 2,
      "neighborhood": "Pioneer Square/International District",
      "neighborhoodGroup": "Downtown"
    }
  },
  {
    "id_str": "F190043938",
    "created_at": "5/1/2019 9:21:16 PM",
    "derived": {
      "lat": 47.624578,
      "long": -122.355404,
      "timestamp": 1556770876000,
      "description": "Medic Response",
      "address": "600 1st Av N,Seattle,WA",
      "units": "A2 M10",
      "entries": 1,
      "neighborhood": "Queen Anne",
      "neighborhoodGroup": "Magnolia/Queen Anne"
    }
  },
  {
    "id_str": "F190043936",
    "created_at": "5/1/2019 9:18:14 PM",
    "derived": {
      "lat": 47.538889,
      "long": -122.280616,
      "timestamp": 1556770694000,
      "description": "MVI - Motor Vehicle Incident",
      "address": "42nd Av S / S Myrtle St,Seattle,WA",
      "units": "E28",
      "entries": 1,
      "neighborhood": "Columbia City",
      "neighborhoodGroup": "Southeast"
    }
  },
  {
    "id_str": "F190043934",
    "created_at": "5/1/2019 9:08:20 PM",
    "derived": {
      "lat": 47.514444,
      "long": -122.270038,
      "timestamp": 1556770100000,
      "description": "Activated CO Detector",
      "address": "9690 51st Av S,Seattle,WA",
      "units": "L12",
      "entries": 1,
      "neighborhood": "Rainier Beach",
      "neighborhoodGroup": "Southeast"
    }
  },
  {
    "id_str": "F190043932",
    "created_at": "5/1/2019 9:04:39 PM",
    "derived": {
      "lat": 47.71957,
      "long": -122.337957,
      "timestamp": 1556769879000,
      "description": "Illegal Burn",
      "address": "1749 N 125th St,Seattle,WA",
      "units": "E31",
      "entries": 1,
      "neighborhood": "Haller Lake",
      "neighborhoodGroup": "Northwest"
    }
  },
  {
    "id_str": "F190043930",
    "created_at": "5/1/2019 9:01:08 PM",
    "derived": {
      "lat": 47.605346,
      "long": -122.319413,
      "timestamp": 1556769668000,
      "description": "Aid Response",
      "address": "415 10th Av,Seattle,WA",
      "units": "A25",
      "entries": 1,
      "neighborhood": "First Hill",
      "neighborhoodGroup": "East"
    }
  },
  {
    "id_str": "F190043929",
    "created_at": "5/1/2019 9:00:28 PM",
    "derived": {
      "lat": 47.717877,
      "long": -122.37168,
      "timestamp": 1556769628000,
      "description": "Medic Response",
      "address": "Nw 122nd St / 12th Av Nw,Seattle,WA",
      "units": "E24 M31",
      "entries": 2,
      "neighborhood": "Broadview/Bitter Lake",
      "neighborhoodGroup": "Northwest"
    }
  },
  {
    "id_str": "F190043928",
    "created_at": "5/1/2019 8:47:15 PM",
    "derived": {
      "lat": 47.584234,
      "long": -122.299024,
      "timestamp": 1556768835000,
      "description": "Aid Response",
      "address": "2121 26th Av S,Seattle,WA",
      "units": "E30",
      "entries": 1,
      "neighborhood": "Mt. Baker/North Rainier",
      "neighborhoodGroup": "Southeast"
    }
  },
  {
    "id_str": "F190043927",
    "created_at": "5/1/2019 8:45:13 PM",
    "derived": {
      "lat": 47.613416,
      "long": -122.34646,
      "timestamp": 1556768713000,
      "description": "Aid Response",
      "address": "106 Bell St,Seattle,WA",
      "units": "A2 L4",
      "entries": 2,
      "neighborhood": "Belltown",
      "neighborhoodGroup": "Downtown"
    }
  },
  {
    "id_str": "F190043926",
    "created_at": "5/1/2019 8:40:00 PM",
    "derived": {
      "lat": 47.627192,
      "long": -122.356823,
      "timestamp": 1556768400000,
      "description": "Medic Response",
      "address": "11 W Aloha St,Seattle,WA",
      "units": "E8 M10",
      "entries": 2,
      "neighborhood": "Queen Anne",
      "neighborhoodGroup": "Magnolia/Queen Anne"
    }
  },
  {
    "id_str": "F190043924",
    "created_at": "5/1/2019 8:35:04 PM",
    "derived": {
      "lat": 47.719378,
      "long": -122.292729,
      "timestamp": 1556768104000,
      "description": "Aid Response",
      "address": "12517 33rd Av Ne,Seattle,WA",
      "units": "E27 E39 E40",
      "entries": 3,
      "neighborhood": "Cedar Park/Meadowbrook",
      "neighborhoodGroup": "North"
    }
  },
  {
    "id_str": "F190043923",
    "created_at": "5/1/2019 8:32:33 PM",
    "derived": {
      "lat": 47.610343,
      "long": -122.343654,
      "timestamp": 1556767953000,
      "description": "Auto Fire Alarm",
      "address": "2003 Western Av,Seattle,WA",
      "units": "E5 L4",
      "entries": 1,
      "neighborhood": "Downtown Commercial Core",
      "neighborhoodGroup": "Downtown"
    }
  },
  {
    "id_str": "F190043922",
    "created_at": "5/1/2019 8:31:14 PM",
    "derived": {
      "lat": 47.547613,
      "long": -122.303352,
      "timestamp": 1556767874000,
      "description": "Aid Response",
      "address": "6100 Gould Av S,Seattle,WA",
      "units": "E27",
      "entries": 1,
      "neighborhood": "Beacon Hill",
      "neighborhoodGroup": "Greater Duwamish"
    }
  },
  {
    "id_str": "F190043921",
    "created_at": "5/1/2019 8:19:44 PM",
    "derived": {
      "lat": 47.610321,
      "long": -122.343637,
      "timestamp": 1556767184000,
      "description": "Aid Response",
      "address": "2001 Western Av,Seattle,WA",
      "units": "A2",
      "entries": 1,
      "neighborhood": "Downtown Commercial Core",
      "neighborhoodGroup": "Downtown"
    }
  },
  {
    "id_str": "F190043920",
    "created_at": "5/1/2019 8:16:45 PM",
    "derived": {
      "lat": 47.546215,
      "long": -122.375056,
      "timestamp": 1556767005000,
      "description": "Medic Response",
      "address": "6339 34th Av Sw,Seattle,WA",
      "units": "E37 M32",
      "entries": 1,
      "neighborhood": "High Point",
      "neighborhoodGroup": "Delridge Neighborhoods"
    }
  },
  {
    "id_str": "F190043916",
    "created_at": "5/1/2019 8:06:39 PM",
    "derived": {
      "lat": 47.619877,
      "long": -122.331698,
      "timestamp": 1556766399000,
      "description": "Aid Response",
      "address": "219 Pontius Av N,Seattle,WA",
      "units": "A4",
      "entries": 1,
      "neighborhood": "Cascade/Eastlake",
      "neighborhoodGroup": "Lake Union"
    }
  },
  {
    "id_str": "F190043915",
    "created_at": "5/1/2019 8:04:53 PM",
    "derived": {
      "lat": 47.593232,
      "long": -122.334194,
      "timestamp": 1556766293000,
      "description": "Aid Response Yellow",
      "address": "1046 1st Av S,Seattle,WA",
      "units": "L1",
      "entries": 1,
      "neighborhood": "Duwamish/SODO",
      "neighborhoodGroup": "Greater Duwamish"
    }
  },
  {
    "id_str": "F190043913",
    "created_at": "5/1/2019 8:02:29 PM",
    "derived": {
      "lat": 47.613466,
      "long": -122.328913,
      "timestamp": 1556766149000,
      "description": "MVI - Motor Vehicle Incident",
      "address": "Boren Av / Pike St,Seattle,WA",
      "units": "E25",
      "entries": 1,
      "neighborhood": "First Hill",
      "neighborhoodGroup": "East"
    }
  },
  {
    "id_str": "F190043914",
    "created_at": "5/1/2019 8:02:10 PM",
    "derived": {
      "lat": 47.606444,
      "long": -122.325563,
      "timestamp": 1556766130000,
      "description": "Aid Response",
      "address": "725 9th Av,Seattle,WA",
      "units": "E10",
      "entries": 1,
      "neighborhood": "First Hill",
      "neighborhoodGroup": "East"
    }
  },
  {
    "id_str": "F190043912",
    "created_at": "5/1/2019 7:59:47 PM",
    "derived": {
      "lat": 47.604197,
      "long": -122.332714,
      "timestamp": 1556765987000,
      "description": "Aid Response",
      "address": "3rd Av / Columbia St,Seattle,WA",
      "units": "A5",
      "entries": 1,
      "neighborhood": "Downtown Commercial Core",
      "neighborhoodGroup": "Downtown"
    }
  },
  {
    "id_str": "F190043911",
    "created_at": "5/1/2019 7:57:40 PM",
    "derived": {
      "lat": 47.661349,
      "long": -122.326179,
      "timestamp": 1556765860000,
      "description": "Aid Response",
      "address": "Ne 45th St / Thackeray Pl Ne,Seattle,WA",
      "units": "L9",
      "entries": 1,
      "neighborhood": "Wallingford",
      "neighborhoodGroup": "Lake Union"
    }
  },
  {
    "id_str": "F190043910",
    "created_at": "5/1/2019 7:56:13 PM",
    "derived": {
      "lat": 47.732314,
      "long": -122.353012,
      "timestamp": 1556765773000,
      "description": "Aid Response",
      "address": "501 N 143rd St,Seattle,WA",
      "units": "E24",
      "entries": 1,
      "neighborhood": "Broadview/Bitter Lake",
      "neighborhoodGroup": "Northwest"
    }
  },
  {
    "id_str": "F190043908",
    "created_at": "5/1/2019 7:51:23 PM",
    "derived": {
      "lat": 47.649847,
      "long": -122.344754,
      "timestamp": 1556765483000,
      "description": "Medic Response",
      "address": "3512 Albion Pl N,Seattle,WA",
      "units": "E17 L6 M17",
      "entries": 2,
      "neighborhood": "Fremont",
      "neighborhoodGroup": "Lake Union"
    }
  },
  {
    "id_str": "F190043907",
    "created_at": "5/1/2019 7:50:13 PM",
    "derived": {
      "lat": 47.593217,
      "long": -122.317281,
      "timestamp": 1556765413000,
      "description": "1RED 1 Unit",
      "address": "1007 12th Av S,Seattle,WA",
      "units": "E13",
      "entries": 1,
      "neighborhood": "Duwamish/SODO",
      "neighborhoodGroup": "Greater Duwamish"
    }
  },
  {
    "id_str": "F190043905",
    "created_at": "5/1/2019 7:45:42 PM",
    "derived": {
      "lat": 47.662127,
      "long": -122.346089,
      "timestamp": 1556765142000,
      "description": "Aid Response",
      "address": "Green Lake Way N / Whitman Av N,Seattle,WA",
      "units": "E9",
      "entries": 1,
      "neighborhood": "Wallingford",
      "neighborhoodGroup": "Lake Union"
    }
  },
  {
    "id_str": "F190043904",
    "created_at": "5/1/2019 7:43:56 PM",
    "derived": {
      "lat": 47.598353,
      "long": -122.325793,
      "timestamp": 1556765036000,
      "description": "Water Job Minor",
      "address": "621 S King St,Seattle,WA",
      "units": "L1",
      "entries": 1,
      "neighborhood": "Pioneer Square/International District",
      "neighborhoodGroup": "Downtown"
    }
  },
  {
    "id_str": "F190043903",
    "created_at": "5/1/2019 7:43:46 PM",
    "derived": {
      "lat": 47.603588,
      "long": -122.322949,
      "timestamp": 1556765026000,
      "description": "Medic Response",
      "address": "325 9th Av,Seattle,WA",
      "units": "A10 M1 M44",
      "entries": 2,
      "neighborhood": "First Hill",
      "neighborhoodGroup": "East"
    }
  },
  {
    "id_str": "F190043902",
    "created_at": "5/1/2019 7:42:11 PM",
    "derived": {
      "lat": 47.637416,
      "long": -122.355598,
      "timestamp": 1556764931000,
      "description": "Auto Fire Alarm",
      "address": "100 Crockett St,Seattle,WA",
      "units": "E8 L6",
      "entries": 1,
      "neighborhood": "Queen Anne",
      "neighborhoodGroup": "Magnolia/Queen Anne"
    }
  },
  {
    "id_str": "F190043900",
    "created_at": "5/1/2019 7:33:49 PM",
    "derived": {
      "lat": 47.710863,
      "long": -122.281103,
      "timestamp": 1556764429000,
      "description": "Aid Response Yellow",
      "address": "11320 Sand Point Way Ne,Seattle,WA",
      "units": "E40",
      "entries": 1,
      "neighborhood": "Cedar Park/Meadowbrook",
      "neighborhoodGroup": "North"
    }
  },
  {
    "id_str": "F190043897",
    "created_at": "5/1/2019 7:18:34 PM",
    "derived": {
      "lat": 47.656934,
      "long": -122.306058,
      "timestamp": 1556763514000,
      "description": "Aid Response",
      "address": "2023 Ne Skagit Ln,Seattle,WA",
      "units": "E17",
      "entries": 1,
      "neighborhood": "University District",
      "neighborhoodGroup": "Northeast"
    }
  },
  {
    "id_str": "F190043895",
    "created_at": "5/1/2019 7:08:55 PM",
    "derived": {
      "lat": 47.721329,
      "long": -122.296339,
      "timestamp": 1556762935000,
      "description": "Aid Response",
      "address": "12740 30th Av Ne,Seattle,WA",
      "units": "E39",
      "entries": 1,
      "neighborhood": "Cedar Park/Meadowbrook",
      "neighborhoodGroup": "North"
    }
  },
  {
    "id_str": "F190043894",
    "created_at": "5/1/2019 7:08:44 PM",
    "derived": {
      "lat": 47.600194,
      "long": -122.330541,
      "timestamp": 1556762924000,
      "description": "Aid Response",
      "address": "318 2nd Av Et S,Seattle,WA",
      "units": "A5",
      "entries": 1,
      "neighborhood": "Pioneer Square/International District",
      "neighborhoodGroup": "Downtown"
    }
  },
  {
    "id_str": "F190043890",
    "created_at": "5/1/2019 7:00:06 PM",
    "derived": {
      "lat": 47.606628,
      "long": -122.312857,
      "timestamp": 1556762406000,
      "description": "Medic Response",
      "address": "548 15th Av,Seattle,WA",
      "units": "A25 M10",
      "entries": 2,
      "neighborhood": "First Hill",
      "neighborhoodGroup": "East"
    }
  },
  {
    "id_str": "F190043888",
    "created_at": "5/1/2019 6:59:08 PM",
    "derived": {
      "lat": 47.614791,
      "long": -122.34494,
      "timestamp": 1556762348000,
      "description": "Rescue Elevator",
      "address": "2312 3rd Av,Seattle,WA",
      "units": "L4",
      "entries": 1,
      "neighborhood": "Cascade/Eastlake",
      "neighborhoodGroup": "Lake Union"
    }
  },
  {
    "id_str": "F190043886",
    "created_at": "5/1/2019 6:58:58 PM",
    "derived": {
      "lat": 47.675904,
      "long": -122.325437,
      "timestamp": 1556762338000,
      "description": "Aid Response",
      "address": "Latona Av Ne / Ne 65th St,Seattle,WA",
      "units": "E16",
      "entries": 1,
      "neighborhood": "Green Lake",
      "neighborhoodGroup": "Northwest"
    }
  },
  {
    "id_str": "F190043885",
    "created_at": "5/1/2019 6:54:05 PM",
    "derived": {
      "lat": 47.664275,
      "long": -122.283475,
      "timestamp": 1556762045000,
      "description": "Aid Response",
      "address": "4800 Sand Point Way Ne,Seattle,WA",
      "units": "E38",
      "entries": 1,
      "neighborhood": "Laurelhurst/Sand Point",
      "neighborhoodGroup": "Northeast"
    }
  },
  {
    "id_str": "F190043884",
    "created_at": "5/1/2019 6:51:19 PM",
    "derived": {
      "lat": 47.562472,
      "long": -122.385455,
      "timestamp": 1556761879000,
      "description": "Aid Response",
      "address": "4545 42nd Av Sw,Seattle,WA",
      "units": "E32",
      "entries": 1,
      "neighborhood": "West Seattle Junction/Genesee Hill",
      "neighborhoodGroup": "Southwest"
    }
  },
  {
    "id_str": "F190043883",
    "created_at": "5/1/2019 6:48:33 PM",
    "derived": {
      "lat": 47.569313,
      "long": -122.30733,
      "timestamp": 1556761713000,
      "description": "Aid Response",
      "address": "3801 Beacon Av S,Seattle,WA",
      "units": "E13",
      "entries": 1,
      "neighborhood": "North Beacon Hill/Jefferson Park",
      "neighborhoodGroup": "Greater Duwamish"
    }
  },
  {
    "id_str": "F190043882",
    "created_at": "5/1/2019 6:47:41 PM",
    "derived": {
      "lat": 47.710772,
      "long": -122.350179,
      "timestamp": 1556761661000,
      "description": "Aid Response",
      "address": "11243 Fremont Av N,Seattle,WA",
      "units": "E31",
      "entries": 1,
      "neighborhood": "Broadview/Bitter Lake",
      "neighborhoodGroup": "Northwest"
    }
  },
  {
    "id_str": "F190043881",
    "created_at": "5/1/2019 6:42:55 PM",
    "derived": {
      "lat": 47.569608,
      "long": -122.290486,
      "timestamp": 1556761375000,
      "description": "Medic Response",
      "address": "3820 Rainier Av S,Seattle,WA",
      "units": "E30 M28",
      "entries": 2,
      "neighborhood": "Columbia City",
      "neighborhoodGroup": "Southeast"
    }
  },
  {
    "id_str": "F190043878",
    "created_at": "5/1/2019 6:39:18 PM",
    "derived": {
      "lat": 47.602813,
      "long": -122.331449,
      "timestamp": 1556761158000,
      "description": "Medic Response",
      "address": "607 3rd Av,Seattle,WA",
      "units": "A10 M1",
      "entries": 1,
      "neighborhood": "Downtown Commercial Core",
      "neighborhoodGroup": "Downtown"
    }
  },
  {
    "id_str": "F190043877",
    "created_at": "5/1/2019 6:37:46 PM",
    "derived": {
      "lat": 47.589367,
      "long": -122.381334,
      "timestamp": 1556761066000,
      "description": "Rescue Elevator",
      "address": "1617 Harbor Av Sw,Seattle,WA",
      "units": "L11",
      "entries": 1,
      "neighborhood": "Alki/Admiral",
      "neighborhoodGroup": "Southwest"
    }
  },
  {
    "id_str": "F190043875",
    "created_at": "5/1/2019 6:34:22 PM",
    "derived": {
      "lat": 47.677975,
      "long": -122.290336,
      "timestamp": 1556760862000,
      "description": "MVI Medic",
      "address": "6842 35th Av Ne,Seattle,WA",
      "units": "E38 E40 M17",
      "entries": 1,
      "neighborhood": "Wedgwood/View Ridge",
      "neighborhoodGroup": "Northeast"
    }
  },
  {
    "id_str": "F190043874",
    "created_at": "5/1/2019 6:30:10 PM",
    "derived": {
      "lat": 47.615877,
      "long": -122.35052,
      "timestamp": 1556760610000,
      "description": "Aid Response",
      "address": "111 Cedar St,Seattle,WA",
      "units": "A2 A4",
      "entries": 2,
      "neighborhood": "Belltown",
      "neighborhoodGroup": "Downtown"
    }
  },
  {
    "id_str": "F190043873",
    "created_at": "5/1/2019 6:23:45 PM",
    "derived": {
      "lat": 47.593795,
      "long": -122.333268,
      "timestamp": 1556760225000,
      "description": "Aid Response",
      "address": "1029 Occidental Av S,Seattle,WA",
      "units": "E10",
      "entries": 1,
      "neighborhood": "Duwamish/SODO",
      "neighborhoodGroup": "Greater Duwamish"
    }
  },
  {
    "id_str": "F190043872",
    "created_at": "5/1/2019 6:18:43 PM",
    "derived": {
      "lat": 47.562614,
      "long": -122.317351,
      "timestamp": 1556759923000,
      "description": "Automatic Fire Alarm Resd",
      "address": "4549 12th Av S,Seattle,WA",
      "units": "E13",
      "entries": 1,
      "neighborhood": "Duwamish/SODO",
      "neighborhoodGroup": "Greater Duwamish"
    }
  },
  {
    "id_str": "F190043870",
    "created_at": "5/1/2019 6:14:16 PM",
    "derived": {
      "lat": 47.615283,
      "long": -122.314091,
      "timestamp": 1556759656000,
      "description": "Rescue Elevator",
      "address": "1410 E Pine St,Seattle,WA",
      "units": "L10",
      "entries": 1,
      "neighborhood": "Capitol Hill",
      "neighborhoodGroup": "East"
    }
  },
  {
    "id_str": "F190043871",
    "created_at": "5/1/2019 6:14:04 PM",
    "derived": {
      "lat": 47.60705,
      "long": -122.335324,
      "timestamp": 1556759644000,
      "description": "Medic Response",
      "address": "3rd Av / Seneca St,Seattle,WA",
      "units": "A10 M10",
      "entries": 2,
      "neighborhood": "Downtown Commercial Core",
      "neighborhoodGroup": "Downtown"
    }
  },
  {
    "id_str": "F190043868",
    "created_at": "5/1/2019 6:09:30 PM",
    "derived": {
      "lat": 47.631378,
      "long": -122.359203,
      "timestamp": 1556759370000,
      "description": "Aid Response",
      "address": "1407 2nd Av W,Seattle,WA",
      "units": "E8",
      "entries": 1,
      "neighborhood": "Queen Anne",
      "neighborhoodGroup": "Magnolia/Queen Anne"
    }
  },
  {
    "id_str": "F190043867",
    "created_at": "5/1/2019 6:08:38 PM",
    "derived": {
      "lat": 47.613831,
      "long": -122.341333,
      "timestamp": 1556759318000,
      "description": "Aid Response",
      "address": "2101 4th Av,Seattle,WA",
      "units": "A2 A4",
      "entries": 2,
      "neighborhood": "Cascade/Eastlake",
      "neighborhoodGroup": "Lake Union"
    }
  },
  {
    "id_str": "F190043869",
    "created_at": "5/1/2019 6:08:36 PM",
    "derived": {
      "lat": 47.629521,
      "long": -122.329875,
      "timestamp": 1556759316000,
      "description": "AFA4 - Auto Alarm 2 + 1 + 1",
      "address": "1177 Fairview Av N,Seattle,WA",
      "units": "B2 E2 E22 L4",
      "entries": 1,
      "neighborhood": "Cascade/Eastlake",
      "neighborhoodGroup": "Lake Union"
    }
  },
  {
    "id_str": "F190043865",
    "created_at": "5/1/2019 6:07:45 PM",
    "derived": {
      "lat": 47.611068,
      "long": -122.342612,
      "timestamp": 1556759265000,
      "description": "Aid Response",
      "address": "1st Av / Virginia St,Seattle,WA",
      "units": "A4",
      "entries": 1,
      "neighborhood": "Belltown",
      "neighborhoodGroup": "Downtown"
    }
  },
  {
    "id_str": "F190043864",
    "created_at": "5/1/2019 6:03:05 PM",
    "derived": {
      "lat": 47.601986,
      "long": -122.32914,
      "timestamp": 1556758985000,
      "description": "Aid Response",
      "address": "420 4th Av,Seattle,WA",
      "units": "A5",
      "entries": 1,
      "neighborhood": "Downtown Commercial Core",
      "neighborhoodGroup": "Downtown"
    }
  },
  {
    "id_str": "F190043863",
    "created_at": "5/1/2019 6:00:13 PM",
    "derived": {
      "lat": 47.516422,
      "long": -122.271096,
      "timestamp": 1556758813000,
      "description": "Automatic Fire Alarm Resd",
      "address": "9618 50th Av S,Seattle,WA",
      "units": "E33",
      "entries": 1,
      "neighborhood": "South Beacon Hill/NewHolly",
      "neighborhoodGroup": "Greater Duwamish"
    }
  },
  {
    "id_str": "F190043862",
    "created_at": "5/1/2019 5:48:34 PM",
    "derived": {
      "lat": 47.552556,
      "long": -122.302214,
      "timestamp": 1556758114000,
      "description": "Medic Response",
      "address": "5444 Beacon Av S,Seattle,WA",
      "units": "E13 M28",
      "entries": 2,
      "neighborhood": "Beacon Hill",
      "neighborhoodGroup": "Greater Duwamish"
    }
  },
  {
    "id_str": "F190043861",
    "created_at": "5/1/2019 5:45:02 PM",
    "derived": {
      "lat": 47.660671,
      "long": -122.392849,
      "timestamp": 1556757902000,
      "description": "Aid Response",
      "address": "Gilman Av W / 28th Av W,Seattle,WA",
      "units": "E20",
      "entries": 1,
      "neighborhood": "Magnolia",
      "neighborhoodGroup": "Magnolia/Queen Anne"
    }
  },
  {
    "id_str": "F190043859",
    "created_at": "5/1/2019 5:43:50 PM",
    "derived": {
      "lat": 47.6126,
      "long": -122.334262,
      "timestamp": 1556757830000,
      "description": "Aid Response",
      "address": "7th Av / Pine St,Seattle,WA",
      "units": "A4",
      "entries": 1,
      "neighborhood": "First Hill",
      "neighborhoodGroup": "East"
    }
  },
  {
    "id_str": "F190043858",
    "created_at": "5/1/2019 5:42:00 PM",
    "derived": {
      "lat": 47.601986,
      "long": -122.32914,
      "timestamp": 1556757720000,
      "description": "Aid Response",
      "address": "420 4TH AV,Seattle,WA",
      "units": "A5",
      "entries": 1,
      "neighborhood": "Downtown Commercial Core",
      "neighborhoodGroup": "Downtown"
    }
  },
  {
    "id_str": "F190043857",
    "created_at": "5/1/2019 5:39:44 PM",
    "derived": {
      "lat": 47.560074,
      "long": -122.381457,
      "timestamp": 1556757584000,
      "description": "Aid Response",
      "address": "4755 Fauntleroy Way Sw,Seattle,WA",
      "units": "E32",
      "entries": 1,
      "neighborhood": "West Seattle Junction/Genesee Hill",
      "neighborhoodGroup": "Southwest"
    }
  },
  {
    "id_str": "F190043855",
    "created_at": "5/1/2019 5:35:24 PM",
    "derived": {
      "lat": 47.732314,
      "long": -122.350236,
      "timestamp": 1556757324000,
      "description": "Auto Fire Alarm",
      "address": "718 N 143rd St,Seattle,WA",
      "units": "E24 L5",
      "entries": 1,
      "neighborhood": "Broadview/Bitter Lake",
      "neighborhoodGroup": "Northwest"
    }
  },