[
  {
    "id_str": "F190072708",
    "created_at": "7/10/2019 4:58:08 PM",
    "lat": 47.623277,
    "long": -122.35672,
    "timestamp": 1562803088000,
    "description": "Aid Response",
    "entries": 1,
    "neighborhood": "Queen Anne",
    "neighborhoodGroup": "Magnolia/Queen Anne",
    "unitCount": 1,
    "severity": 0,
    "units": "E8",
    "address": "500 Queen Anne Av N"
  },
  {
    "id_str": "F190072706",
    "created_at": "7/10/2019 4:52:19 PM",
    "lat": 47.557725,
    "long": -122.284979,
    "timestamp": 1562802739000,
    "description": "Auto Fire Alarm",
    "entries": 1,
    "neighborhood": "Columbia City",
    "neighborhoodGroup": "Southeast",
    "unitCount": 2,
    "severity": 0,
    "units": "E28 L12",
    "address": "4915 Rainier Av S"
  },
  {
    "id_str": "F190072704",
    "created_at": "7/10/2019 4:49:30 PM",
    "lat": 47.61682,
    "long": -122.307201,
    "timestamp": 1562802570000,
    "description": "Aid Response",
    "entries": 1,
    "neighborhood": "Central Area/Squire Park",
    "neighborhoodGroup": "Central",
    "unitCount": 1,
    "severity": 0,
    "units": "A25",
    "address": "1916 E Madison St"
  },
  {
    "id_str": "F190072705",
    "created_at": "7/10/2019 4:48:55 PM",
    "lat": 47.717758,
    "long": -122.312622,
    "timestamp": 1562802535000,
    "description": "Aid Response",
    "entries": 1,
    "neighborhood": "Olympic Hills/Victory Heights",
    "neighborhoodGroup": "North",
    "unitCount": 1,
    "severity": 0,
    "units": "E39",
    "address": "12318 15TH AV NE"
  },
  {
    "id_str": "F190072703",
    "created_at": "7/10/2019 4:48:31 PM",
    "lat": 47.712167,
    "long": -122.312433,
    "timestamp": 1562802511000,
    "description": "Rescue Elevator",
    "entries": 1,
    "neighborhood": "Olympic Hills/Victory Heights",
    "neighborhoodGroup": "North",
    "unitCount": 1,
    "severity": 0,
    "units": "L9",
    "address": "11501 15th Av Ne"
  },
  {
    "id_str": "F190072699",
    "created_at": "7/10/2019 4:33:47 PM",
    "lat": 47.665705,
    "long": -122.376408,
    "timestamp": 1562801627000,
    "description": "Auto Fire Alarm",
    "entries": 1,
    "neighborhood": "Ballard",
    "neighborhoodGroup": "Ballard",
    "unitCount": 2,
    "severity": 0,
    "units": "E18 L8",
    "address": "1515 Nw 51st St"
  },
  {
    "id_str": "F190072700",
    "created_at": "7/10/2019 4:33:44 PM",
    "lat": 47.612141,
    "long": -122.335362,
    "timestamp": 1562801624000,
    "description": "Auto Fire Alarm",
    "entries": 2,
    "neighborhood": "First Hill",
    "neighborhoodGroup": "East",
    "unitCount": 3,
    "severity": 0,
    "units": "E22 E25 L10",
    "address": "601 Pine St"
  },
  {
    "id_str": "F190072698",
    "created_at": "7/10/2019 4:32:34 PM",
    "lat": 47.615636,
    "long": -122.31146,
    "timestamp": 1562801554000,
    "description": "Aid Response",
    "entries": 1,
    "neighborhood": "Central Area/Squire Park",
    "neighborhoodGroup": "Central",
    "unitCount": 1,
    "severity": 0,
    "units": "A25",
    "address": "1631 16th Av"
  },
  {
    "id_str": "F190072697",
    "created_at": "7/10/2019 4:31:39 PM",
    "lat": 47.611142,
    "long": -122.334464,
    "timestamp": 1562801499000,
    "description": "Auto Fire Alarm",
    "entries": 1,
    "neighborhood": "First Hill",
    "neighborhoodGroup": "East",
    "unitCount": 2,
    "severity": 0,
    "units": "E25 L1",
    "address": "1500 6th Av"
  },
  {
    "id_str": "F190072693",
    "created_at": "7/10/2019 4:26:11 PM",
    "lat": 47.608821,
    "long": -122.340013,
    "timestamp": 1562801171000,
    "description": "Medic Response, 6 per Rule",
    "entries": 2,
    "neighborhood": "Downtown Commercial Core",
    "neighborhoodGroup": "Downtown",
    "unitCount": 4,
    "severity": 0,
    "units": "E10 E5 L4 M1",
    "address": "1st Av / Pike St"
  },
  {
    "id_str": "F190072694",
    "created_at": "7/10/2019 4:25:06 PM",
    "lat": 47.604591,
    "long": -122.322337,
    "timestamp": 1562801106000,
    "description": "Aid Response",
    "entries": 2,
    "neighborhood": "First Hill",
    "neighborhoodGroup": "East",
    "unitCount": 2,
    "severity": 0,
    "units": "E10 L1",
    "address": "TERRACE ST / TERRY AV"
  },
  {
    "id_str": "F190072692",
    "created_at": "7/10/2019 4:24:48 PM",
    "lat": 47.605387,
    "long": -122.327511,
    "timestamp": 1562801088000,
    "description": "Aid Response",
    "entries": 1,
    "neighborhood": "First Hill",
    "neighborhoodGroup": "East",
    "unitCount": 1,
    "severity": 0,
    "units": "A5",
    "address": "710 Cherry St"
  },
  {
    "id_str": "F190072691",
    "created_at": "7/10/2019 4:23:26 PM",
    "lat": 47.589675,
    "long": -122.317279,
    "timestamp": 1562801006000,
    "description": "Aid Response",
    "entries": 1,
    "neighborhood": "Duwamish/SODO",
    "neighborhoodGroup": "Greater Duwamish",
    "unitCount": 1,
    "severity": 0,
    "units": "E13",
    "address": "1540 12th Av S"
  },
  {
    "id_str": "F190072690",
    "created_at": "7/10/2019 4:18:52 PM",
    "lat": 47.709253,
    "long": -122.315199,
    "timestamp": 1562800732000,
    "description": "Aid Response",
    "entries": 1,
    "neighborhood": "Northgate/Maple Leaf",
    "neighborhoodGroup": "North",
    "unitCount": 1,
    "severity": 0,
    "units": "E40",
    "address": "11052 12TH AV NE"
  },
  {
    "id_str": "F190072689",
    "created_at": "7/10/2019 4:18:47 PM",
    "lat": 47.52468,
    "long": -122.366071,
    "timestamp": 1562800727000,
    "description": "Aid Response",
    "entries": 1,
    "neighborhood": "Roxhill/Westwood",
    "neighborhoodGroup": "Delridge Neighborhoods",
    "unitCount": 1,
    "severity": 0,
    "units": "E11",
    "address": "2615 Sw Trenton St"
  },
  {
    "id_str": "F190072688",
    "created_at": "7/10/2019 4:17:12 PM",
    "lat": 47.601692,
    "long": -122.316784,
    "timestamp": 1562800632000,
    "description": "Aid Response",
    "entries": 1,
    "neighborhood": "Pioneer Square/International District",
    "neighborhoodGroup": "Downtown",
    "unitCount": 1,
    "severity": 0,
    "units": "A10",
    "address": "12th Av / E Yesler Way"
  },
  {
    "id_str": "F190072686",
    "created_at": "7/10/2019 4:12:30 PM",
    "lat": 47.538872,
    "long": -122.284744,
    "timestamp": 1562800350000,
    "description": "Aid Response",
    "entries": 1,
    "neighborhood": "South Beacon Hill/NewHolly",
    "neighborhoodGroup": "Greater Duwamish",
    "unitCount": 1,
    "severity": 0,
    "units": "L12",
    "address": "7101 38th Av S"
  },
  {
    "id_str": "F190072685",
    "created_at": "7/10/2019 4:12:02 PM",
    "lat": 47.544683,
    "long": -122.376445,
    "timestamp": 1562800322000,
    "description": "MVI - Motor Vehicle Incident",
    "entries": 1,
    "neighborhood": "High Point",
    "neighborhoodGroup": "Delridge Neighborhoods",
    "unitCount": 1,
    "severity": 0,
    "units": "E37",
    "address": "35th Av Sw / Sw Morgan St"
  },
  {
    "id_str": "F190072684",
    "created_at": "7/10/2019 4:10:56 PM",
    "lat": 47.65996,
    "long": -122.342217,
    "timestamp": 1562800256000,
    "description": "Aid Response",
    "entries": 1,
    "neighborhood": "Wallingford",
    "neighborhoodGroup": "Lake Union",
    "unitCount": 1,
    "severity": 0,
    "units": "E9",
    "address": "4400 Stone Way N"
  },
  {
    "id_str": "F190072683",
    "created_at": "7/10/2019 4:09:56 PM",
    "lat": 47.519737,
    "long": -122.345436,
    "timestamp": 1562800196000,
    "description": "Advised Incident",
    "entries": 1,
    "neighborhood": "Highland Park",
    "neighborhoodGroup": "Delridge Neighborhoods",
    "unitCount": 1,
    "severity": 0,
    "units": "E11",
    "address": "9333 8th Av Sw"
  },
  {
    "id_str": "F190072682",
    "created_at": "7/10/2019 4:09:00 PM",
    "lat": 47.680886,
    "long": -122.284965,
    "timestamp": 1562800140000,
    "description": "Aid Response",
    "entries": 1,
    "neighborhood": "Wedgwood/View Ridge",
    "neighborhoodGroup": "Northeast",
    "unitCount": 1,
    "severity": 0,
    "units": "E38",
    "address": "4012 Ne 72nd St"
  },
  {
    "id_str": "F190072680",
    "created_at": "7/10/2019 4:07:25 PM",
    "lat": 47.59745,
    "long": -122.317227,
    "timestamp": 1562800045000,
    "description": "Aid Response",
    "entries": 1,
    "neighborhood": "Pioneer Square/International District",
    "neighborhoodGroup": "Downtown",
    "unitCount": 1,
    "severity": 0,
    "units": "E10",
    "address": "606 12th Av S"
  },
  {
    "id_str": "F190072678",
    "created_at": "7/10/2019 4:05:45 PM",
    "lat": 47.609878,
    "long": -122.334842,
    "timestamp": 1562799945000,
    "description": "Automatic Fire Alarm False",
    "entries": 1,
    "neighborhood": "Downtown Commercial Core",
    "neighborhoodGroup": "Downtown",
    "unitCount": 1,
    "severity": 0,
    "units": "L4",
    "address": "1420 5th Av"
  },
  {
    "id_str": "F190072677",
    "created_at": "7/10/2019 4:04:54 PM",
    "lat": 47.585498,
    "long": -122.303605,
    "timestamp": 1562799894000,
    "description": "Aid Response",
    "entries": 1,
    "neighborhood": "North Beacon Hill/Jefferson Park",
    "neighborhoodGroup": "Greater Duwamish",
    "unitCount": 1,
    "severity": 0,
    "units": "E30",
    "address": "Rainier Av S / S Plum St"
  },
  {
    "id_str": "F190072676",
    "created_at": "7/10/2019 4:03:31 PM",
    "lat": 47.607297,
    "long": -122.327878,
    "timestamp": 1562799811000,
    "description": "Aid Response",
    "entries": 1,
    "neighborhood": "First Hill",
    "neighborhoodGroup": "East",
    "unitCount": 1,
    "severity": 0,
    "units": "A25",
    "address": "910 8th Av"
  },
  {
    "id_str": "F190072674",
    "created_at": "7/10/2019 3:52:41 PM",
    "lat": 47.615789,
    "long": -122.336507,
    "timestamp": 1562799161000,
    "description": "Aid Response",
    "entries": 1,
    "neighborhood": "Cascade/Eastlake",
    "neighborhoodGroup": "Lake Union",
    "unitCount": 1,
    "severity": 0,
    "units": "A4",
    "address": "810 Virginia St"
  },
  {
    "id_str": "F190072673",
    "created_at": "7/10/2019 3:45:11 PM",
    "lat": 47.599233,
    "long": -122.310139,
    "timestamp": 1562798711000,
    "description": "Aid Response",
    "entries": 1,
    "neighborhood": "Judkins Park",
    "neighborhoodGroup": "Central",
    "unitCount": 1,
    "severity": 0,
    "units": "A5",
    "address": "1710 S Jackson St"
  },
  {
    "id_str": "F190072671",
    "created_at": "7/10/2019 3:42:37 PM",
    "lat": 47.699257,
    "long": -122.325767,
    "timestamp": 1562798557000,
    "description": "Aid Response",
    "entries": 1,
    "neighborhood": "Northgate/Maple Leaf",
    "neighborhoodGroup": "North",
    "unitCount": 1,
    "severity": 0,
    "units": "A31",
    "address": "9714 3rd Av Ne"
  },
  {
    "id_str": "F190072669",
    "created_at": "7/10/2019 3:33:34 PM",
    "lat": 47.582838,
    "long": -122.386485,
    "timestamp": 1562798014000,
    "description": "Aid Response",
    "entries": 1,
    "neighborhood": "Alki/Admiral",
    "neighborhoodGroup": "Southwest",
    "unitCount": 1,
    "severity": 0,
    "units": "E29",
    "address": "2326 California Av Sw"
  },
  {
    "id_str": "F190072668",
    "created_at": "7/10/2019 3:33:29 PM",
    "lat": 47.607218,
    "long": -122.320752,
    "timestamp": 1562798009000,
    "description": "Medic Response",
    "entries": 2,
    "neighborhood": "First Hill",
    "neighborhoodGroup": "East",
    "unitCount": 2,
    "severity": 0,
    "units": "A10 M10",
    "address": "600 Broadway"
  },
  {
    "id_str": "F190072666",
    "created_at": "7/10/2019 3:31:19 PM",
    "lat": 47.528013,
    "long": -122.348028,
    "timestamp": 1562797879000,
    "description": "Medic Response",
    "entries": 1,
    "neighborhood": "Highland Park",
    "neighborhoodGroup": "Delridge Neighborhoods",
    "unitCount": 2,
    "severity": 0,
    "units": "E11 M32",
    "address": "8432 10th Av Sw"
  },
  {
    "id_str": "F190072664",
    "created_at": "7/10/2019 3:12:30 PM",
    "lat": 47.72518,
    "long": -122.292456,
    "timestamp": 1562796750000,
    "description": "Aid Response",
    "entries": 1,
    "neighborhood": "Cedar Park/Meadowbrook",
    "neighborhoodGroup": "North",
    "unitCount": 1,
    "severity": 0,
    "units": "E39",
    "address": "13355 Lake City Way Ne"
  },
  {
    "id_str": "F190072662",
    "created_at": "7/10/2019 3:06:50 PM",
    "lat": 47.611802,
    "long": -122.339884,
    "timestamp": 1562796410000,
    "description": "Aid Response",
    "entries": 1,
    "neighborhood": "Cascade/Eastlake",
    "neighborhoodGroup": "Lake Union",
    "unitCount": 1,
    "severity": 0,
    "units": "A4",
    "address": "1923 3rd Av"
  },
  {
    "id_str": "F190072661",
    "created_at": "7/10/2019 3:03:57 PM",
    "lat": 47.62118,
    "long": -122.314685,
    "timestamp": 1562796237000,
    "description": "Auto Fire Alarm",
    "entries": 1,
    "neighborhood": "Capitol Hill",
    "neighborhoodGroup": "East",
    "unitCount": 2,
    "severity": 0,
    "units": "E25 L10",
    "address": "308 14th Av E"
  },
  {
    "id_str": "F190072660",
    "created_at": "7/10/2019 3:01:53 PM",
    "lat": 47.664275,
    "long": -122.283475,
    "timestamp": 1562796113000,
    "description": "Aid Response",
    "entries": 1,
    "neighborhood": "Laurelhurst/Sand Point",
    "neighborhoodGroup": "Northeast",
    "unitCount": 1,
    "severity": 0,
    "units": "E31",
    "address": "4800 Sand Point Way Ne"
  },
  {
    "id_str": "F190072659",
    "created_at": "7/10/2019 3:01:00 PM",
    "lat": 47.539433,
    "long": -122.320138,
    "timestamp": 1562796060000,
    "description": "Aid Response",
    "entries": 1,
    "neighborhood": "Georgetown",
    "neighborhoodGroup": "Greater Duwamish",
    "unitCount": 1,
    "severity": 0,
    "units": "E27",
    "address": "1020 S Myrtle St"
  },
  {
    "id_str": "F190072656",
    "created_at": "7/10/2019 2:48:58 PM",
    "lat": 47.616403,
    "long": -122.320817,
    "timestamp": 1562795338000,
    "description": "Medic Response",
    "entries": 2,
    "neighborhood": "Capitol Hill",
    "neighborhoodGroup": "East",
    "unitCount": 2,
    "severity": 0,
    "units": "A25 M10",
    "address": "1701 Broadway"
  },
  {
    "id_str": "F190072654",
    "created_at": "7/10/2019 2:46:44 PM",
    "lat": 47.601667,
    "long": -122.302339,
    "timestamp": 1562795204000,
    "description": "Aid Response",
    "entries": 1,
    "neighborhood": "Central Area/Squire Park",
    "neighborhoodGroup": "Central",
    "unitCount": 1,
    "severity": 0,
    "units": "A5",
    "address": "100 23rd Av S"
  },
  {
    "id_str": "F190072648",
    "created_at": "7/10/2019 2:31:28 PM",
    "lat": 47.592505,
    "long": -122.311963,
    "timestamp": 1562794288000,
    "description": "Rescue Extrication",
    "entries": 2,
    "neighborhood": "North Beacon Hill/Jefferson Park",
    "neighborhoodGroup": "Greater Duwamish",
    "unitCount": 12,
    "severity": 2,
    "units": "A14 A25 B2 B5 E13 E5 E6 L3 M32 M44 R1 SAFT2",
    "address": "Eb I90 At Rainier"
  },
  {
    "id_str": "F190072646",
    "created_at": "7/10/2019 2:30:23 PM",
    "lat": 47.605159,
    "long": -122.335129,
    "timestamp": 1562794223000,
    "description": "Medic Response, 6 per Rule",
    "entries": 2,
    "neighborhood": "Downtown Commercial Core",
    "neighborhoodGroup": "Downtown",
    "unitCount": 4,
    "severity": 0,
    "units": "A10 A2 L1 M10",
    "address": "2nd Av / Madison St"
  },
  {
    "id_str": "F190072645",
    "created_at": "7/10/2019 2:27:33 PM",
    "lat": 47.707049,
    "long": -122.342039,
    "timestamp": 1562794053000,
    "description": "Aid Response Yellow",
    "entries": 1,
    "neighborhood": "Haller Lake",
    "neighborhoodGroup": "Northwest",
    "unitCount": 1,
    "severity": 0,
    "units": "A31",
    "address": "10728 Stone Av N"
  },
  {
    "id_str": "F190072643",
    "created_at": "7/10/2019 2:23:53 PM",
    "lat": 47.680037,
    "long": -122.262231,
    "timestamp": 1562793833000,
    "description": "Aid Response",
    "entries": 1,
    "neighborhood": "Laurelhurst/Sand Point",
    "neighborhoodGroup": "Northeast",
    "unitCount": 1,
    "severity": 0,
    "units": "E17",
    "address": "7110 62nd Av Ne"
  },
  {
    "id_str": "F190072642",
    "created_at": "7/10/2019 2:21:02 PM",
    "lat": 47.601716,
    "long": -122.330265,
    "timestamp": 1562793662000,
    "description": "Aid Response",
    "entries": 1,
    "neighborhood": "Downtown Commercial Core",
    "neighborhoodGroup": "Downtown",
    "unitCount": 1,
    "severity": 0,
    "units": "E10",
    "address": "100 Prefontaine Pl S"
  },
  {
    "id_str": "F190072641",
    "created_at": "7/10/2019 2:18:49 PM",
    "lat": 47.611868,
    "long": -122.343965,
    "timestamp": 1562793529000,
    "description": "Auto Fire Alarm",
    "entries": 1,
    "neighborhood": "Belltown",
    "neighborhoodGroup": "Downtown",
    "unitCount": 2,
    "severity": 0,
    "units": "E5 L4",
    "address": "2105 1st Av"
  },
  {
    "id_str": "F190072639",
    "created_at": "7/10/2019 2:15:59 PM",
    "lat": 47.606122,
    "long": -122.337544,
    "timestamp": 1562793359000,
    "description": "Medic Response",
    "entries": 1,
    "neighborhood": "Downtown Commercial Core",
    "neighborhoodGroup": "Downtown",
    "unitCount": 2,
    "severity": 0,
    "units": "A5 M1",
    "address": "1st Av / Seneca St"
  },
  {
    "id_str": "F190072637",
    "created_at": "7/10/2019 2:02:54 PM",
    "lat": 47.684037,
    "long": -122.344136,
    "timestamp": 1562792574000,
    "description": "Medic Response",
    "entries": 2,
    "neighborhood": "Green Lake",
    "neighborhoodGroup": "Northwest",
    "unitCount": 3,
    "severity": 0,
    "units": "E31 E35 M31",
    "address": "1124 N 76th St"
  },
  {
    "id_str": "F190072636",
    "created_at": "7/10/2019 1:56:09 PM",
    "lat": 47.693572,
    "long": -122.344557,
    "timestamp": 1562792169000,
    "description": "Aid Response",
    "entries": 1,
    "neighborhood": "Licton Springs",
    "neighborhoodGroup": "Northwest",
    "unitCount": 1,
    "severity": 0,
    "units": "E21",
    "address": "8916 Aurora Av N"
  },
  {
    "id_str": "F190072635",
    "created_at": "7/10/2019 1:53:54 PM",
    "lat": 47.56282,
    "long": -122.382814,
    "timestamp": 1562792034000,
    "description": "Alarm Bell",
    "entries": 1,
    "neighborhood": "West Seattle Junction/Genesee Hill",
    "neighborhoodGroup": "Southwest",
    "unitCount": 2,
    "severity": 0,
    "units": "E32 L11",
    "address": "4506 40th Av Sw"
  },
  {
    "id_str": "F190072634",
    "created_at": "7/10/2019 1:53:43 PM",
    "lat": 47.624588,
    "long": -122.358016,
    "timestamp": 1562792023000,
    "description": "Medic Response",
    "entries": 1,
    "neighborhood": "Queen Anne",
    "neighborhoodGroup": "Magnolia/Queen Anne",
    "unitCount": 2,
    "severity": 0,
    "units": "E8 M10",
    "address": "100 W Mercer St"
  },
  {
    "id_str": "F190072633",
    "created_at": "7/10/2019 1:50:51 PM",
    "lat": 47.719265,
    "long": -122.29273,
    "timestamp": 1562791851000,
    "description": "Aid Response",
    "entries": 1,
    "neighborhood": "Cedar Park/Meadowbrook",
    "neighborhoodGroup": "North",
    "unitCount": 1,
    "severity": 0,
    "units": "E39",
    "address": "Ne 125th St / 33rd Av Ne"
  },
  {
    "id_str": "F190072632",
    "created_at": "7/10/2019 1:45:58 PM",
    "lat": 47.598313,
    "long": -122.327671,
    "timestamp": 1562791558000,
    "description": "Aid Response",
    "entries": 1,
    "neighborhood": "Pioneer Square/International District",
    "neighborhoodGroup": "Downtown",
    "unitCount": 1,
    "severity": 0,
    "units": "A10",
    "address": "505 5th Av S"
  },
  {
    "id_str": "F190072630",
    "created_at": "7/10/2019 1:25:31 PM",
    "lat": 47.584542,
    "long": -122.30291,
    "timestamp": 1562790331000,
    "description": "Aid Response",
    "entries": 1,
    "neighborhood": "North Beacon Hill/Jefferson Park",
    "neighborhoodGroup": "Greater Duwamish",
    "unitCount": 1,
    "severity": 0,
    "units": "E30",
    "address": "23rd Av S / Rainier Av S"
  },
  {
    "id_str": "F190072629",
    "created_at": "7/10/2019 1:24:21 PM",
    "lat": 47.611563,
    "long": -122.316779,
    "timestamp": 1562790261000,
    "description": "Alarm Bell",
    "entries": 2,
    "neighborhood": "First Hill",
    "neighborhoodGroup": "East",
    "unitCount": 2,
    "severity": 0,
    "units": "E25 L10",
    "address": "1110 E Spring St"
  },
  {
    "id_str": "F190072627",
    "created_at": "7/10/2019 1:22:22 PM",
    "lat": 47.616579,
    "long": -122.347964,
    "timestamp": 1562790142000,
    "description": "Aid Response",
    "entries": 1,
    "neighborhood": "Cascade/Eastlake",
    "neighborhoodGroup": "Lake Union",
    "unitCount": 1,
    "severity": 0,
    "units": "A4",
    "address": "3rd Av / Vine St"
  },
  {
    "id_str": "F190072626",
    "created_at": "7/10/2019 1:21:52 PM",
    "lat": 47.691236,
    "long": -122.306849,
    "timestamp": 1562790112000,
    "description": "Aid Response",
    "entries": 1,
    "neighborhood": "Wedgwood/View Ridge",
    "neighborhoodGroup": "Northeast",
    "unitCount": 1,
    "severity": 0,
    "units": "E40",
    "address": "20th Av Ne / Lake City Way Ne"
  },
  {
    "id_str": "F190072625",
    "created_at": "7/10/2019 1:20:31 PM",
    "lat": 47.575335,
    "long": -122.418114,
    "timestamp": 1562790031000,
    "description": "Aid Response",
    "entries": 1,
    "neighborhood": "Alki/Admiral",
    "neighborhoodGroup": "Southwest",
    "unitCount": 1,
    "severity": 0,
    "units": "E29",
    "address": "3225 Benton Pl Sw"
  },
  {
    "id_str": "F190072624",
    "created_at": "7/10/2019 1:16:07 PM",
    "lat": 47.669447,
    "long": -122.382127,
    "timestamp": 1562789767000,
    "description": "Aid Response",
    "entries": 1,
    "neighborhood": "Ballard",
    "neighborhoodGroup": "Ballard",
    "unitCount": 1,
    "severity": 0,
    "units": "E18",
    "address": "20th Av Nw / Nw 56th St"
  },
  {
    "id_str": "F190072623",
    "created_at": "7/10/2019 1:14:19 PM",
    "lat": 47.599173,
    "long": -122.297417,
    "timestamp": 1562789659000,
    "description": "Aid Response",
    "entries": 1,
    "neighborhood": "Madrona/Leschi",
    "neighborhoodGroup": "Central",
    "unitCount": 1,
    "severity": 0,
    "units": "L3",
    "address": "405 M L King Jr Way S"
  },
  {
    "id_str": "F190072622",
    "created_at": "7/10/2019 1:13:11 PM",
    "lat": 47.723241,
    "long": -122.356821,
    "timestamp": 1562789591000,
    "description": "Aid Response",
    "entries": 2,
    "neighborhood": "Broadview/Bitter Lake",
    "neighborhoodGroup": "Northwest",
    "unitCount": 2,
    "severity": 0,
    "units": "A31 E24",
    "address": "144 N 130th St"
  },
  {
    "id_str": "F190072619",
    "created_at": "7/10/2019 12:59:36 PM",
    "lat": 47.571853,
    "long": -122.293193,
    "timestamp": 1562788776000,
    "description": "Aid Response",
    "entries": 1,
    "neighborhood": "Columbia City",
    "neighborhoodGroup": "Southeast",
    "unitCount": 1,
    "severity": 0,
    "units": "E30",
    "address": "3501 Rainier Av S"
  },
  {
    "id_str": "F190072618",
    "created_at": "7/10/2019 12:53:50 PM",
    "lat": 47.600843,
    "long": -122.330271,
    "timestamp": 1562788430000,
    "description": "Aid Response",
    "entries": 1,
    "neighborhood": "Pioneer Square/International District",
    "neighborhoodGroup": "Downtown",
    "unitCount": 1,
    "severity": 0,
    "units": "E10",
    "address": "204 3rd Av S"
  },
  {
    "id_str": "F190072616",
    "created_at": "7/10/2019 12:47:17 PM",
    "lat": 47.602985,
    "long": -122.328535,
    "timestamp": 1562788037000,
    "description": "Medic Response",
    "entries": 1,
    "neighborhood": "First Hill",
    "neighborhoodGroup": "East",
    "unitCount": 2,
    "severity": 0,
    "units": "A5 M28",
    "address": "500 5th Av"
  },
  {
    "id_str": "F190072615",
    "created_at": "7/10/2019 12:43:05 PM",
    "lat": 47.669454,
    "long": -122.384743,
    "timestamp": 1562787785000,
    "description": "Aid Response",
    "entries": 1,
    "neighborhood": "Ballard",
    "neighborhoodGroup": "Ballard",
    "unitCount": 1,
    "severity": 0,
    "units": "L8",
    "address": "5601 22nd Av Nw"
  },
  {
    "id_str": "F190072614",
    "created_at": "7/10/2019 12:42:50 PM",
    "lat": 47.644374,
    "long": -122.346913,
    "timestamp": 1562787770000,
    "description": "Medic Response",
    "entries": 1,
    "neighborhood": "Queen Anne",
    "neighborhoodGroup": "Magnolia/Queen Anne",
    "unitCount": 2,
    "severity": 0,
    "units": "E9 M18",
    "address": "2717 Dexter Av N"
  },
  {
    "id_str": "F190072613",
    "created_at": "7/10/2019 12:41:53 PM",
    "lat": 47.599199,
    "long": -122.330251,
    "timestamp": 1562787713000,
    "description": "Aid Response",
    "entries": 1,
    "neighborhood": "Pioneer Square/International District",
    "neighborhoodGroup": "Downtown",
    "unitCount": 1,
    "severity": 0,
    "units": "A10",
    "address": "303 S Jackson St"
  },
  {
    "id_str": "F190072612",
    "created_at": "7/10/2019 12:40:14 PM",
    "lat": 47.588422,
    "long": -122.315981,
    "timestamp": 1562787614000,
    "description": "Medic Response",
    "entries": 2,
    "neighborhood": "North Beacon Hill/Jefferson Park",
    "neighborhoodGroup": "Greater Duwamish",
    "unitCount": 2,
    "severity": 0,
    "units": "E6 M1",
    "address": "1701 13th Av S"
  },
  {
    "id_str": "F190072611",
    "created_at": "7/10/2019 12:39:05 PM",
    "lat": 47.633523,
    "long": -122.277157,
    "timestamp": 1562787545000,
    "description": "Aid Response",
    "entries": 1,
    "neighborhood": "Madison Park",
    "neighborhoodGroup": "East",
    "unitCount": 1,
    "severity": 0,
    "units": "E34",
    "address": "1630 43rd Av E"
  },
  {
    "id_str": "F190072610",
    "created_at": "7/10/2019 12:33:17 PM",
    "lat": 47.618412,
    "long": -122.355206,
    "timestamp": 1562787197000,
    "description": "Medic Response",
    "entries": 3,
    "neighborhood": "Belltown",
    "neighborhoodGroup": "Downtown",
    "unitCount": 3,
    "severity": 0,
    "units": "A2 A4 M10",
    "address": "94 Bay St"
  },
  {
    "id_str": "F190072608",
    "created_at": "7/10/2019 12:26:02 PM",
    "lat": 47.558746,
    "long": -122.302776,
    "timestamp": 1562786762000,
    "description": "Medic Response",
    "entries": 1,
    "neighborhood": "Beacon Hill",
    "neighborhoodGroup": "Greater Duwamish",
    "unitCount": 2,
    "severity": 0,
    "units": "E13 M28",
    "address": "4867 24th Av S"
  },
  {
    "id_str": "F190072609",
    "created_at": "7/10/2019 12:25:51 PM",
    "lat": 47.648326,
    "long": -122.33391,
    "timestamp": 1562786751000,
    "description": "1RED 1 Unit",
    "entries": 1,
    "neighborhood": "Fremont",
    "neighborhoodGroup": "Lake Union",
    "unitCount": 1,
    "severity": 0,
    "units": "E9",
    "address": "3426 Meridian Av N"
  },
  {
    "id_str": "F190072607",
    "created_at": "7/10/2019 12:25:06 PM",
    "lat": 47.53802,
    "long": -122.391462,
    "timestamp": 1562786706000,
    "description": "MVI - Motor Vehicle Incident",
    "entries": 1,
    "neighborhood": "Fauntleroy/Seaview",
    "neighborhoodGroup": "Southwest",
    "unitCount": 1,
    "severity": 0,
    "units": "E37",
    "address": "Fauntleroy Way Sw / Sw Othello St"
  },
  {
    "id_str": "F190072606",
    "created_at": "7/10/2019 12:19:58 PM",
    "lat": 47.61777,
    "long": -122.299873,
    "timestamp": 1562786398000,
    "description": "Activated CO Detector",
    "entries": 1,
    "neighborhood": "Central Area/Squire Park",
    "neighborhoodGroup": "Central",
    "unitCount": 1,
    "severity": 0,
    "units": "L10",
    "address": "1812 25th Av"
  },
  {
    "id_str": "F190072601",
    "created_at": "7/10/2019 12:15:34 PM",
    "lat": 47.601702,
    "long": -122.322098,
    "timestamp": 1562786134000,
    "description": "Auto Fire Alarm",
    "entries": 1,
    "neighborhood": "First Hill",
    "neighborhoodGroup": "East",
    "unitCount": 2,
    "severity": 0,
    "units": "E6 L1",
    "address": "820 Yesler Way"
  },
  {
    "id_str": "F190072602",
    "created_at": "7/10/2019 12:15:33 PM",
    "lat": 47.663322,
    "long": -122.298474,
    "timestamp": 1562786133000,
    "description": "Aid Response",
    "entries": 2,
    "neighborhood": "Ravenna/Bryant",
    "neighborhoodGroup": "Northeast",
    "unitCount": 2,
    "severity": 0,
    "units": "E17 E38",
    "address": "2656 Ne University Village St"
  },
  {
    "id_str": "F190072600",
    "created_at": "7/10/2019 12:12:43 PM",
    "lat": 47.607515,
    "long": -122.334213,
    "timestamp": 1562785963000,
    "description": "Aid Response",
    "entries": 1,
    "neighborhood": "Downtown Commercial Core",
    "neighborhoodGroup": "Downtown",
    "unitCount": 1,
    "severity": 0,
    "units": "A5",
    "address": "4th Av / Seneca St"
  },
  {
    "id_str": "F190072599",
    "created_at": "7/10/2019 12:03:02 PM",
    "lat": 47.553422,
    "long": -122.319372,
    "timestamp": 1562785382000,
    "description": "Aid Response",
    "entries": 1,
    "neighborhood": "Beacon Hill",
    "neighborhoodGroup": "Greater Duwamish",
    "unitCount": 1,
    "severity": 0,
    "units": "E27",
    "address": "1100 S Lucile St"
  },
  {
    "id_str": "F190072598",
    "created_at": "7/10/2019 11:52:59 AM",
    "lat": 47.538872,
    "long": -122.284744,
    "timestamp": 1562784779000,
    "description": "Automatic Medical Alarm",
    "entries": 1,
    "neighborhood": "South Beacon Hill/NewHolly",
    "neighborhoodGroup": "Greater Duwamish",
    "unitCount": 1,
    "severity": 0,
    "units": "E33",
    "address": "7101 38th Av S"
  },
  {
    "id_str": "F190072597",
    "created_at": "7/10/2019 11:51:48 AM",
    "lat": 47.672392,
    "long": -122.392974,
    "timestamp": 1562784708000,
    "description": "Aid Response",
    "entries": 2,
    "neighborhood": "Sunset Hill/Loyal Heights",
    "neighborhoodGroup": "Ballard",
    "unitCount": 2,
    "severity": 0,
    "units": "E18 L8",
    "address": "6020 28th Av Nw"
  },
  {
    "id_str": "F190072595",
    "created_at": "7/10/2019 11:46:18 AM",
    "lat": 47.615789,
    "long": -122.336507,
    "timestamp": 1562784378000,
    "description": "Aid Response",
    "entries": 1,
    "neighborhood": "Cascade/Eastlake",
    "neighborhoodGroup": "Lake Union",
    "unitCount": 1,
    "severity": 0,
    "units": "A4",
    "address": "810 Virginia St"
  },
  {
    "id_str": "F190072594",
    "created_at": "7/10/2019 11:45:16 AM",
    "lat": 47.530109,
    "long": -122.295457,
    "timestamp": 1562784316000,
    "description": "Automatic Fire Alarm False",
    "entries": 1,
    "neighborhood": "South Beacon Hill/NewHolly",
    "neighborhoodGroup": "Greater Duwamish",
    "unitCount": 1,
    "severity": 0,
    "units": "E33",
    "address": "8300 Military Rd S"
  },
  {
    "id_str": "F190072591",
    "created_at": "7/10/2019 11:37:51 AM",
    "lat": 47.690609,
    "long": -122.376806,
    "timestamp": 1562783871000,
    "description": "Medic Response",
    "entries": 3,
    "neighborhood": "Whittier Heights",
    "neighborhoodGroup": "Ballard",
    "unitCount": 3,
    "severity": 0,
    "units": "E35 M18 M31",
    "address": "Nw 85th St / 15th Av Nw"
  },
  {
    "id_str": "F190072589",
    "created_at": "7/10/2019 11:28:59 AM",
    "lat": 47.732314,
    "long": -122.350209,
    "timestamp": 1562783339000,
    "description": "Aid Response",
    "entries": 1,
    "neighborhood": "Broadview/Bitter Lake",
    "neighborhoodGroup": "Northwest",
    "unitCount": 1,
    "severity": 0,
    "units": "A31",
    "address": "720 N 143rd St"
  },
  {
    "id_str": "F190072588",
    "created_at": "7/10/2019 11:26:56 AM",
    "lat": 47.679547,
    "long": -122.36953,
    "timestamp": 1562783216000,
    "description": "Automatic Fire Alarm Resd",
    "entries": 1,
    "neighborhood": "Whittier Heights",
    "neighborhoodGroup": "Ballard",
    "unitCount": 1,
    "severity": 0,
    "units": "E21",
    "address": "1016 Nw 70th St"
  },
  {
    "id_str": "F190072587",
    "created_at": "7/10/2019 11:18:52 AM",
    "lat": 47.615086,
    "long": -122.335521,
    "timestamp": 1562782732000,
    "description": "Auto Fire Alarm",
    "entries": 2,
    "neighborhood": "Cascade/Eastlake",
    "neighborhoodGroup": "Lake Union",
    "unitCount": 3,
    "severity": 0,
    "units": "E25 L10 L4",
    "address": "1918 8th Av"
  },
  {
    "id_str": "F190072586",
    "created_at": "7/10/2019 11:09:37 AM",
    "lat": 47.62457,
    "long": -122.351461,
    "timestamp": 1562782177000,
    "description": "Aid Response",
    "entries": 2,
    "neighborhood": "Cascade/Eastlake",
    "neighborhoodGroup": "Lake Union",
    "unitCount": 2,
    "severity": 0,
    "units": "A2 A4",
    "address": "301 Mercer St"
  },
  {
    "id_str": "F190072584",
    "created_at": "7/10/2019 11:03:41 AM",
    "lat": 47.54887,
    "long": -122.354833,
    "timestamp": 1562781821000,
    "description": "Auto Fire Alarm",
    "entries": 1,
    "neighborhood": "Riverview",
    "neighborhoodGroup": "Delridge Neighborhoods",
    "unitCount": 2,
    "severity": 0,
    "units": "E11 L11",
    "address": "6000 16th Av Sw"
  },
  {
    "id_str": "F190072583",
    "created_at": "7/10/2019 11:00:15 AM",
    "lat": 47.629586,
    "long": -122.360557,
    "timestamp": 1562781615000,
    "description": "Automatic Fire Alarm Resd",
    "entries": 2,
    "neighborhood": "Queen Anne",
    "neighborhoodGroup": "Magnolia/Queen Anne",
    "unitCount": 2,
    "severity": 0,
    "units": "E20 E8",
    "address": "303 W Highland Dr"
  },
  {
    "id_str": "F190072582",
    "created_at": "7/10/2019 10:59:16 AM",
    "lat": 47.619994,
    "long": -122.355441,
    "timestamp": 1562781556000,
    "description": "Auto Fire Alarm",
    "entries": 1,
    "neighborhood": "Queen Anne",
    "neighborhoodGroup": "Magnolia/Queen Anne",
    "unitCount": 2,
    "severity": 0,
    "units": "E8 L4",
    "address": "220 1st Av N"
  },
  {
    "id_str": "F190072580",
    "created_at": "7/10/2019 10:49:32 AM",
    "lat": 47.56985,
    "long": -122.374084,
    "timestamp": 1562780972000,
    "description": "Medic Response",
    "entries": 1,
    "neighborhood": "North Delridge",
    "neighborhoodGroup": "Delridge Neighborhoods",
    "unitCount": 2,
    "severity": 0,
    "units": "E32 M32",
    "address": "3308 Sw Charlestown St"
  },
  {
    "id_str": "F190072579",
    "created_at": "7/10/2019 10:47:46 AM",
    "lat": 47.600825,
    "long": -122.330272,
    "timestamp": 1562780866000,
    "description": "Medic Response",
    "entries": 1,
    "neighborhood": "Pioneer Square/International District",
    "neighborhoodGroup": "Downtown",
    "unitCount": 2,
    "severity": 0,
    "units": "A5 M1",
    "address": "206 3rd Av S"
  },
  {
    "id_str": "F190072577",
    "created_at": "7/10/2019 10:45:00 AM",
    "lat": 47.668487,
    "long": -122.265879,
    "timestamp": 1562780700000,
    "description": "Automatic Fire Alarm Resd",
    "entries": 1,
    "neighborhood": "Laurelhurst/Sand Point",
    "neighborhoodGroup": "Northeast",
    "unitCount": 1,
    "severity": 0,
    "units": "E31",
    "address": "5616 Ne 55th St"
  },
  {
    "id_str": "F190072576",
    "created_at": "7/10/2019 10:40:20 AM",
    "lat": 47.601687,
    "long": -122.31398,
    "timestamp": 1562780420000,
    "description": "Aid Response",
    "entries": 1,
    "neighborhood": "First Hill",
    "neighborhoodGroup": "East",
    "unitCount": 1,
    "severity": 0,
    "units": "A10",
    "address": "1414 E Yesler Way"
  },
  {
    "id_str": "F190072575",
    "created_at": "7/10/2019 10:37:59 AM",
    "lat": 47.708899,
    "long": -122.320568,
    "timestamp": 1562780279000,
    "description": "Aid Response",
    "entries": 1,
    "neighborhood": "Northgate/Maple Leaf",
    "neighborhoodGroup": "North",
    "unitCount": 1,
    "severity": 0,
    "units": "A31",
    "address": "11045 8th Av Ne"
  },
  {
    "id_str": "F190072574",
    "created_at": "7/10/2019 10:37:37 AM",
    "lat": 47.538647,
    "long": -122.281872,
    "timestamp": 1562780257000,
    "description": "Water Job Minor",
    "entries": 2,
    "neighborhood": "South Beacon Hill/NewHolly",
    "neighborhoodGroup": "Greater Duwamish",
    "unitCount": 2,
    "severity": 0,
    "units": "E28 E33",
    "address": "7126 M L King Jr Way S"
  },
  {
    "id_str": "F190072572",
    "created_at": "7/10/2019 10:26:43 AM",
    "lat": 47.5401,
    "long": -122.300361,
    "timestamp": 1562779603000,
    "description": "Aid Response",
    "entries": 1,
    "neighborhood": "South Beacon Hill/NewHolly",
    "neighborhoodGroup": "Greater Duwamish",
    "unitCount": 1,
    "severity": 0,
    "units": "L12",
    "address": "7018 Covello Dr S"
  },
  {
    "id_str": "F190072570",
    "created_at": "7/10/2019 10:25:23 AM",
    "lat": 47.616595,
    "long": -122.340055,
    "timestamp": 1562779523000,
    "description": "Aid Response",
    "entries": 1,
    "neighborhood": "Cascade/Eastlake",
    "neighborhoodGroup": "Lake Union",
    "unitCount": 1,
    "severity": 0,
    "units": "A4",
    "address": "7th Av / Blanchard St"
  },
  {
    "id_str": "F190072569",
    "created_at": "7/10/2019 10:24:55 AM",
    "lat": 47.663402,
    "long": -122.30089,
    "timestamp": 1562779495000,
    "description": "Aid Response",
    "entries": 1,
    "neighborhood": "Ravenna/Bryant",
    "neighborhoodGroup": "Northeast",
    "unitCount": 1,
    "severity": 0,
    "units": "E38",
    "address": "4725 25th Av Ne"
  },
  {
    "id_str": "F190072568",
    "created_at": "7/10/2019 10:24:19 AM",
    "lat": 47.52079,
    "long": -122.390232,
    "timestamp": 1562779459000,
    "description": "Aid Response",
    "entries": 1,
    "neighborhood": "Fauntleroy/Seaview",
    "neighborhoodGroup": "Southwest",
    "unitCount": 1,
    "severity": 0,
    "units": "L11",
    "address": "4502 Sw Wildwood Pl"
  },
  {
    "id_str": "F190072567",
    "created_at": "7/10/2019 10:23:20 AM",
    "lat": 47.606283,
    "long": -122.310248,
    "timestamp": 1562779400000,
    "description": "Medic Response",
    "entries": 2,
    "neighborhood": "Central Area/Squire Park",
    "neighborhoodGroup": "Central",
    "unitCount": 3,
    "severity": 0,
    "units": "E25 L10 M17",
    "address": "550 17th Av"
  },
  {
    "id_str": "F190072566",
    "created_at": "7/10/2019 10:19:21 AM",
    "lat": 47.602588,
    "long": -122.334202,
    "timestamp": 1562779161000,
    "description": "Medic Response",
    "entries": 2,
    "neighborhood": "Downtown Commercial Core",
    "neighborhoodGroup": "Downtown",
    "unitCount": 3,
    "severity": 0,
    "units": "A5 M1 M17",
    "address": "107 Cherry St"
  },
  {
    "id_str": "F190072565",
    "created_at": "7/10/2019 10:18:11 AM",
    "lat": 47.602985,
    "long": -122.328535,
    "timestamp": 1562779091000,
    "description": "Medic Response",
    "entries": 1,
    "neighborhood": "First Hill",
    "neighborhoodGroup": "East",
    "unitCount": 2,
    "severity": 0,
    "units": "A10 M10",
    "address": "500 5th Av"
  },
  {
    "id_str": "F190072564",
    "created_at": "7/10/2019 10:16:37 AM",
    "lat": 47.619994,
    "long": -122.355441,
    "timestamp": 1562778997000,
    "description": "Auto Fire Alarm",
    "entries": 1,
    "neighborhood": "Queen Anne",
    "neighborhoodGroup": "Magnolia/Queen Anne",
    "unitCount": 2,
    "severity": 0,
    "units": "E8 L4",
    "address": "220 1st Av N"
  },
  {
    "id_str": "F190072563",
    "created_at": "7/10/2019 10:11:33 AM",
    "lat": 47.629849,
    "long": -122.304739,
    "timestamp": 1562778693000,
    "description": "Automatic Fire Alarm Resd",
    "entries": 1,
    "neighborhood": "Miller Park",
    "neighborhoodGroup": "East",
    "unitCount": 1,
    "severity": 0,
    "units": "E25",
    "address": "1161 21st Av E"
  },
  {
    "id_str": "F190072561",
    "created_at": "7/10/2019 10:06:33 AM",
    "lat": 47.524474,
    "long": -122.371261,
    "timestamp": 1562778393000,
    "description": "Automatic Medical Alarm",
    "entries": 1,
    "neighborhood": "Roxhill/Westwood",
    "neighborhoodGroup": "Delridge Neighborhoods",
    "unitCount": 1,
    "severity": 0,
    "units": "E37",
    "address": "8821 30th Av Sw"
  },
  {
    "id_str": "F190072556",
    "created_at": "7/10/2019 10:01:13 AM",
    "lat": 47.719414,
    "long": -122.312679,
    "timestamp": 1562778073000,
    "description": "MVI - Motor Vehicle Incident",
    "entries": 1,
    "neighborhood": "Olympic Hills/Victory Heights",
    "neighborhoodGroup": "North",
    "unitCount": 1,
    "severity": 0,
    "units": "E39",
    "address": "15th Av Ne / Ne 125th St"
  },
  {
    "id_str": "F190072557",
    "created_at": "7/10/2019 10:00:57 AM",
    "lat": 47.538902,
    "long": -122.293225,
    "timestamp": 1562778057000,
    "description": "Aid Response",
    "entries": 1,
    "neighborhood": "South Beacon Hill/NewHolly",
    "neighborhoodGroup": "Greater Duwamish",
    "unitCount": 1,
    "severity": 0,
    "units": "E27",
    "address": "3001 S Myrtle St"
  },
  {
    "id_str": "F190072554",
    "created_at": "7/10/2019 9:56:18 AM",
    "lat": 47.55114,
    "long": -122.307174,
    "timestamp": 1562777778000,
    "description": "Medic Response",
    "entries": 2,
    "neighborhood": "Beacon Hill",
    "neighborhoodGroup": "Greater Duwamish",
    "unitCount": 2,
    "severity": 0,
    "units": "E28 M28",
    "address": "2017 S Orcas St"
  },
  {
    "id_str": "F190072552",
    "created_at": "7/10/2019 9:49:31 AM",
    "lat": 47.726864,
    "long": -122.348012,
    "timestamp": 1562777371000,
    "description": "Aid Response Yellow",
    "entries": 2,
    "neighborhood": "Broadview/Bitter Lake",
    "neighborhoodGroup": "Northwest",
    "unitCount": 2,
    "severity": 0,
    "units": "A31 E24",
    "address": "747 N 135th St"
  },
  {
    "id_str": "F190072551",
    "created_at": "7/10/2019 9:43:55 AM",
    "lat": 47.611303,
    "long": -122.33768,
    "timestamp": 1562777035000,
    "description": "Aid Response",
    "entries": 1,
    "neighborhood": "Downtown Commercial Core",
    "neighborhoodGroup": "Downtown",
    "unitCount": 1,
    "severity": 0,
    "units": "A4",
    "address": "1620 4th Av"
  },
  {
    "id_str": "F190072549",
    "created_at": "7/10/2019 9:40:22 AM",
    "lat": 47.723487,
    "long": -122.297746,
    "timestamp": 1562776822000,
    "description": "Automatic Fire Alarm Resd",
    "entries": 1,
    "neighborhood": "Olympic Hills/Victory Heights",
    "neighborhoodGroup": "North",
    "unitCount": 1,
    "severity": 0,
    "units": "E39",
    "address": "13045 28th Av Ne"
  },
  {
    "id_str": "F190072548",
    "created_at": "7/10/2019 9:38:08 AM",
    "lat": 47.567291,
    "long": -122.329332,
    "timestamp": 1562776688000,
    "description": "AFA4 - Auto Alarm 2 + 1 + 1",
    "entries": 2,
    "neighborhood": "Duwamish/SODO",
    "neighborhoodGroup": "Greater Duwamish",
    "unitCount": 4,
    "severity": 0,
    "units": "B7 E13 E36 L1",
    "address": "4100 4th Av S"
  },
  {
    "id_str": "F190072546",
    "created_at": "7/10/2019 9:31:42 AM",
    "lat": 47.699611,
    "long": -122.341935,
    "timestamp": 1562776302000,
    "description": "Medic Response",
    "entries": 1,
    "neighborhood": "Licton Springs",
    "neighborhoodGroup": "Northwest",
    "unitCount": 2,
    "severity": 0,
    "units": "A31 M31",
    "address": "1300 N 97th St"
  },
  {
    "id_str": "F190072545",
    "created_at": "7/10/2019 9:31:42 AM",
    "lat": 47.520546,
    "long": -122.352848,
    "timestamp": 1562776302000,
    "description": "Aid Response",
    "entries": 1,
    "neighborhood": "Highland Park",
    "neighborhoodGroup": "Delridge Neighborhoods",
    "unitCount": 1,
    "severity": 0,
    "units": "E11",
    "address": "9251 14th Av Sw"
  },
  {
    "id_str": "F190072543",
    "created_at": "7/10/2019 9:30:01 AM",
    "lat": 47.549313,
    "long": -122.261091,
    "timestamp": 1562776201000,
    "description": "Aid Response",
    "entries": 1,
    "neighborhood": "Seward Park",
    "neighborhoodGroup": "Southeast",
    "unitCount": 1,
    "severity": 0,
    "units": "L12",
    "address": "5760 S Hawthorn Rd"
  },
  {
    "id_str": "F190072542",
    "created_at": "7/10/2019 9:28:48 AM",
    "lat": 47.683048,
    "long": -122.295852,
    "timestamp": 1562776128000,
    "description": "Aid Response",
    "entries": 1,
    "neighborhood": "Wedgwood/View Ridge",
    "neighborhoodGroup": "Northeast",
    "unitCount": 1,
    "severity": 0,
    "units": "E40",
    "address": "3003 Ne 75th St"
  },
  {
    "id_str": "F190072541",
    "created_at": "7/10/2019 9:28:38 AM",
    "lat": 47.616405,
    "long": -122.324488,
    "timestamp": 1562776118000,
    "description": "Auto Fire Alarm",
    "entries": 1,
    "neighborhood": "Capitol Hill",
    "neighborhoodGroup": "East",
    "unitCount": 2,
    "severity": 0,
    "units": "E25 L10",
    "address": "1705 Belmont Av"
  },
  {
    "id_str": "F190072539",
    "created_at": "7/10/2019 9:27:08 AM",
    "lat": 47.579811,
    "long": -122.334201,
    "timestamp": 1562776028000,
    "description": "MVI Medic",
    "entries": 1,
    "neighborhood": "Duwamish/SODO",
    "neighborhoodGroup": "Greater Duwamish",
    "unitCount": 3,
    "severity": 0,
    "units": "A14 M32 R1",
    "address": "1st Av S / S Lander St"
  },
  {
    "id_str": "F190072538",
    "created_at": "7/10/2019 9:26:59 AM",
    "lat": 47.579811,
    "long": -122.334201,
    "timestamp": 1562776019000,
    "description": "Medic Response, 6 per Rule",
    "entries": 1,
    "neighborhood": "Duwamish/SODO",
    "neighborhoodGroup": "Greater Duwamish",
    "unitCount": 3,
    "severity": 0,
    "units": "A5 E5 M28",
    "address": "1st Av S / S Lander St"
  },
  {
    "id_str": "F190072536",
    "created_at": "7/10/2019 9:25:02 AM",
    "lat": 47.614788,
    "long": -122.342952,
    "timestamp": 1562775902000,
    "description": "Automatic Medical Alarm",
    "entries": 1,
    "neighborhood": "Cascade/Eastlake",
    "neighborhoodGroup": "Lake Union",
    "unitCount": 1,
    "severity": 0,
    "units": "A2",
    "address": "2225 4th Av"
  },
  {
    "id_str": "F190072537",
    "created_at": "7/10/2019 9:24:44 AM",
    "lat": 47.562472,
    "long": -122.385455,
    "timestamp": 1562775884000,
    "description": "Aid Response",
    "entries": 1,
    "neighborhood": "West Seattle Junction/Genesee Hill",
    "neighborhoodGroup": "Southwest",
    "unitCount": 1,
    "severity": 0,
    "units": "E32",
    "address": "4545 42nd Av Sw"
  },
  {
    "id_str": "F190072535",
    "created_at": "7/10/2019 9:20:20 AM",
    "lat": 47.600825,
    "long": -122.330272,
    "timestamp": 1562775620000,
    "description": "Medic Response",
    "entries": 1,
    "neighborhood": "Pioneer Square/International District",
    "neighborhoodGroup": "Downtown",
    "unitCount": 2,
    "severity": 0,
    "units": "A10 M1",
    "address": "206 3rd Av S"
  },
  {
    "id_str": "F190072534",
    "created_at": "7/10/2019 9:19:30 AM",
    "lat": 47.600798,
    "long": -122.335951,
    "timestamp": 1562775570000,
    "description": "Automatic Fire Alarm False",
    "entries": 1,
    "neighborhood": "Pioneer Square/International District",
    "neighborhoodGroup": "Downtown",
    "unitCount": 2,
    "severity": 0,
    "units": "E6 L4",
    "address": "210 Alaskan Way S"
  },
  {
    "id_str": "F190072532",
    "created_at": "7/10/2019 9:18:36 AM",
    "lat": 47.600886,
    "long": -122.335349,
    "timestamp": 1562775516000,
    "description": "AFA4 - Auto Alarm 2 + 1 + 1",
    "entries": 1,
    "neighborhood": "Pioneer Square/International District",
    "neighborhoodGroup": "Downtown",
    "unitCount": 4,
    "severity": 0,
    "units": "B2 E10 E5 L1",
    "address": "65 S Washington St"
  },
  {
    "id_str": "F190072531",
    "created_at": "7/10/2019 9:18:05 AM",
    "lat": 47.609383,
    "long": -122.335923,
    "timestamp": 1562775485000,
    "description": "Aid Response",
    "entries": 1,
    "neighborhood": "Downtown Commercial Core",
    "neighborhoodGroup": "Downtown",
    "unitCount": 1,
    "severity": 0,
    "units": "A5",
    "address": "1417 4th Av"
  },
  {
    "id_str": "F190072530",
    "created_at": "7/10/2019 8:57:25 AM",
    "lat": 47.700241,
    "long": -122.366049,
    "timestamp": 1562774245000,
    "description": "Medic Response",
    "entries": 1,
    "neighborhood": "North Beach/Blue Ridge",
    "neighborhoodGroup": "Ballard",
    "unitCount": 2,
    "severity": 0,
    "units": "E21 M31",
    "address": "9722 8th Av Nw"
  },
  {
    "id_str": "F190072529",
    "created_at": "7/10/2019 8:57:12 AM",
    "lat": 47.717394,
    "long": -122.293981,
    "timestamp": 1562774232000,
    "description": "Aid Response",
    "entries": 1,
    "neighborhood": "Olympic Hills/Victory Heights",
    "neighborhoodGroup": "North",
    "unitCount": 1,
    "severity": 0,
    "units": "E39",
    "address": "12304 32nd Av Ne"
  },
  {
    "id_str": "F190072528",
    "created_at": "7/10/2019 8:54:38 AM",
    "lat": 47.535406,
    "long": -122.280643,
    "timestamp": 1562774078000,
    "description": "MVI - Motor Vehicle Incident",
    "entries": 1,
    "neighborhood": "South Beacon Hill/NewHolly",
    "neighborhoodGroup": "Greater Duwamish",
    "unitCount": 1,
    "severity": 0,
    "units": "E33",
    "address": "M L King Jr Way S / Renton Av S"
  },
  {
    "id_str": "F190072527",
    "created_at": "7/10/2019 8:39:13 AM",
    "lat": 47.61762,
    "long": -122.310139,
    "timestamp": 1562773153000,
    "description": "Medic Response",
    "entries": 1,
    "neighborhood": "Central Area/Squire Park",
    "neighborhoodGroup": "Central",
    "unitCount": 2,
    "severity": 0,
    "units": "A25 M10",
    "address": "1802 17th Av"
  },
  {
    "id_str": "F190072525",
    "created_at": "7/10/2019 8:36:39 AM",
    "lat": 47.582838,
    "long": -122.386485,
    "timestamp": 1562772999000,
    "description": "Aid Response",
    "entries": 1,
    "neighborhood": "Alki/Admiral",
    "neighborhoodGroup": "Southwest",
    "unitCount": 1,
    "severity": 0,
    "units": "E29",
    "address": "2326 California Av Sw"
  },
  {
    "id_str": "F190072524",
    "created_at": "7/10/2019 8:36:25 AM",
    "lat": 47.686885,
    "long": -122.375454,
    "timestamp": 1562772985000,
    "description": "MVI - Motor Vehicle Incident",
    "entries": 1,
    "neighborhood": "Whittier Heights",
    "neighborhoodGroup": "Ballard",
    "unitCount": 1,
    "severity": 0,
    "units": "E35",
    "address": "Mary Av Nw / Nw 80th St"
  },
  {
    "id_str": "F190072523",
    "created_at": "7/10/2019 8:35:52 AM",
    "lat": 47.605387,
    "long": -122.327511,
    "timestamp": 1562772952000,
    "description": "Aid Response",
    "entries": 1,
    "neighborhood": "First Hill",
    "neighborhoodGroup": "East",
    "unitCount": 1,
    "severity": 0,
    "units": "A10",
    "address": "710 Cherry St"
  },
  {
    "id_str": "F190072521",
    "created_at": "7/10/2019 8:33:38 AM",
    "lat": 47.599233,
    "long": -122.310139,
    "timestamp": 1562772818000,
    "description": "Aid Response",
    "entries": 1,
    "neighborhood": "Judkins Park",
    "neighborhoodGroup": "Central",
    "unitCount": 1,
    "severity": 0,
    "units": "E6",
    "address": "1710 S Jackson St"
  },
  {
    "id_str": "F190072519",
    "created_at": "7/10/2019 8:31:03 AM",
    "lat": 47.646599,
    "long": -122.388818,
    "timestamp": 1562772663000,
    "description": "Medic Response",
    "entries": 1,
    "neighborhood": "Interbay",
    "neighborhoodGroup": "Magnolia/Queen Anne",
    "unitCount": 2,
    "severity": 0,
    "units": "E41 M18",
    "address": "3002 25th Av W"
  },
  {
    "id_str": "F190072516",
    "created_at": "7/10/2019 8:26:03 AM",
    "lat": 47.526119,
    "long": -122.275843,
    "timestamp": 1562772363000,
    "description": "MVI - Motor Vehicle Incident",
    "entries": 1,
    "neighborhood": "Rainier Beach",
    "neighborhoodGroup": "Southeast",
    "unitCount": 1,
    "severity": 0,
    "units": "E33",
    "address": "S Cloverdale St / 45th Av S"
  },
  {
    "id_str": "F190072514",
    "created_at": "7/10/2019 8:21:33 AM",
    "lat": 47.668564,
    "long": -122.263433,
    "timestamp": 1562772093000,
    "description": "Automatic Medical Alarm",
    "entries": 1,
    "neighborhood": "Laurelhurst/Sand Point",
    "neighborhoodGroup": "Northeast",
    "unitCount": 1,
    "severity": 0,
    "units": "L9",
    "address": "5515 60th Av Ne"
  },
  {
    "id_str": "F190072512",
    "created_at": "7/10/2019 8:16:41 AM",
    "lat": 47.668877,
    "long": -122.271568,
    "timestamp": 1562771801000,
    "description": "Auto Fire Alarm",
    "entries": 1,
    "neighborhood": "Laurelhurst/Sand Point",
    "neighborhoodGroup": "Northeast",
    "unitCount": 2,
    "severity": 0,
    "units": "E38 L9",
    "address": "5500 Coniston Rd Ne"
  },
  {
    "id_str": "F190072511",
    "created_at": "7/10/2019 8:16:16 AM",
    "lat": 47.637272,
    "long": -122.280805,
    "timestamp": 1562771776000,
    "description": "Medic Response",
    "entries": 1,
    "neighborhood": "Madison Park",
    "neighborhoodGroup": "East",
    "unitCount": 2,
    "severity": 0,
    "units": "E34 M1",
    "address": "2029 Mcgilvra Blvd E"
  },
  {
    "id_str": "F190072509",
    "created_at": "7/10/2019 8:11:12 AM",
    "lat": 47.683048,
    "long": -122.295852,
    "timestamp": 1562771472000,
    "description": "Aid Response",
    "entries": 1,
    "neighborhood": "Wedgwood/View Ridge",
    "neighborhoodGroup": "Northeast",
    "unitCount": 1,
    "severity": 0,
    "units": "E40",
    "address": "3003 Ne 75th St"
  },
  {
    "id_str": "F190072508",
    "created_at": "7/10/2019 8:11:02 AM",
    "lat": 47.575087,
    "long": -122.309216,
    "timestamp": 1562771462000,
    "description": "Aid Response",
    "entries": 1,
    "neighborhood": "North Beacon Hill/Jefferson Park",
    "neighborhoodGroup": "Greater Duwamish",
    "unitCount": 1,
    "severity": 0,
    "units": "E13",
    "address": "S Hanford St / Beacon Av S"
  },
  {
    "id_str": "F190072505",
    "created_at": "7/10/2019 7:51:50 AM",
    "lat": 47.54666,
    "long": -122.373219,
    "timestamp": 1562770310000,
    "description": "Aid Response",
    "entries": 1,
    "neighborhood": "High Point",
    "neighborhoodGroup": "Delridge Neighborhoods",
    "unitCount": 1,
    "severity": 0,
    "units": "E37",
    "address": "3201 Sw Graham St"
  },
  {
    "id_str": "F190072504",
    "created_at": "7/10/2019 7:51:19 AM",
    "lat": 47.581021,
    "long": -122.314621,
    "timestamp": 1562770279000,
    "description": "Illegal Burn",
    "entries": 1,
    "neighborhood": "North Beacon Hill/Jefferson Park",
    "neighborhoodGroup": "Greater Duwamish",
    "unitCount": 1,
    "severity": 0,
    "units": "E13",
    "address": "1405 S Bayview St"
  },
  {
    "id_str": "F190072503",
    "created_at": "7/10/2019 7:45:18 AM",
    "lat": 47.614696,
    "long": -122.348746,
    "timestamp": 1562769918000,
    "description": "Aid Response",
    "entries": 1,
    "neighborhood": "Belltown",
    "neighborhoodGroup": "Downtown",
    "unitCount": 1,
    "severity": 0,
    "units": "A2",
    "address": "1st Av / Wall St"
  },
  {
    "id_str": "F190072501",
    "created_at": "7/10/2019 7:38:04 AM",
    "lat": 47.609685,
    "long": -122.334666,
    "timestamp": 1562769484000,
    "description": "MVI - Motor Vehicle Incident",
    "entries": 1,
    "neighborhood": "Downtown Commercial Core",
    "neighborhoodGroup": "Downtown",
    "unitCount": 1,
    "severity": 0,
    "units": "E5",
    "address": "Union St / 5th Av"
  },
  {
    "id_str": "F190072500",
    "created_at": "7/10/2019 7:31:11 AM",
    "lat": 47.534954,
    "long": -122.280638,
    "timestamp": 1562769071000,
    "description": "Aid Response",
    "entries": 2,
    "neighborhood": "South Beacon Hill/NewHolly",
    "neighborhoodGroup": "Greater Duwamish",
    "unitCount": 2,
    "severity": 0,
    "units": "E28 L12",
    "address": "7544 M L King Jr Way S"
  },
  {
    "id_str": "F190072499",
    "created_at": "7/10/2019 7:28:41 AM",
    "lat": 47.569349,
    "long": -122.376134,
    "timestamp": 1562768921000,
    "description": "Aid Response",
    "entries": 1,
    "neighborhood": "West Seattle Junction/Genesee Hill",
    "neighborhoodGroup": "Southwest",
    "unitCount": 1,
    "severity": 0,
    "units": "E32",
    "address": "3846 35th Av Sw"
  },
  {
    "id_str": "F190072498",
    "created_at": "7/10/2019 7:27:24 AM",
    "lat": 47.65693,
    "long": -122.364074,
    "timestamp": 1562768844000,
    "description": "4RED - 2 + 1 + 1",
    "entries": 1,
    "neighborhood": "Fremont",
    "neighborhoodGroup": "Lake Union",
    "unitCount": 4,
    "severity": 0,
    "units": "B4 E18 E9 L8",
    "address": "621 Nw 41st St"
  },
  {
    "id_str": "F190072497",
    "created_at": "7/10/2019 7:24:23 AM",
    "lat": 47.519699,
    "long": -122.338395,
    "timestamp": 1562768663000,
    "description": "MVI - Motor Vehicle Incident",
    "entries": 1,
    "neighborhood": "Highland Park",
    "neighborhoodGroup": "Delridge Neighborhoods",
    "unitCount": 1,
    "severity": 0,
    "units": "E11",
    "address": "3rd Av Sw / Olson Pl Sw"
  },
  {
    "id_str": "F190072495",
    "created_at": "7/10/2019 7:15:09 AM",
    "lat": 47.505663,
    "long": -122.257119,
    "timestamp": 1562768109000,
    "description": "Medic Response, 7 per Rule",
    "entries": 2,
    "neighborhood": "Rainier Beach",
    "neighborhoodGroup": "Southeast",
    "unitCount": 3,
    "severity": 0,
    "units": "E28 E33 M28",
    "address": "10628 61st Av S"
  },
  {
    "id_str": "F190072494",
    "created_at": "7/10/2019 7:02:24 AM",
    "lat": 47.520451,
    "long": -122.336003,
    "timestamp": 1562767344000,
    "description": "Hang-Up, Aid",
    "entries": 2,
    "unitCount": 2,
    "severity": 0,
    "units": "E26 E27",
    "address": "9240 2nd Av Sw"
  },
  {
    "id_str": "F190072491",
    "created_at": "7/10/2019 6:56:53 AM",
    "lat": 47.709397,
    "long": -122.309982,
    "timestamp": 1562767013000,
    "description": "Aid Response",
    "entries": 1,
    "neighborhood": "Olympic Hills/Victory Heights",
    "neighborhoodGroup": "North",
    "unitCount": 1,
    "severity": 0,
    "units": "E39",
    "address": "11039 17th Av Ne"
  },
  {
    "id_str": "F190072490",
    "created_at": "7/10/2019 6:52:47 AM",
    "lat": 47.726531,
    "long": -122.355554,
    "timestamp": 1562766767000,
    "description": "Aid Response",
    "entries": 1,
    "neighborhood": "Broadview/Bitter Lake",
    "neighborhoodGroup": "Northwest",
    "unitCount": 1,
    "severity": 0,
    "units": "E24",
    "address": "13410 Greenwood Av N"
  },
  {
    "id_str": "F190072489",
    "created_at": "7/10/2019 6:50:13 AM",
    "lat": 47.608434,
    "long": -122.338125,
    "timestamp": 1562766613000,
    "description": "Aid Response",
    "entries": 1,
    "neighborhood": "Downtown Commercial Core",
    "neighborhoodGroup": "Downtown",
    "unitCount": 1,
    "severity": 0,
    "units": "E5",
    "address": "1415 2nd Av"
  },
  {
    "id_str": "F190072488",
    "created_at": "7/10/2019 6:42:20 AM",
    "lat": 47.520679,
    "long": -122.335803,
    "timestamp": 1562766140000,
    "description": "Medic Response",
    "entries": 1,
    "unitCount": 2,
    "severity": 0,
    "units": "E11 M32",
    "address": "9230 2nd Av Sw"
  },
  {
    "id_str": "F190072486",
    "created_at": "7/10/2019 6:38:58 AM",
    "lat": 47.521244,
    "long": -122.336301,
    "timestamp": 1562765938000,
    "description": "Aid Response",
    "entries": 1,
    "neighborhood": "Highland Park",
    "neighborhoodGroup": "Delridge Neighborhoods",
    "unitCount": 1,
    "severity": 0,
    "units": "E26",
    "address": "9200 2nd Av Sw"
  },
  {
    "id_str": "F190072484",
    "created_at": "7/10/2019 6:37:19 AM",
    "lat": 47.639559,
    "long": -122.396988,
    "timestamp": 1562765839000,
    "description": "Aid Response",
    "entries": 1,
    "neighborhood": "Magnolia",
    "neighborhoodGroup": "Magnolia/Queen Anne",
    "unitCount": 1,
    "severity": 0,
    "units": "E41",
    "address": "W Mcgraw St / 31st Av W"
  },
  {
    "id_str": "F190072485",
    "created_at": "7/10/2019 6:37:14 AM",
    "lat": 47.570646,
    "long": -122.372297,
    "timestamp": 1562765834000,
    "description": "MVI Freeway",
    "entries": 2,
    "neighborhood": "North Delridge",
    "neighborhoodGroup": "Delridge Neighborhoods",
    "unitCount": 3,
    "severity": 0,
    "units": "A14 E32 E36",
    "address": "Eb Wsea Frwy Fr Fauntleroy"
  },
  {
    "id_str": "F190072482",
    "created_at": "7/10/2019 6:31:14 AM",
    "lat": 47.601703,
    "long": -122.322447,
    "timestamp": 1562765474000,
    "description": "1RED 1 Unit",
    "entries": 1,
    "neighborhood": "First Hill",
    "neighborhoodGroup": "East",
    "unitCount": 1,
    "severity": 0,
    "units": "E10",
    "address": "8th Av / Yesler Way"
  },
  {
    "id_str": "F190072480",
    "created_at": "7/10/2019 6:23:41 AM",
    "lat": 47.601669,
    "long": -122.324897,
    "timestamp": 1562765021000,
    "description": "MVI Freeway",
    "entries": 1,
    "neighborhood": "Pioneer Square/International District",
    "neighborhoodGroup": "Downtown",
    "unitCount": 3,
    "severity": 0,
    "units": "A2 E2 E25",
    "address": "Sb I5 At I90"
  },
  {
    "id_str": "F190072479",
    "created_at": "7/10/2019 6:23:19 AM",
    "lat": 47.572145,
    "long": -122.314795,
    "timestamp": 1562764999000,
    "description": "MVI - Motor Vehicle Incident",
    "entries": 1,
    "neighborhood": "Duwamish/SODO",
    "neighborhoodGroup": "Greater Duwamish",
    "unitCount": 1,
    "severity": 0,
    "units": "E13",
    "address": "14th Av S / S Columbian Way"
  },
  {
    "id_str": "F190072477",
    "created_at": "7/10/2019 6:03:12 AM",
    "lat": 47.670181,
    "long": -122.382727,
    "timestamp": 1562763792000,
    "description": "Aid Response",
    "entries": 1,
    "neighborhood": "Ballard",
    "neighborhoodGroup": "Ballard",
    "unitCount": 1,
    "severity": 0,
    "units": "E18",
    "address": "2046 Nw 57th St"
  },
  {
    "id_str": "F190072475",
    "created_at": "7/10/2019 6:02:38 AM",
    "lat": 47.600194,
    "long": -122.330541,
    "timestamp": 1562763758000,
    "description": "Aid Response",
    "entries": 1,
    "neighborhood": "Pioneer Square/International District",
    "neighborhoodGroup": "Downtown",
    "unitCount": 1,
    "severity": 0,
    "units": "A10",
    "address": "318 2nd Av Et S"
  },
  {
    "id_str": "F190072473",
    "created_at": "7/10/2019 5:46:55 AM",
    "lat": 47.658085,
    "long": -122.359596,
    "timestamp": 1562762815000,
    "description": "Aid Response",
    "entries": 1,
    "neighborhood": "Fremont",
    "neighborhoodGroup": "Lake Union",
    "unitCount": 1,
    "severity": 0,
    "units": "E9",
    "address": "4227 Baker Av Nw"
  },
  {
    "id_str": "F190072471",
    "created_at": "7/10/2019 5:44:38 AM",
    "lat": 47.521608,
    "long": -122.279569,
    "timestamp": 1562762678000,
    "description": "Aid Response",
    "entries": 1,
    "neighborhood": "South Beacon Hill/NewHolly",
    "neighborhoodGroup": "Greater Duwamish",
    "unitCount": 1,
    "severity": 0,
    "units": "E33",
    "address": "9132 M L King Jr Way S"
  },
  {
    "id_str": "F190072470",
    "created_at": "7/10/2019 5:41:44 AM",
    "lat": 47.620879,
    "long": -122.339769,
    "timestamp": 1562762504000,
    "description": "Aid Response",
    "entries": 1,
    "neighborhood": "Cascade/Eastlake",
    "neighborhoodGroup": "Lake Union",
    "unitCount": 1,
    "severity": 0,
    "units": "A2",
    "address": "9th Av N / Thomas St"
  },
  {
    "id_str": "F190072469",
    "created_at": "7/10/2019 5:31:09 AM",
    "lat": 47.56901,
    "long": -122.301833,
    "timestamp": 1562761869000,
    "description": "Medic Response",
    "entries": 1,
    "neighborhood": "North Beacon Hill/Jefferson Park",
    "neighborhoodGroup": "Greater Duwamish",
    "unitCount": 2,
    "severity": 0,
    "units": "E13 M28",
    "address": "3924 24th Av S"
  },
  {
    "id_str": "F190072468",
    "created_at": "7/10/2019 5:04:07 AM",
    "lat": 47.603698,
    "long": -122.329187,
    "timestamp": 1562760247000,
    "description": "Aid Response",
    "entries": 1,
    "neighborhood": "First Hill",
    "neighborhoodGroup": "East",
    "unitCount": 1,
    "severity": 0,
    "units": "A5",
    "address": "601 5th Av"
  },
  {
    "id_str": "F190072467",
    "created_at": "7/10/2019 4:56:18 AM",
    "lat": 47.611641,
    "long": -122.291354,
    "timestamp": 1562759778000,
    "description": "Aid Response",
    "entries": 1,
    "neighborhood": "Madrona/Leschi",
    "neighborhoodGroup": "Central",
    "unitCount": 1,
    "severity": 0,
    "units": "A25",
    "address": "3209 E Spring St"
  },
  {
    "id_str": "F190072466",
    "created_at": "7/10/2019 4:48:05 AM",
    "lat": 47.627233,
    "long": -122.342326,
    "timestamp": 1562759285000,
    "description": "Auto Fire Alarm",
    "entries": 1,
    "neighborhood": "Queen Anne",
    "neighborhoodGroup": "Magnolia/Queen Anne",
    "unitCount": 2,
    "severity": 0,
    "units": "E2 L4",
    "address": "912 Dexter Av N"
  },
  {
    "id_str": "F190072462",
    "created_at": "7/10/2019 4:28:19 AM",
    "lat": 47.63233,
    "long": -122.365198,
    "timestamp": 1562758099000,
    "description": "Activated CO Detector",
    "entries": 1,
    "neighborhood": "Queen Anne",
    "neighborhoodGroup": "Magnolia/Queen Anne",
    "unitCount": 1,
    "severity": 0,
    "units": "L6",
    "address": "621 W Galer St"
  },
  {
    "id_str": "F190072456",
    "created_at": "7/10/2019 3:40:30 AM",
    "lat": 47.534553,
    "long": -122.313668,
    "timestamp": 1562755230000,
    "description": "Auto Fire Alarm",
    "entries": 1,
    "neighborhood": "Georgetown",
    "neighborhoodGroup": "Greater Duwamish",
    "unitCount": 2,
    "severity": 0,
    "units": "E26 R1",
    "address": "7644 East Marginal Way S"
  },
  {
    "id_str": "F190072455",
    "created_at": "7/10/2019 3:33:37 AM",
    "lat": 47.714322,
    "long": -122.331428,
    "timestamp": 1562754817000,
    "description": "Automatic Fire Alarm Resd",
    "entries": 1,
    "neighborhood": "Haller Lake",
    "neighborhoodGroup": "Northwest",
    "unitCount": 1,
    "severity": 0,
    "units": "E24",
    "address": "11739 Corliss Av N"
  },
  {
    "id_str": "F190072454",
    "created_at": "7/10/2019 3:32:46 AM",
    "lat": 47.574613,
    "long": -122.386762,
    "timestamp": 1562754766000,
    "description": "Aid Response",
    "entries": 1,
    "neighborhood": "West Seattle Junction/Genesee Hill",
    "neighborhoodGroup": "Southwest",
    "unitCount": 1,
    "severity": 0,
    "units": "E29",
    "address": "3255 California Av Sw"
  },
  {
    "id_str": "F190072453",
    "created_at": "7/10/2019 3:30:27 AM",
    "lat": 47.663347,
    "long": -122.313098,
    "timestamp": 1562754627000,
    "description": "Aid Response",
    "entries": 1,
    "neighborhood": "University District",
    "neighborhoodGroup": "Northeast",
    "unitCount": 1,
    "severity": 0,
    "units": "E17",
    "address": "4743 University Way Ne"
  },
  {
    "id_str": "F190072447",
    "created_at": "7/10/2019 3:04:30 AM",
    "lat": 47.553456,
    "long": -122.317189,
    "timestamp": 1562753070000,
    "description": "1RED 1 Unit",
    "entries": 1,
    "neighborhood": "Beacon Hill",
    "neighborhoodGroup": "Greater Duwamish",
    "unitCount": 1,
    "severity": 0,
    "units": "E27",
    "address": "12th Av S / S Lucile St"
  },
  {
    "id_str": "F190072444",
    "created_at": "7/10/2019 2:57:46 AM",
    "lat": 47.625353,
    "long": -122.31781,
    "timestamp": 1562752666000,
    "description": "Automatic Fire Alarm Resd",
    "entries": 1,
    "neighborhood": "North Capitol Hill",
    "neighborhoodGroup": "East",
    "unitCount": 1,
    "severity": 0,
    "units": "E25",
    "address": "1120 E Roy St"
  },
  {
    "id_str": "F190072441",
    "created_at": "7/10/2019 2:39:50 AM",
    "lat": 47.663215,
    "long": -122.315262,
    "timestamp": 1562751590000,
    "description": "Medic Response",
    "entries": 1,
    "neighborhood": "University District",
    "neighborhoodGroup": "Northeast",
    "unitCount": 2,
    "severity": 0,
    "units": "E31 M17",
    "address": "4719 12th Av Ne"
  },
  {
    "id_str": "F190072440",
    "created_at": "7/10/2019 2:20:14 AM",
    "lat": 47.689025,
    "long": -122.339122,
    "timestamp": 1562750414000,
    "description": "Aid Response",
    "entries": 1,
    "neighborhood": "Green Lake",
    "neighborhoodGroup": "Northwest",
    "unitCount": 1,
    "severity": 0,
    "units": "E21",
    "address": "8251 Ashworth Av N"
  },
  {
    "id_str": "F190072439",
    "created_at": "7/10/2019 2:16:42 AM",
    "lat": 47.663658,
    "long": -122.370766,
    "timestamp": 1562750202000,
    "description": "Aid Response",
    "entries": 1,
    "neighborhood": "Ballard",
    "neighborhoodGroup": "Ballard",
    "unitCount": 1,
    "severity": 0,
    "units": "E18",
    "address": "1101 Nw Leary Way"
  },
  {
    "id_str": "F190072438",
    "created_at": "7/10/2019 2:13:31 AM",
    "lat": 47.563054,
    "long": -122.32408,
    "timestamp": 1562750011000,
    "description": "Aid Response",
    "entries": 1,
    "neighborhood": "Duwamish/SODO",
    "neighborhoodGroup": "Greater Duwamish",
    "unitCount": 1,
    "severity": 0,
    "units": "A14",
    "address": "4500 7th Av S"
  },
  {
    "id_str": "F190072437",
    "created_at": "7/10/2019 2:05:41 AM",
    "lat": 47.598313,
    "long": -122.327671,
    "timestamp": 1562749541000,
    "description": "Aid Response",
    "entries": 1,
    "neighborhood": "Pioneer Square/International District",
    "neighborhoodGroup": "Downtown",
    "unitCount": 1,
    "severity": 0,
    "units": "A10",
    "address": "505 5th Av S"
  },
  {
    "id_str": "F190072436",
    "created_at": "7/10/2019 2:04:05 AM",
    "lat": 47.601539,
    "long": -122.326352,
    "timestamp": 1562749445000,
    "description": "Medic Response",
    "entries": 1,
    "neighborhood": "Pioneer Square/International District",
    "neighborhoodGroup": "Downtown",
    "unitCount": 2,
    "severity": 0,
    "units": "A5 M10",
    "address": "120 6th Av S"
  },
  {
    "id_str": "F190072433",
    "created_at": "7/10/2019 2:00:33 AM",
    "lat": 47.522415,
    "long": -122.38209,
    "timestamp": 1562749233000,
    "description": "Automatic Fire Alarm Resd",
    "entries": 1,
    "neighborhood": "Fauntleroy/Seaview",
    "neighborhoodGroup": "Southwest",
    "unitCount": 1,
    "severity": 0,
    "units": "E37",
    "address": "9055 39th Av Sw"
  },
  {
    "id_str": "F190072432",
    "created_at": "7/10/2019 1:59:42 AM",
    "lat": 47.669459,
    "long": -122.311887,
    "timestamp": 1562749182000,
    "description": "Medic Response",
    "entries": 1,
    "neighborhood": "University District",
    "neighborhoodGroup": "Northeast",
    "unitCount": 2,
    "severity": 0,
    "units": "E17 M17",
    "address": "5602 15th Av Ne"
  },
  {
    "id_str": "F190072431",
    "created_at": "7/10/2019 1:59:32 AM",
    "lat": 47.584621,
    "long": -122.379358,
    "timestamp": 1562749172000,
    "description": "MVI Medic",
    "entries": 2,
    "neighborhood": "Alki/Admiral",
    "neighborhoodGroup": "Southwest",
    "unitCount": 2,
    "severity": 0,
    "units": "E29 M32",
    "address": "2130 FAIRMOUNT AV SW"
  },
  {
    "id_str": "F190072430",
    "created_at": "7/10/2019 1:24:04 AM",
    "lat": 47.67484,
    "long": -122.311923,
    "timestamp": 1562747044000,
    "description": "Alarm Bell",
    "entries": 1,
    "neighborhood": "University District",
    "neighborhoodGroup": "Northeast",
    "unitCount": 2,
    "severity": 0,
    "units": "E16 L9",
    "address": "6315 15th Av Ne"
  },
  {
    "id_str": "F190072429",
    "created_at": "7/10/2019 1:13:40 AM",
    "lat": 47.663658,
    "long": -122.370766,
    "timestamp": 1562746420000,
    "description": "Aid Response",
    "entries": 1,
    "neighborhood": "Ballard",
    "neighborhoodGroup": "Ballard",
    "unitCount": 1,
    "severity": 0,
    "units": "E18",
    "address": "1101 NW LEARY WAY"
  },
  {
    "id_str": "F190072428",
    "created_at": "7/10/2019 1:08:30 AM",
    "lat": 47.55406,
    "long": -122.334215,
    "timestamp": 1562746110000,
    "description": "Aid Response",
    "entries": 1,
    "neighborhood": "Georgetown",
    "neighborhoodGroup": "Greater Duwamish",
    "unitCount": 1,
    "severity": 0,
    "units": "E27",
    "address": "5414 1st Av S"
  },
  {
    "id_str": "F190072427",
    "created_at": "7/10/2019 12:57:38 AM",
    "lat": 47.732316,
    "long": -122.356343,
    "timestamp": 1562745458000,
    "description": "Medic Response, 7 per Rule",
    "entries": 2,
    "neighborhood": "Broadview/Bitter Lake",
    "neighborhoodGroup": "Northwest",
    "unitCount": 3,
    "severity": 0,
    "units": "E24 E35 M31",
    "address": "227 N 143rd St"
  },
  {
    "id_str": "F190072426",
    "created_at": "7/10/2019 12:56:51 AM",
    "lat": 47.51931,
    "long": -122.266169,
    "timestamp": 1562745411000,
    "description": "Aid Response",
    "entries": 1,
    "neighborhood": "Rainier Beach",
    "neighborhoodGroup": "Southeast",
    "unitCount": 1,
    "severity": 0,
    "units": "E33",
    "address": "9329 53rd Av S"
  },
  {
    "id_str": "F190072424",
    "created_at": "7/10/2019 12:42:16 AM",
    "lat": 47.605624,
    "long": -122.334019,
    "timestamp": 1562744536000,
    "description": "Aid Response",
    "entries": 1,
    "neighborhood": "Downtown Commercial Core",
    "neighborhoodGroup": "Downtown",
    "unitCount": 1,
    "severity": 0,
    "units": "A10",
    "address": "3rd Av / Madison St"
  },
  {
    "id_str": "F190072421",
    "created_at": "7/10/2019 12:34:12 AM",
    "lat": 47.521244,
    "long": -122.336301,
    "timestamp": 1562744052000,
    "description": "Aid Response Yellow",
    "entries": 1,
    "neighborhood": "Highland Park",
    "neighborhoodGroup": "Delridge Neighborhoods",
    "unitCount": 1,
    "severity": 0,
    "units": "E26",
    "address": "9200 2nd Av Sw"
  },
  {
    "id_str": "F190072420",
    "created_at": "7/10/2019 12:24:06 AM",
    "lat": 47.615227,
    "long": -122.321926,
    "timestamp": 1562743446000,
    "description": "Medic Response",
    "entries": 1,
    "neighborhood": "Capitol Hill",
    "neighborhoodGroup": "East",
    "unitCount": 2,
    "severity": 0,
    "units": "A25 M1",
    "address": "815 E Pine St"
  },
  {
    "id_str": "F190072419",
    "created_at": "7/10/2019 12:16:30 AM",
    "lat": 47.615781,
    "long": -122.334715,
    "timestamp": 1562742990000,
    "description": "Unk Odor",
    "entries": 1,
    "neighborhood": "Cascade/Eastlake",
    "neighborhoodGroup": "Lake Union",
    "unitCount": 1,
    "severity": 0,
    "units": "E2",
    "address": "1922 9th Av"
  },
  {
    "id_str": "F190072418",
    "created_at": "7/10/2019 12:12:32 AM",
    "lat": 47.728731,
    "long": -122.35512,
    "timestamp": 1562742752000,
    "description": "Automatic Medical Alarm",
    "entries": 1,
    "neighborhood": "Broadview/Bitter Lake",
    "neighborhoodGroup": "Northwest",
    "unitCount": 1,
    "severity": 0,
    "units": "E24",
    "address": "326 N 137th St"
  },
  {
    "id_str": "F190072417",
    "created_at": "7/10/2019 12:09:42 AM",
    "lat": 47.612698,
    "long": -122.343385,
    "timestamp": 1562742582000,
    "description": "Aid Response",
    "entries": 1,
    "neighborhood": "Belltown",
    "neighborhoodGroup": "Downtown",
    "unitCount": 1,
    "severity": 0,
    "units": "A2",
    "address": "2126 2nd Av"
  },
  {
    "id_str": "F190072416",
    "created_at": "7/10/2019 12:05:13 AM",
    "lat": 47.686936,
    "long": -122.366002,
    "timestamp": 1562742313000,
    "description": "MVI - Motor Vehicle Incident",
    "entries": 1,
    "neighborhood": "Greenwood/Phinney Ridge",
    "neighborhoodGroup": "Northwest",
    "unitCount": 1,
    "severity": 0,
    "units": "E21",
    "address": "8th Av Nw / Nw 80th St"
  },
  {
    "id_str": "F190072412",
    "created_at": "7/9/2019 11:51:35 PM",
    "lat": 47.66946,
    "long": -122.390573,
    "timestamp": 1562741495000,
    "description": "Medic Response",
    "entries": 4,
    "neighborhood": "Sunset Hill/Loyal Heights",
    "neighborhoodGroup": "Ballard",
    "unitCount": 4,
    "severity": 0,
    "units": "A10 A5 E18 M18",
    "address": "2632 Nw 56th St"
  },
  {
    "id_str": "F190072410",
    "created_at": "7/9/2019 11:46:08 PM",
    "lat": 47.600194,
    "long": -122.330541,
    "timestamp": 1562741168000,
    "description": "Aid Response",
    "entries": 1,
    "neighborhood": "Pioneer Square/International District",
    "neighborhoodGroup": "Downtown",
    "unitCount": 1,
    "severity": 0,
    "units": "A5",
    "address": "318 2nd Av Et S"
  },
  {
    "id_str": "F190072409",
    "created_at": "7/9/2019 11:38:43 PM",
    "lat": 47.661567,
    "long": -122.309719,
    "timestamp": 1562740723000,
    "description": "Aid Response",
    "entries": 1,
    "neighborhood": "University District",
    "neighborhoodGroup": "Northeast",
    "unitCount": 1,
    "severity": 0,
    "units": "E31",
    "address": "4535 17th Av Ne"
  },
  {
    "id_str": "F190072407",
    "created_at": "7/9/2019 11:28:53 PM",
    "lat": 47.625212,
    "long": -122.326601,
    "timestamp": 1562740133000,
    "description": "Alarm Bell",
    "entries": 1,
    "neighborhood": "North Capitol Hill",
    "neighborhoodGroup": "East",
    "unitCount": 2,
    "severity": 0,
    "units": "E2 L10",
    "address": "711 Bellevue Av E"
  },
  {
    "id_str": "F190072405",
    "created_at": "7/9/2019 11:21:05 PM",
    "lat": 47.600874,
    "long": -122.334182,
    "timestamp": 1562739665000,
    "description": "Aid Response",
    "entries": 1,
    "neighborhood": "Pioneer Square/International District",
    "neighborhoodGroup": "Downtown",
    "unitCount": 1,
    "severity": 0,
    "units": "A10",
    "address": "201 1st Av S"
  },
  {
    "id_str": "F190072404",
    "created_at": "7/9/2019 11:20:03 PM",
    "lat": 47.66749,
    "long": -122.383093,
    "timestamp": 1562739603000,
    "description": "Aid Response Yellow",
    "entries": 1,
    "neighborhood": "Ballard",
    "neighborhoodGroup": "Ballard",
    "unitCount": 1,
    "severity": 0,
    "units": "E18",
    "address": "5433 Leary Av Nw"
  },
  {
    "id_str": "F190072403",
    "created_at": "7/9/2019 11:18:28 PM",
    "lat": 47.619219,
    "long": -122.326346,
    "timestamp": 1562739508000,
    "description": "Medic Response",
    "entries": 2,
    "neighborhood": "Capitol Hill",
    "neighborhoodGroup": "East",
    "unitCount": 2,
    "severity": 0,
    "units": "E25 M10",
    "address": "418 E Loretta Pl"
  },
  {
    "id_str": "F190072400",
    "created_at": "7/9/2019 11:15:16 PM",
    "lat": 47.602172,
    "long": -122.330863,
    "timestamp": 1562739316000,
    "description": "Aid Response",
    "entries": 1,
    "neighborhood": "Downtown Commercial Core",
    "neighborhoodGroup": "Downtown",
    "unitCount": 1,
    "severity": 0,
    "units": "A5",
    "address": "517 3rd Av"
  },
  {
    "id_str": "F190072398",
    "created_at": "7/9/2019 10:47:19 PM",
    "lat": 47.542238,
    "long": -122.272642,
    "timestamp": 1562737639000,
    "description": "Aid Response",
    "entries": 1,
    "neighborhood": "Seward Park",
    "neighborhoodGroup": "Southeast",
    "unitCount": 1,
    "severity": 0,
    "units": "E28",
    "address": "6727 Rainier Av S"
  },
  {
    "id_str": "F190072397",
    "created_at": "7/9/2019 10:43:44 PM",
    "lat": 47.616461,
    "long": -122.297467,
    "timestamp": 1562737424000,
    "description": "1RED 1 Unit",
    "entries": 1,
    "neighborhood": "Central Area/Squire Park",
    "neighborhoodGroup": "Central",
    "unitCount": 1,
    "severity": 0,
    "units": "E34",
    "address": "27th Av / E Olive St"
  },
  {
    "id_str": "F190072396",
    "created_at": "7/9/2019 10:43:00 PM",
    "lat": 47.606628,
    "long": -122.312857,
    "timestamp": 1562737380000,
    "description": "Medic Response",
    "entries": 1,
    "neighborhood": "First Hill",
    "neighborhoodGroup": "East",
    "unitCount": 2,
    "severity": 0,
    "units": "A25 M1",
    "address": "548 15th Av"
  },
  {
    "id_str": "F190072391",
    "created_at": "7/9/2019 10:26:03 PM",
    "lat": 47.633499,
    "long": -122.376195,
    "timestamp": 1562736363000,
    "description": "Aid Response",
    "entries": 2,
    "neighborhood": "Interbay",
    "neighborhoodGroup": "Magnolia/Queen Anne",
    "unitCount": 2,
    "severity": 0,
    "units": "E20 E41",
    "address": "15th Av W / W Garfield St"
  },
  {
    "id_str": "F190072388",
    "created_at": "7/9/2019 10:16:01 PM",
    "lat": 47.61559,
    "long": -122.310151,
    "timestamp": 1562735761000,
    "description": "Aid Response Yellow",
    "entries": 1,
    "neighborhood": "Central Area/Squire Park",
    "neighborhoodGroup": "Central",
    "unitCount": 1,
    "severity": 0,
    "units": "A25",
    "address": "1700 E Madison St"
  },
  {
    "id_str": "F190072385",
    "created_at": "7/9/2019 10:12:51 PM",
    "lat": 47.71049,
    "long": -122.326004,
    "timestamp": 1562735571000,
    "description": "Aid Response",
    "entries": 1,
    "neighborhood": "Northgate/Maple Leaf",
    "neighborhoodGroup": "North",
    "unitCount": 1,
    "severity": 0,
    "units": "E39",
    "address": "11301 3rd Av Ne"
  },
  {
    "id_str": "F190072383",
    "created_at": "7/9/2019 10:08:00 PM",
    "lat": 47.668673,
    "long": -122.380353,
    "timestamp": 1562735280000,
    "description": "Aid Response",
    "entries": 1,
    "neighborhood": "Ballard",
    "neighborhoodGroup": "Ballard",
    "unitCount": 1,
    "severity": 0,
    "units": "E18",
    "address": "Nw Market St / Barnes Av Nw"
  },
  {
    "id_str": "F190072379",
    "created_at": "7/9/2019 9:47:30 PM",
    "lat": 47.613412,
    "long": -122.344592,
    "timestamp": 1562734050000,
    "description": "Auto Fire Alarm",
    "entries": 1,
    "neighborhood": "Belltown",
    "neighborhoodGroup": "Downtown",
    "unitCount": 2,
    "severity": 0,
    "units": "E2 L4",
    "address": "2219 2nd Av"
  },
  {
    "id_str": "F190072378",
    "created_at": "7/9/2019 9:41:48 PM",
    "lat": 47.600885,
    "long": -122.334925,
    "timestamp": 1562733708000,
    "description": "Medic Response",
    "entries": 1,
    "neighborhood": "Pioneer Square/International District",
    "neighborhoodGroup": "Downtown",
    "unitCount": 2,
    "severity": 0,
    "units": "L1 M10",
    "address": "77 S Washington St"
  },
  {
    "id_str": "F190072375",
    "created_at": "7/9/2019 9:35:25 PM",
    "lat": 47.617097,
    "long": -122.326803,
    "timestamp": 1562733325000,
    "description": "Aid Response",
    "entries": 1,
    "neighborhood": "Capitol Hill",
    "neighborhoodGroup": "East",
    "unitCount": 1,
    "severity": 0,
    "units": "E25",
    "address": "1403 E Olive Way"
  },
  {
    "id_str": "F190072374",
    "created_at": "7/9/2019 9:30:21 PM",
    "lat": 47.615789,
    "long": -122.336507,
    "timestamp": 1562733021000,
    "description": "Aid Response",
    "entries": 2,
    "neighborhood": "Cascade/Eastlake",
    "neighborhoodGroup": "Lake Union",
    "unitCount": 2,
    "severity": 0,
    "units": "A2 E2",
    "address": "810 Virginia St"
  },
  {
    "id_str": "F190072373",
    "created_at": "7/9/2019 9:25:14 PM",
    "lat": 47.619917,
    "long": -122.319526,
    "timestamp": 1562732714000,
    "description": "Aid Response",
    "entries": 1,
    "neighborhood": "Capitol Hill",
    "neighborhoodGroup": "East",
    "unitCount": 1,
    "severity": 0,
    "units": "A25",
    "address": "1001 E John St"
  },
  {
    "id_str": "F190072372",
    "created_at": "7/9/2019 9:24:56 PM",
    "lat": 47.579157,
    "long": -122.298767,
    "timestamp": 1562732696000,
    "description": "Aid Response",
    "entries": 1,
    "neighborhood": "Mt. Baker/North Rainier",
    "neighborhoodGroup": "Southeast",
    "unitCount": 1,
    "severity": 0,
    "units": "E30",
    "address": "2707 Rainier Av S"
  },
  {
    "id_str": "F190072368",
    "created_at": "7/9/2019 9:17:17 PM",
    "lat": 47.602255,
    "long": -122.320739,
    "timestamp": 1562732237000,
    "description": "Aid Response",
    "entries": 1,
    "neighborhood": "First Hill",
    "neighborhoodGroup": "East",
    "unitCount": 1,
    "severity": 0,
    "units": "A10",
    "address": "120 Broadway"
  },
  {
    "id_str": "F190072367",
    "created_at": "7/9/2019 9:08:43 PM",
    "lat": 47.654628,
    "long": -122.338658,
    "timestamp": 1562731723000,
    "description": "Aid Response Yellow",
    "entries": 1,
    "neighborhood": "Fremont",
    "neighborhoodGroup": "Lake Union",
    "unitCount": 1,
    "severity": 0,
    "units": "E9",
    "address": "3923 Woodlawn Av N"
  },
  {
    "id_str": "F190072366",
    "created_at": "7/9/2019 9:06:49 PM",
    "lat": 47.577176,
    "long": -122.319669,
    "timestamp": 1562731609000,
    "description": "MVI Medic",
    "entries": 2,
    "neighborhood": "Duwamish/SODO",
    "neighborhoodGroup": "Greater Duwamish",
    "unitCount": 4,
    "severity": 0,
    "units": "A5 E10 E5 M17",
    "address": "Sb I5 At Spokane"
  },
  {
    "id_str": "F190072365",
    "created_at": "7/9/2019 9:06:22 PM",
    "lat": 47.614089,
    "long": -122.325503,
    "timestamp": 1562731582000,
    "description": "Aid Response",
    "entries": 1,
    "neighborhood": "Capitol Hill",
    "neighborhoodGroup": "East",
    "unitCount": 1,
    "severity": 0,
    "units": "E25",
    "address": "501 E Pike St"
  },
  {
    "id_str": "F190072363",
    "created_at": "7/9/2019 9:03:53 PM",
    "lat": 47.601688,
    "long": -122.314914,
    "timestamp": 1562731433000,
    "description": "AFA4 - Auto Alarm 2 + 1 + 1",
    "entries": 2,
    "neighborhood": "Judkins Park",
    "neighborhoodGroup": "Central",
    "unitCount": 4,
    "severity": 0,
    "units": "B5 E30 E6 L3",
    "address": "1302 E Yesler Way"
  },
  {
    "id_str": "F190072362",
    "created_at": "7/9/2019 9:00:23 PM",
    "lat": 47.536976,
    "long": -122.275007,
    "timestamp": 1562731223000,
    "description": "Illegal Burn",
    "entries": 1,
    "neighborhood": "Columbia City",
    "neighborhoodGroup": "Southeast",
    "unitCount": 1,
    "severity": 0,
    "units": "L12",
    "address": "4626 S OTHELLO ST"
  },
  {
    "id_str": "F190072361",
    "created_at": "7/9/2019 8:44:41 PM",
    "lat": 47.567463,
    "long": -122.306778,
    "timestamp": 1562730281000,
    "description": "MVI - Motor Vehicle Incident",
    "entries": 1,
    "neighborhood": "North Beacon Hill/Jefferson Park",
    "neighborhoodGroup": "Greater Duwamish",
    "unitCount": 1,
    "severity": 0,
    "units": "E13",
    "address": "4001 BEACON AV S"
  },
  {
    "id_str": "F190072358",
    "created_at": "7/9/2019 8:39:47 PM",
    "lat": 47.61996,
    "long": -122.313736,
    "timestamp": 1562729987000,
    "description": "Aid Response",
    "entries": 1,
    "neighborhood": "Capitol Hill",
    "neighborhoodGroup": "East",
    "unitCount": 2,
    "severity": 0,
    "units": "A25 M28",
    "address": "1410 E John St"
  },
  {
    "id_str": "F190072355",
    "created_at": "7/9/2019 8:38:52 PM",
    "lat": 47.6148,
    "long": -122.344671,
    "timestamp": 1562729932000,
    "description": "Medic Response",
    "entries": 1,
    "neighborhood": "Cascade/Eastlake",
    "neighborhoodGroup": "Lake Union",
    "unitCount": 2,
    "severity": 0,
    "units": "E2 M17",
    "address": "314 Bell St"
  },
  {
    "id_str": "F190072356",
    "created_at": "7/9/2019 8:38:35 PM",
    "lat": 47.650743,
    "long": -122.308014,
    "timestamp": 1562729915000,
    "description": "Single Medic Unit",
    "entries": 1,
    "neighborhood": "University District",
    "neighborhoodGroup": "Northeast",
    "unitCount": 1,
    "severity": 0,
    "units": "M10",
    "address": "1959 Ne Pacific St"
  },
  {
    "id_str": "F190072354",
    "created_at": "7/9/2019 8:36:40 PM",
    "lat": 47.668654,
    "long": -122.393175,
    "timestamp": 1562729800000,
    "description": "Aid Response",
    "entries": 1,
    "neighborhood": "Sunset Hill/Loyal Heights",
    "neighborhoodGroup": "Ballard",
    "unitCount": 1,
    "severity": 0,
    "units": "E18",
    "address": "2839 Nw Market St"
  },
  {
    "id_str": "F190072352",
    "created_at": "7/9/2019 8:25:20 PM",
    "lat": 47.53705,
    "long": -122.280473,
    "timestamp": 1562729120000,
    "description": "Automatic Medical Alarm",
    "entries": 1,
    "neighborhood": "Columbia City",
    "neighborhoodGroup": "Southeast",
    "unitCount": 1,
    "severity": 0,
    "units": "E28",
    "address": "4219 S Othello St"
  },
  {
    "id_str": "F190072351",
    "created_at": "7/9/2019 8:22:53 PM",
    "lat": 47.600798,
    "long": -122.335951,
    "timestamp": 1562728973000,
    "description": "Medic Response",
    "entries": 3,
    "neighborhood": "Pioneer Square/International District",
    "neighborhoodGroup": "Downtown",
    "unitCount": 3,
    "severity": 0,
    "units": "A10 E5 M1",
    "address": "210 Alaskan Way S"
  },
  {
    "id_str": "F190072350",
    "created_at": "7/9/2019 8:21:01 PM",
    "lat": 47.716098,
    "long": -122.326149,
    "timestamp": 1562728861000,
    "description": "Aid Response",
    "entries": 1,
    "neighborhood": "Haller Lake",
    "neighborhoodGroup": "Northwest",
    "unitCount": 1,
    "severity": 0,
    "units": "A31",
    "address": "12033 3rd Av Ne"
  },
  {
    "id_str": "F190072349",
    "created_at": "7/9/2019 8:16:34 PM",
    "lat": 47.719285,
    "long": -122.296314,
    "timestamp": 1562728594000,
    "description": "Aid Response",
    "entries": 1,
    "neighborhood": "Cedar Park/Meadowbrook",
    "neighborhoodGroup": "North",
    "unitCount": 1,
    "severity": 0,
    "units": "E39",
    "address": "30th Av Ne / Ne 125th St"
  },
  {
    "id_str": "F190072346",
    "created_at": "7/9/2019 8:13:01 PM",
    "lat": 47.531504,
    "long": -122.351696,
    "timestamp": 1562728381000,
    "description": "Medic Response",
    "entries": 1,
    "neighborhood": "Highland Park",
    "neighborhoodGroup": "Delridge Neighborhoods",
    "unitCount": 2,
    "severity": 0,
    "units": "E36 M32",
    "address": "7944 13th Av Sw"
  },
  {
    "id_str": "F190072345",
    "created_at": "7/9/2019 8:11:36 PM",
    "lat": 47.593269,
    "long": -122.390599,
    "timestamp": 1562728296000,
    "description": "Auto Fire Alarm",
    "entries": 2,
    "unitCount": 4,
    "severity": 0,
    "units": "E29 FB4 FIREBOAT L11",
    "address": "1300 Alki Av Sw"
  },
  {
    "id_str": "F190072344",
    "created_at": "7/9/2019 8:10:34 PM",
    "lat": 47.612136,
    "long": -122.335373,
    "timestamp": 1562728234000,
    "description": "Aid Response",
    "entries": 2,
    "neighborhood": "First Hill",
    "neighborhoodGroup": "East",
    "unitCount": 2,
    "severity": 0,
    "units": "A2 A4",
    "address": "600 Pine St"
  },
  {
    "id_str": "F190072343",
    "created_at": "7/9/2019 8:07:18 PM",
    "lat": 47.544264,
    "long": -122.269899,
    "timestamp": 1562728038000,
    "description": "Medic Response",
    "entries": 2,
    "neighborhood": "Seward Park",
    "neighborhoodGroup": "Southeast",
    "unitCount": 2,
    "severity": 0,
    "units": "L12 M28",
    "address": "6502 51st Av S"
  },
  {
    "id_str": "F190072342",
    "created_at": "7/9/2019 8:06:15 PM",
    "lat": 47.728731,
    "long": -122.35512,
    "timestamp": 1562727975000,
    "description": "Automatic Medical Alarm",
    "entries": 1,
    "neighborhood": "Broadview/Bitter Lake",
    "neighborhoodGroup": "Northwest",
    "unitCount": 1,
    "severity": 0,
    "units": "E24",
    "address": "326 N 137th St"
  },
  {
    "id_str": "F190072341",
    "created_at": "7/9/2019 8:05:29 PM",
    "lat": 47.544683,
    "long": -122.376445,
    "timestamp": 1562727929000,
    "description": "Aid Response",
    "entries": 1,
    "neighborhood": "High Point",
    "neighborhoodGroup": "Delridge Neighborhoods",
    "unitCount": 1,
    "severity": 0,
    "units": "E37",
    "address": "35th Av Sw / Sw Morgan St"
  },
  {
    "id_str": "F190072340",
    "created_at": "7/9/2019 8:00:09 PM",
    "lat": 47.675994,
    "long": -122.362032,
    "timestamp": 1562727609000,
    "description": "Aid Response",
    "entries": 1,
    "neighborhood": "Greenwood/Phinney Ridge",
    "neighborhoodGroup": "Northwest",
    "unitCount": 1,
    "severity": 0,
    "units": "E21",
    "address": "418 Nw 65th St"
  },
  {
    "id_str": "F190072337",
    "created_at": "7/9/2019 7:55:46 PM",
    "lat": 47.622075,
    "long": -122.347592,
    "timestamp": 1562727346000,
    "description": "Aid Response",
    "entries": 2,
    "neighborhood": "Cascade/Eastlake",
    "neighborhoodGroup": "Lake Union",
    "unitCount": 2,
    "severity": 0,
    "units": "A2 A4",
    "address": "5th Av N / Harrison St"
  },
  {
    "id_str": "F190072336",
    "created_at": "7/9/2019 7:55:17 PM",
    "lat": 47.540295,
    "long": -122.286233,
    "timestamp": 1562727317000,
    "description": "Aid Response",
    "entries": 1,
    "neighborhood": "South Beacon Hill/NewHolly",
    "neighborhoodGroup": "Greater Duwamish",
    "unitCount": 1,
    "severity": 0,
    "units": "E28",
    "address": "6940 37th Av S"
  },
  {
    "id_str": "F190072332",
    "created_at": "7/9/2019 7:50:35 PM",
    "lat": 47.528283,
    "long": -122.361858,
    "timestamp": 1562727035000,
    "description": "MVI - Motor Vehicle Incident",
    "entries": 1,
    "neighborhood": "Roxhill/Westwood",
    "neighborhoodGroup": "Delridge Neighborhoods",
    "unitCount": 1,
    "severity": 0,
    "units": "E11",
    "address": "2208 Sw Thistle St"
  },
  {
    "id_str": "F190072331",
    "created_at": "7/9/2019 7:50:16 PM",
    "lat": 47.675782,
    "long": -122.310858,
    "timestamp": 1562727016000,
    "description": "Aid Response",
    "entries": 1,
    "neighborhood": "University District",
    "neighborhoodGroup": "Northeast",
    "unitCount": 1,
    "severity": 0,
    "units": "E16",
    "address": "16TH AV NE / NE 65TH ST"
  },
  {
    "id_str": "F190072330",
    "created_at": "7/9/2019 7:49:16 PM",
    "lat": 47.617642,
    "long": -122.287577,
    "timestamp": 1562726956000,
    "description": "Auto Fire Alarm",
    "entries": 1,
    "neighborhood": "Madrona/Leschi",
    "neighborhoodGroup": "Central",
    "unitCount": 2,
    "severity": 0,
    "units": "E34 L3",
    "address": "1802 36th Av"
  },
  {
    "id_str": "F190072329",
    "created_at": "7/9/2019 7:48:06 PM",
    "lat": 47.712305,
    "long": -122.339394,
    "timestamp": 1562726886000,
    "description": "Aid Response",
    "entries": 1,
    "neighborhood": "Haller Lake",
    "neighborhoodGroup": "Northwest",
    "unitCount": 1,
    "severity": 0,
    "units": "A31",
    "address": "1570 N 115th St"
  },
  {
    "id_str": "F190072328",
    "created_at": "7/9/2019 7:47:40 PM",
    "lat": 47.52101,
    "long": -122.269997,
    "timestamp": 1562726860000,
    "description": "Medic Response",
    "entries": 1,
    "neighborhood": "Rainier Beach",
    "neighborhoodGroup": "Southeast",
    "unitCount": 2,
    "severity": 0,
    "units": "E33 M28",
    "address": "9201 Rainier Av S"
  },
  {
    "id_str": "F190072325",
    "created_at": "7/9/2019 7:35:46 PM",
    "lat": 47.588437,
    "long": -122.315855,
    "timestamp": 1562726146000,
    "description": "Aid Response",
    "entries": 1,
    "neighborhood": "North Beacon Hill/Jefferson Park",
    "neighborhoodGroup": "Greater Duwamish",
    "unitCount": 1,
    "severity": 0,
    "units": "E13",
    "address": "1311 S Massachusetts St"
  },
  {
    "id_str": "F190072322",
    "created_at": "7/9/2019 7:31:55 PM",
    "lat": 47.612309,
    "long": -122.318031,
    "timestamp": 1562725915000,
    "description": "Aid Response",
    "entries": 2,
    "neighborhood": "Capitol Hill",
    "neighborhoodGroup": "East",
    "unitCount": 2,
    "severity": 0,
    "units": "A25 L10",
    "address": "1107 E Madison St"
  },
  {
    "id_str": "F190072320",
    "created_at": "7/9/2019 7:29:53 PM",
    "lat": 47.642881,
    "long": -122.364908,
    "timestamp": 1562725793000,
    "description": "Medic Response",
    "entries": 2,
    "neighborhood": "Queen Anne",
    "neighborhoodGroup": "Magnolia/Queen Anne",
    "unitCount": 2,
    "severity": 0,
    "units": "E20 M10",
    "address": "2577 6th Av W"
  },
  {
    "id_str": "F190072321",
    "created_at": "7/9/2019 7:29:42 PM",
    "lat": 47.691287,
    "long": -122.344531,
    "timestamp": 1562725782000,
    "description": "Aid Response",
    "entries": 1,
    "neighborhood": "Licton Springs",
    "neighborhoodGroup": "Northwest",
    "unitCount": 1,
    "severity": 0,
    "units": "L9",
    "address": "8600 Aurora Av N"
  },
  {
    "id_str": "F190072319",
    "created_at": "7/9/2019 7:29:34 PM",
    "lat": 47.67834,
    "long": -122.32895,
    "timestamp": 1562725774000,
    "description": "Medic Response, 7 per Rule",
    "entries": 1,
    "neighborhood": "Green Lake",
    "neighborhoodGroup": "Northwest",
    "unitCount": 3,
    "severity": 0,
    "units": "E17 E31 M18",
    "address": "6720 East Green Lake Way N"
  },
  {
    "id_str": "F190072315",
    "created_at": "7/9/2019 7:26:11 PM",
    "lat": 47.698529,
    "long": -122.343319,
    "timestamp": 1562725571000,
    "description": "Scenes Of Violence 14",
    "entries": 2,
    "neighborhood": "Licton Springs",
    "neighborhoodGroup": "Northwest",
    "unitCount": 10,
    "severity": 2,
    "units": "A31 B4 B6 E16 E21 E35 M17 M31 M44 SAFT2",
    "address": "9601 Midvale Av N"
  },
  {
    "id_str": "F190072314",
    "created_at": "7/9/2019 7:25:56 PM",
    "lat": 47.614174,
    "long": -122.327923,
    "timestamp": 1562725556000,
    "description": "Alarm Bell",
    "entries": 1,
    "neighborhood": "Capitol Hill",
    "neighborhoodGroup": "East",
    "unitCount": 2,
    "severity": 0,
    "units": "E25 L10",
    "address": "1520 Melrose Av"
  },
  {
    "id_str": "F190072312",
    "created_at": "7/9/2019 7:20:12 PM",
    "lat": 47.604377,
    "long": -122.325207,
    "timestamp": 1562725212000,
    "description": "Rescue Elevator",
    "entries": 1,
    "neighborhood": "First Hill",
    "neighborhoodGroup": "East",
    "unitCount": 1,
    "severity": 0,
    "units": "L10",
    "address": "800 Jefferson St"
  },
  {
    "id_str": "F190072310",
    "created_at": "7/9/2019 7:12:50 PM",
    "lat": 47.602103,
    "long": -122.318244,
    "timestamp": 1562724770000,
    "description": "Aid Response",
    "entries": 2,
    "neighborhood": "First Hill",
    "neighborhoodGroup": "East",
    "unitCount": 2,
    "severity": 0,
    "units": "A5 E10",
    "address": "120 Boren Av"
  },
  {
    "id_str": "F190072309",
    "created_at": "7/9/2019 7:11:36 PM",
    "lat": 47.607299,
    "long": -122.337087,
    "timestamp": 1562724696000,
    "description": "Aid Response",
    "entries": 1,
    "neighborhood": "Downtown Commercial Core",
    "neighborhoodGroup": "Downtown",
    "unitCount": 1,
    "severity": 0,
    "units": "A5",
    "address": "2nd Av / University St"
  },