[
  {
    "id_str": "F190057745",
    "created_at": "6/3/2019 4:58:35 PM",
    "derived": {
      "lat": 47.663106,
      "long": -122.315263,
      "timestamp": 1559606315000,
      "description": "Aid Response",
      "address": "4700 12th Av Ne,Seattle,WA",
      "units": "E17",
      "entries": 1,
      "neighborhood": "University District",
      "neighborhoodGroup": "Northeast"
    }
  },
  {
    "id_str": "F190057744",
    "created_at": "6/3/2019 4:54:07 PM",
    "derived": {
      "lat": 47.534078,
      "long": -122.34707,
      "timestamp": 1559606047000,
      "description": "Aid Response",
      "address": "900 Sw Holden St,Seattle,WA",
      "units": "E11",
      "entries": 1,
      "neighborhood": "Highland Park",
      "neighborhoodGroup": "Delridge Neighborhoods"
    }
  },
  {
    "id_str": "F190057740",
    "created_at": "6/3/2019 4:35:51 PM",
    "derived": {
      "lat": 47.55615,
      "long": -122.301975,
      "timestamp": 1559604951000,
      "description": "Brush Fire",
      "address": "S Dawson St / 24th Av S,Seattle,WA",
      "units": "E13",
      "entries": 1,
      "neighborhood": "Beacon Hill",
      "neighborhoodGroup": "Greater Duwamish"
    }
  },
  {
    "id_str": "F190057736",
    "created_at": "6/3/2019 4:26:05 PM",
    "derived": {
      "lat": 47.686844,
      "long": -122.327785,
      "timestamp": 1559604365000,
      "description": "Aid Response",
      "address": "111 NE 80TH ST,Seattle,WA",
      "units": "E16",
      "entries": 1,
      "neighborhood": "Green Lake",
      "neighborhoodGroup": "Northwest"
    }
  },
  {
    "id_str": "F190057735",
    "created_at": "6/3/2019 4:24:31 PM",
    "derived": {
      "lat": 47.605624,
      "long": -122.334019,
      "timestamp": 1559604271000,
      "description": "Aid Response",
      "address": "3rd Av / Madison St,Seattle,WA",
      "units": "A5",
      "entries": 1,
      "neighborhood": "Downtown Commercial Core",
      "neighborhoodGroup": "Downtown"
    }
  },
  {
    "id_str": "F190057734",
    "created_at": "6/3/2019 4:18:26 PM",
    "derived": {
      "lat": 47.689115,
      "long": -122.400703,
      "timestamp": 1559603906000,
      "description": "Aid Response",
      "address": "8400 Golden Gardens Dr Nw,Seattle,WA",
      "units": "E35",
      "entries": 1,
      "neighborhood": "Sunset Hill/Loyal Heights",
      "neighborhoodGroup": "Ballard"
    }
  },
  {
    "id_str": "F190057733",
    "created_at": "6/3/2019 4:15:18 PM",
    "derived": {
      "lat": 47.633806,
      "long": -122.281172,
      "timestamp": 1559603718000,
      "description": "Aid Response",
      "address": "1625 Mcgilvra Blvd E,Seattle,WA",
      "units": "E34",
      "entries": 1,
      "neighborhood": "Madison Park",
      "neighborhoodGroup": "East"
    }
  },
  {
    "id_str": "F190057731",
    "created_at": "6/3/2019 4:09:41 PM",
    "derived": {
      "lat": 47.614127,
      "long": -122.334009,
      "timestamp": 1559603381000,
      "description": "Auto Fire Alarm",
      "address": "808 Howell St,Seattle,WA",
      "units": "E2 L4",
      "entries": 1,
      "neighborhood": "Cascade/Eastlake",
      "neighborhoodGroup": "Lake Union"
    }
  },
  {
    "id_str": "F190057724",
    "created_at": "6/3/2019 3:44:58 PM",
    "derived": {
      "lat": 47.526457,
      "long": -122.320284,
      "timestamp": 1559601898000,
      "description": "Aid Response",
      "address": "10th Av S / S Cloverdale St,Seattle,WA",
      "units": "E26",
      "entries": 1,
      "neighborhood": "South Park",
      "neighborhoodGroup": "Greater Duwamish"
    }
  },
  {
    "id_str": "F190057723",
    "created_at": "6/3/2019 3:43:24 PM",
    "derived": {
      "lat": 47.629574,
      "long": -122.35694,
      "timestamp": 1559601804000,
      "description": "Aid Response",
      "address": "25 W Highland Dr,Seattle,WA",
      "units": "L6",
      "entries": 1,
      "neighborhood": "Queen Anne",
      "neighborhoodGroup": "Magnolia/Queen Anne"
    }
  },
  {
    "id_str": "F190057722",
    "created_at": "6/3/2019 3:40:07 PM",
    "derived": {
      "lat": 47.637274,
      "long": -122.278449,
      "timestamp": 1559601607000,
      "description": "Automatic Fire Alarm Resd",
      "address": "2045 42nd Av E,Seattle,WA",
      "units": "E34",
      "entries": 1,
      "neighborhood": "Madison Park",
      "neighborhoodGroup": "East"
    }
  },
  {
    "id_str": "F190057720",
    "created_at": "6/3/2019 3:29:58 PM",
    "derived": {
      "lat": 47.618412,
      "long": -122.355206,
      "timestamp": 1559600998000,
      "description": "Aid Response",
      "address": "94 Bay St,Seattle,WA",
      "units": "A2 A4",
      "entries": 2,
      "neighborhood": "Belltown",
      "neighborhoodGroup": "Downtown"
    }
  },
  {
    "id_str": "F190057718",
    "created_at": "6/3/2019 3:21:09 PM",
    "derived": {
      "lat": 47.65722,
      "long": -122.322633,
      "timestamp": 1559600469000,
      "description": "Aid Response Freeway",
      "address": "Sb I5 At 45,Seattle,WA",
      "units": "A31 E16 E17",
      "entries": 1,
      "neighborhood": "Wallingford",
      "neighborhoodGroup": "Lake Union"
    }
  },
  {
    "id_str": "F190057717",
    "created_at": "6/3/2019 3:21:03 PM",
    "derived": {
      "lat": 47.690625,
      "long": -122.360648,
      "timestamp": 1559600463000,
      "description": "Aid Response",
      "address": "3rd Av Nw / Nw 85th St,Seattle,WA",
      "units": "E35",
      "entries": 1,
      "neighborhood": "Greenwood/Phinney Ridge",
      "neighborhoodGroup": "Northwest"
    }
  },
  {
    "id_str": "F190057716",
    "created_at": "6/3/2019 3:14:10 PM",
    "derived": {
      "lat": 47.719638,
      "long": -122.355539,
      "timestamp": 1559600050000,
      "description": "Automatic Fire Alarm False",
      "address": "12505 Greenwood Av N,Seattle,WA",
      "units": "E24",
      "entries": 1,
      "neighborhood": "Broadview/Bitter Lake",
      "neighborhoodGroup": "Northwest"
    }
  },
  {
    "id_str": "F190057715",
    "created_at": "6/3/2019 3:09:33 PM",
    "derived": {
      "lat": 47.611715,
      "long": -122.339738,
      "timestamp": 1559599773000,
      "description": "Aid Response",
      "address": "1912 3rd Av,Seattle,WA",
      "units": "A4",
      "entries": 1,
      "neighborhood": "Cascade/Eastlake",
      "neighborhoodGroup": "Lake Union"
    }
  },
  {
    "id_str": "F190057714",
    "created_at": "6/3/2019 3:06:01 PM",
    "derived": {
      "lat": 47.621375,
      "long": -122.302481,
      "timestamp": 1559599561000,
      "description": "MVI - Motor Vehicle Incident",
      "address": "23rd Av E / E Thomas St,Seattle,WA",
      "units": "E25",
      "entries": 1,
      "neighborhood": "Central Area/Squire Park",
      "neighborhoodGroup": "Central"
    }
  },
  {
    "id_str": "F190057712",
    "created_at": "6/3/2019 3:00:22 PM",
    "derived": {
      "lat": 47.612897,
      "long": -122.290361,
      "timestamp": 1559599222000,
      "description": "Hang-Up, Aid",
      "address": "33rd Av / E Union St,Seattle,WA",
      "units": "E34",
      "entries": 1,
      "neighborhood": "Madrona/Leschi",
      "neighborhoodGroup": "Central"
    }
  },
  {
    "id_str": "F190057711",
    "created_at": "6/3/2019 2:58:51 PM",
    "derived": {
      "lat": 47.605225,
      "long": -122.32075,
      "timestamp": 1559599131000,
      "description": "Medic Response",
      "address": "401 Broadway,Seattle,WA",
      "units": "A25 M10",
      "entries": 1,
      "neighborhood": "First Hill",
      "neighborhoodGroup": "East"
    }
  },
  {
    "id_str": "F190057710",
    "created_at": "6/3/2019 2:58:34 PM",
    "derived": {
      "lat": 47.648467,
      "long": -122.377498,
      "timestamp": 1559599114000,
      "description": "Aid Response",
      "address": "1600 W Dravus St,Seattle,WA",
      "units": "E20",
      "entries": 1,
      "neighborhood": "Interbay",
      "neighborhoodGroup": "Magnolia/Queen Anne"
    }
  },
  {
    "id_str": "F190057708",
    "created_at": "6/3/2019 2:48:09 PM",
    "derived": {
      "lat": 47.601716,
      "long": -122.330265,
      "timestamp": 1559598489000,
      "description": "Aid Response",
      "address": "3rd Av / Yesler Way,Seattle,WA",
      "units": "A10",
      "entries": 1,
      "neighborhood": "Downtown Commercial Core",
      "neighborhoodGroup": "Downtown"
    }
  },
  {
    "id_str": "F190057707",
    "created_at": "6/3/2019 2:48:08 PM",
    "derived": {
      "lat": 47.616815,
      "long": -122.311453,
      "timestamp": 1559598488000,
      "description": "Auto Fire Alarm",
      "address": "1732 16th Av,Seattle,WA",
      "units": "E25 L10",
      "entries": 1,
      "neighborhood": "Central Area/Squire Park",
      "neighborhoodGroup": "Central"
    }
  },
  {
    "id_str": "F190057704",
    "created_at": "6/3/2019 2:42:20 PM",
    "derived": {
      "lat": 47.690609,
      "long": -122.357777,
      "timestamp": 1559598140000,
      "description": "Aid Response",
      "address": "115 N 85th St,Seattle,WA",
      "units": "E21",
      "entries": 1,
      "neighborhood": "Greenwood/Phinney Ridge",
      "neighborhoodGroup": "Northwest"
    }
  },
  {
    "id_str": "F190057703",
    "created_at": "6/3/2019 2:39:59 PM",
    "derived": {
      "lat": 47.61084,
      "long": -122.347741,
      "timestamp": 1559597999000,
      "description": "Medic Response",
      "address": "2211 Alaskan Way,Seattle,WA",
      "units": "A4 M1",
      "entries": 1,
      "neighborhood": "Belltown",
      "neighborhoodGroup": "Downtown"
    }
  },
  {
    "id_str": "F190057702",
    "created_at": "6/3/2019 2:31:58 PM",
    "derived": {
      "lat": 47.709303,
      "long": -122.30998,
      "timestamp": 1559597518000,
      "description": "Medic Response",
      "address": "11035 17th Av Ne,Seattle,WA",
      "units": "A31 M18 M31",
      "entries": 2,
      "neighborhood": "Olympic Hills/Victory Heights",
      "neighborhoodGroup": "North"
    }
  },
  {
    "id_str": "F190057700",
    "created_at": "6/3/2019 2:23:51 PM",
    "derived": {
      "lat": 47.569341,
      "long": -122.290256,
      "timestamp": 1559597031000,
      "description": "Aid Response",
      "address": "3851 RAINIER AV S,Seattle,WA",
      "units": "E30",
      "entries": 1,
      "neighborhood": "Columbia City",
      "neighborhoodGroup": "Southeast"
    }
  },
  {
    "id_str": "F190057699",
    "created_at": "6/3/2019 2:16:55 PM",
    "derived": {
      "lat": 47.523307,
      "long": -122.269986,
      "timestamp": 1559596615000,
      "description": "Aid Response",
      "address": "S Henderson St / Rainier Av S,Seattle,WA",
      "units": "L12",
      "entries": 1,
      "neighborhood": "Rainier Beach",
      "neighborhoodGroup": "Southeast"
    }
  },
  {
    "id_str": "F190057697",
    "created_at": "6/3/2019 2:07:14 PM",
    "derived": {
      "lat": 47.726864,
      "long": -122.348012,
      "timestamp": 1559596034000,
      "description": "Medic Response",
      "address": "747 N 135th St,Seattle,WA",
      "units": "E24 E39 M31",
      "entries": 3,
      "neighborhood": "Broadview/Bitter Lake",
      "neighborhoodGroup": "Northwest"
    }
  },
  {
    "id_str": "F190057696",
    "created_at": "6/3/2019 2:07:07 PM",
    "derived": {
      "lat": 47.723436,
      "long": -122.355547,
      "timestamp": 1559596027000,
      "description": "Aid Response",
      "address": "13023 Greenwood Av N,Seattle,WA",
      "units": "E31",
      "entries": 1,
      "neighborhood": "Broadview/Bitter Lake",
      "neighborhoodGroup": "Northwest"
    }
  },
  {
    "id_str": "F190057695",
    "created_at": "6/3/2019 2:02:29 PM",
    "derived": {
      "lat": 47.571328,
      "long": -122.339668,
      "timestamp": 1559595749000,
      "description": "Aid Response",
      "address": "East Marginal Way S / S Spokane St,Seattle,WA",
      "units": "E13",
      "entries": 1,
      "neighborhood": "Duwamish/SODO",
      "neighborhoodGroup": "Greater Duwamish"
    }
  },
  {
    "id_str": "F190057693",
    "created_at": "6/3/2019 1:50:24 PM",
    "derived": {
      "lat": 47.516256,
      "long": -122.394221,
      "timestamp": 1559595024000,
      "description": "Automatic Fire Alarm Resd",
      "address": "9659 48th Av Sw,Seattle,WA",
      "units": "E37",
      "entries": 1,
      "neighborhood": "Arbor Heights",
      "neighborhoodGroup": "Southwest"
    }
  },
  {
    "id_str": "F190057690",
    "created_at": "6/3/2019 1:36:36 PM",
    "derived": {
      "lat": 47.609343,
      "long": -122.325128,
      "timestamp": 1559594196000,
      "description": "Auto Fire Alarm",
      "address": "1101 Madison St,Seattle,WA",
      "units": "E10 L10",
      "entries": 1,
      "neighborhood": "First Hill",
      "neighborhoodGroup": "East"
    }
  },
  {
    "id_str": "F190057688",
    "created_at": "6/3/2019 1:34:28 PM",
    "derived": {
      "lat": 47.675953,
      "long": -122.37406,
      "timestamp": 1559594068000,
      "description": "Aid Response",
      "address": "1418 Nw 65th St,Seattle,WA",
      "units": "L8",
      "entries": 1,
      "neighborhood": "Whittier Heights",
      "neighborhoodGroup": "Ballard"
    }
  },
  {
    "id_str": "F190057687",
    "created_at": "6/3/2019 1:34:11 PM",
    "derived": {
      "lat": 47.719376,
      "long": -122.308487,
      "timestamp": 1559594051000,
      "description": "Aid Response",
      "address": "1933 Ne 125th St,Seattle,WA",
      "units": "E39",
      "entries": 1,
      "neighborhood": "Olympic Hills/Victory Heights",
      "neighborhoodGroup": "North"
    }
  },
  {
    "id_str": "F190057689",
    "created_at": "6/3/2019 1:33:47 PM",
    "derived": {
      "lat": 47.70724,
      "long": -122.359463,
      "timestamp": 1559594027000,
      "description": "Aid Response",
      "address": "10753 2nd Av Nw,Seattle,WA",
      "units": "A31",
      "entries": 1,
      "neighborhood": "North Beach/Blue Ridge",
      "neighborhoodGroup": "Ballard"
    }
  },
  {
    "id_str": "F190057686",
    "created_at": "6/3/2019 1:33:15 PM",
    "derived": {
      "lat": 47.728882,
      "long": -122.35825,
      "timestamp": 1559593995000,
      "description": "Aid Response",
      "address": "13726 1st Av Nw,Seattle,WA",
      "units": "E24",
      "entries": 1,
      "neighborhood": "Broadview/Bitter Lake",
      "neighborhoodGroup": "Northwest"
    }
  },
  {
    "id_str": "F190057685",
    "created_at": "6/3/2019 1:27:36 PM",
    "derived": {
      "lat": 47.627138,
      "long": -122.342327,
      "timestamp": 1559593656000,
      "description": "Medic Response",
      "address": "900 Dexter Av N,Seattle,WA",
      "units": "L4 M17",
      "entries": 1,
      "neighborhood": "Queen Anne",
      "neighborhoodGroup": "Magnolia/Queen Anne"
    }
  },
  {
    "id_str": "F190057684",
    "created_at": "6/3/2019 1:21:26 PM",
    "derived": {
      "lat": 47.606181,
      "long": -122.311554,
      "timestamp": 1559593286000,
      "description": "Medic Response",
      "address": "1600 E Jefferson St,Seattle,WA",
      "units": "A5 M1",
      "entries": 1,
      "neighborhood": "Central Area/Squire Park",
      "neighborhoodGroup": "Central"
    }
  },
  {
    "id_str": "F190057682",
    "created_at": "6/3/2019 1:14:30 PM",
    "derived": {
      "lat": 47.561107,
      "long": -122.381456,
      "timestamp": 1559592870000,
      "description": "Aid Response",
      "address": "3900 Sw Alaska St,Seattle,WA",
      "units": "E32",
      "entries": 1,
      "neighborhood": "West Seattle Junction/Genesee Hill",
      "neighborhoodGroup": "Southwest"
    }
  },
  {
    "id_str": "F190057681",
    "created_at": "6/3/2019 1:11:31 PM",
    "derived": {
      "lat": 47.622242,
      "long": -122.332995,
      "timestamp": 1559592691000,
      "description": "Medic Response",
      "address": "424 Minor Av N,Seattle,WA",
      "units": "A2 M1 M17",
      "entries": 2,
      "neighborhood": "Cascade/Eastlake",
      "neighborhoodGroup": "Lake Union"
    }
  },
  {
    "id_str": "F190057680",
    "created_at": "6/3/2019 1:10:52 PM",
    "derived": {
      "lat": 47.611207,
      "long": -122.337592,
      "timestamp": 1559592652000,
      "description": "Aid Response",
      "address": "400 Pine St,Seattle,WA",
      "units": "A4",
      "entries": 1,
      "neighborhood": "Downtown Commercial Core",
      "neighborhoodGroup": "Downtown"
    }
  },
  {
    "id_str": "F190057679",
    "created_at": "6/3/2019 1:09:33 PM",
    "derived": {
      "lat": 47.650469,
      "long": -122.354484,
      "timestamp": 1559592573000,
      "description": "Aid Response",
      "address": "3400 Phinney Av N,Seattle,WA",
      "units": "E20",
      "entries": 1,
      "neighborhood": "Fremont",
      "neighborhoodGroup": "Lake Union"
    }
  },
  {
    "id_str": "F190057678",
    "created_at": "6/3/2019 1:08:15 PM",
    "derived": {
      "lat": 47.579809,
      "long": -122.329057,
      "timestamp": 1559592495000,
      "description": "Medic Response",
      "address": "4th Av S / S Lander St,Seattle,WA",
      "units": "E13 M32",
      "entries": 1,
      "neighborhood": "Duwamish/SODO",
      "neighborhoodGroup": "Greater Duwamish"
    }
  },
  {
    "id_str": "F190057677",
    "created_at": "6/3/2019 1:05:07 PM",
    "derived": {
      "lat": 47.669454,
      "long": -122.384743,
      "timestamp": 1559592307000,
      "description": "Aid Response",
      "address": "22nd Av Nw / Nw 56th St,Seattle,WA",
      "units": "L8",
      "entries": 1,
      "neighborhood": "Ballard",
      "neighborhoodGroup": "Ballard"
    }
  },
  {
    "id_str": "F190057676",
    "created_at": "6/3/2019 1:05:04 PM",
    "derived": {
      "lat": 47.609031,
      "long": -122.303715,
      "timestamp": 1559592304000,
      "description": "Aid Response",
      "address": "802 22nd Av,Seattle,WA",
      "units": "A25",
      "entries": 1,
      "neighborhood": "Central Area/Squire Park",
      "neighborhoodGroup": "Central"
    }
  },
  {
    "id_str": "F190057674",
    "created_at": "6/3/2019 12:58:25 PM",
    "derived": {
      "lat": 47.676516,
      "long": -122.313014,
      "timestamp": 1559591905000,
      "description": "Aid Response",
      "address": "1410 Ne 66th St,Seattle,WA",
      "units": "E16",
      "entries": 1,
      "neighborhood": "Ravenna/Bryant",
      "neighborhoodGroup": "Northeast"
    }
  },
  {
    "id_str": "F190057673",
    "created_at": "6/3/2019 12:56:41 PM",
    "derived": {
      "lat": 47.608073,
      "long": -122.320755,
      "timestamp": 1559591801000,
      "description": "Aid Response",
      "address": "700 Broadway,Seattle,WA",
      "units": "A5",
      "entries": 1,
      "neighborhood": "First Hill",
      "neighborhoodGroup": "East"
    }
  },
  {
    "id_str": "F190057672",
    "created_at": "6/3/2019 12:55:31 PM",
    "derived": {
      "lat": 47.668679,
      "long": -122.385259,
      "timestamp": 1559591731000,
      "description": "Aid Response",
      "address": "2232 Nw Market St,Seattle,WA",
      "units": "E18",
      "entries": 1,
      "neighborhood": "Ballard",
      "neighborhoodGroup": "Ballard"
    }
  },
  {
    "id_str": "F190057671",
    "created_at": "6/3/2019 12:53:37 PM",
    "derived": {
      "lat": 47.617356,
      "long": -122.345312,
      "timestamp": 1559591617000,
      "description": "Aid Response",
      "address": "500 Wall St,Seattle,WA",
      "units": "E2",
      "entries": 1,
      "neighborhood": "Cascade/Eastlake",
      "neighborhoodGroup": "Lake Union"
    }
  },
  {
    "id_str": "F190057670",
    "created_at": "6/3/2019 12:53:20 PM",
    "derived": {
      "lat": 47.617718,
      "long": -122.322171,
      "timestamp": 1559591600000,
      "description": "Auto Fire Alarm",
      "address": "1814 Harvard Av,Seattle,WA",
      "units": "E8 L3",
      "entries": 1,
      "neighborhood": "Capitol Hill",
      "neighborhoodGroup": "East"
    }
  },
  {
    "id_str": "F190057669",
    "created_at": "6/3/2019 12:46:37 PM",
    "derived": {
      "lat": 47.608157,
      "long": -122.30893,
      "timestamp": 1559591197000,
      "description": "Aid Response",
      "address": "712 18th Av,Seattle,WA",
      "units": "E6",
      "entries": 1,
      "neighborhood": "Central Area/Squire Park",
      "neighborhoodGroup": "Central"
    }
  },
  {
    "id_str": "F190057668",
    "created_at": "6/3/2019 12:46:13 PM",
    "derived": {
      "lat": 47.613247,
      "long": -122.327187,
      "timestamp": 1559591173000,
      "description": "Aid Response",
      "address": "1431 Minor Av,Seattle,WA",
      "units": "L4",
      "entries": 1,
      "neighborhood": "Capitol Hill",
      "neighborhoodGroup": "East"
    }
  },
  {
    "id_str": "F190057666",
    "created_at": "6/3/2019 12:41:41 PM",
    "derived": {
      "lat": 47.553362,
      "long": -122.313474,
      "timestamp": 1559590901000,
      "description": "Medic Response",
      "address": "5511 15th Av S,Seattle,WA",
      "units": "E13 E27 M32",
      "entries": 3,
      "neighborhood": "Beacon Hill",
      "neighborhoodGroup": "Greater Duwamish"
    }
  },
  {
    "id_str": "F190057664",
    "created_at": "6/3/2019 12:36:06 PM",
    "derived": {
      "lat": 47.730569,
      "long": -122.347758,
      "timestamp": 1559590566000,
      "description": "Aid Response",
      "address": "14002 Linden Av N,Seattle,WA",
      "units": "E24",
      "entries": 1,
      "neighborhood": "Broadview/Bitter Lake",
      "neighborhoodGroup": "Northwest"
    }
  },
  {
    "id_str": "F190057665",
    "created_at": "6/3/2019 12:34:44 PM",
    "derived": {
      "lat": 47.571399,
      "long": -122.322746,
      "timestamp": 1559590484000,
      "description": "1RED 1 Unit",
      "address": "Airport Way S / S Spokane St,Seattle,WA",
      "units": "E27",
      "entries": 1,
      "neighborhood": "Duwamish/SODO",
      "neighborhoodGroup": "Greater Duwamish"
    }
  },
  {
    "id_str": "F190057663",
    "created_at": "6/3/2019 12:32:33 PM",
    "derived": {
      "lat": 47.51385,
      "long": -122.251229,
      "timestamp": 1559590353000,
      "description": "Water Rescue Recon Response",
      "address": "9860 RAINIER AV S,Seattle,WA",
      "units": "A14 B5 B6 E28 E36 E9 FB1 FIREBOAT L12 M28 M44 R1",
      "entries": 6,
      "neighborhood": "Rainier Beach",
      "neighborhoodGroup": "Southeast"
    }
  },
  {
    "id_str": "F190057662",
    "created_at": "6/3/2019 12:30:23 PM",
    "derived": {
      "lat": 47.620503,
      "long": -122.312698,
      "timestamp": 1559590223000,
      "description": "Medic Response",
      "address": "1501 E Thomas St,Seattle,WA",
      "units": "L10 M1",
      "entries": 2,
      "neighborhood": "Capitol Hill",
      "neighborhoodGroup": "East"
    }
  },
  {
    "id_str": "F190057661",
    "created_at": "6/3/2019 12:28:25 PM",
    "derived": {
      "lat": 47.569771,
      "long": -122.290699,
      "timestamp": 1559590105000,
      "description": "Aid Response",
      "address": "Letitia Av S / Rainier Av S,Seattle,WA",
      "units": "E28",
      "entries": 1,
      "neighborhood": "Columbia City",
      "neighborhoodGroup": "Southeast"
    }
  },
  {
    "id_str": "F190057660",
    "created_at": "6/3/2019 12:28:23 PM",
    "derived": {
      "lat": 47.609485,
      "long": -122.312837,
      "timestamp": 1559590103000,
      "description": "Medic Response",
      "address": "824 15th Av,Seattle,WA",
      "units": "A25 M10",
      "entries": 2,
      "neighborhood": "Central Area/Squire Park",
      "neighborhoodGroup": "Central"
    }
  },
  {
    "id_str": "F190057659",
    "created_at": "6/3/2019 12:26:51 PM",
    "derived": {
      "lat": 47.626322,
      "long": -122.348863,
      "timestamp": 1559590011000,
      "description": "Aid Response",
      "address": "805 4th Av N,Seattle,WA",
      "units": "A4",
      "entries": 1,
      "neighborhood": "Queen Anne",
      "neighborhoodGroup": "Magnolia/Queen Anne"
    }
  },
  {
    "id_str": "F190057657",
    "created_at": "6/3/2019 12:22:51 PM",
    "derived": {
      "lat": 47.61084,
      "long": -122.347741,
      "timestamp": 1559589771000,
      "description": "Aid Response",
      "address": "2211 Alaskan Way,Seattle,WA",
      "units": "A2",
      "entries": 1,
      "neighborhood": "Belltown",
      "neighborhoodGroup": "Downtown"
    }
  },
  {
    "id_str": "F190057655",
    "created_at": "6/3/2019 12:17:51 PM",
    "derived": {
      "lat": 47.600798,
      "long": -122.335951,
      "timestamp": 1559589471000,
      "description": "Aid Response",
      "address": "210 Alaskan Way S,Seattle,WA",
      "units": "A5",
      "entries": 1,
      "neighborhood": "Pioneer Square/International District",
      "neighborhoodGroup": "Downtown"
    }
  },
  {
    "id_str": "F190057652",
    "created_at": "6/3/2019 12:09:59 PM",
    "derived": {
      "lat": 47.613418,
      "long": -122.342618,
      "timestamp": 1559588999000,
      "description": "Aid Response",
      "address": "2133 3rd Av,Seattle,WA",
      "units": "A4",
      "entries": 1,
      "neighborhood": "Cascade/Eastlake",
      "neighborhoodGroup": "Lake Union"
    }
  },
  {
    "id_str": "F190057650",
    "created_at": "6/3/2019 12:08:49 PM",
    "derived": {
      "lat": 47.63614,
      "long": -122.284715,
      "timestamp": 1559588929000,
      "description": "Aid Response",
      "address": "1929 37th Pl E,Seattle,WA",
      "units": "E34",
      "entries": 1,
      "neighborhood": "Madison Park",
      "neighborhoodGroup": "East"
    }
  },
  {
    "id_str": "F190057649",
    "created_at": "6/3/2019 12:06:11 PM",
    "derived": {
      "lat": 47.569608,
      "long": -122.290486,
      "timestamp": 1559588771000,
      "description": "Medic Response",
      "address": "3820 Rainier Av S,Seattle,WA",
      "units": "E28 E30 M1",
      "entries": 2,
      "neighborhood": "Columbia City",
      "neighborhoodGroup": "Southeast"
    }
  },
  {
    "id_str": "F190057647",
    "created_at": "6/3/2019 12:04:44 PM",
    "derived": {
      "lat": 47.514984,
      "long": -122.262037,
      "timestamp": 1559588684000,
      "description": "Scenes Of Violence 7",
      "address": "9712 57th Av S,Seattle,WA",
      "units": "B5 E33 L12 M28 M44",
      "entries": 1,
      "neighborhood": "Rainier Beach",
      "neighborhoodGroup": "Southeast"
    }
  },
  {
    "id_str": "F190057646",
    "created_at": "6/3/2019 12:00:23 PM",
    "derived": {
      "lat": 47.62118,
      "long": -122.314685,
      "timestamp": 1559588423000,
      "description": "Aid Response",
      "address": "308 14th Av E,Seattle,WA",
      "units": "A25",
      "entries": 1,
      "neighborhood": "Capitol Hill",
      "neighborhoodGroup": "East"
    }
  },
  {
    "id_str": "F190057643",
    "created_at": "6/3/2019 11:41:51 AM",
    "derived": {
      "lat": 47.686902,
      "long": -122.333104,
      "timestamp": 1559587311000,
      "description": "MVI - Motor Vehicle Incident",
      "address": "N 80th St / Meridian Av N,Seattle,WA",
      "units": "E16",
      "entries": 1,
      "neighborhood": "Green Lake",
      "neighborhoodGroup": "Northwest"
    }
  },
  {
    "id_str": "F190057641",
    "created_at": "6/3/2019 11:29:36 AM",
    "derived": {
      "lat": 47.601734,
      "long": -122.305044,
      "timestamp": 1559586576000,
      "description": "Aid Response",
      "address": "104 21st Av,Seattle,WA",
      "units": "L3",
      "entries": 1,
      "neighborhood": "Central Area/Squire Park",
      "neighborhoodGroup": "Central"
    }
  },
  {
    "id_str": "F190057640",
    "created_at": "6/3/2019 11:28:40 AM",
    "derived": {
      "lat": 47.547357,
      "long": -122.320152,
      "timestamp": 1559586520000,
      "description": "MVI - Motor Vehicle Incident",
      "address": "CARLETON AV S / S BAILEY ST,Seattle,WA",
      "units": "E27",
      "entries": 1,
      "neighborhood": "Georgetown",
      "neighborhoodGroup": "Greater Duwamish"
    }
  },
  {
    "id_str": "F190057639",
    "created_at": "6/3/2019 11:26:11 AM",
    "derived": {
      "lat": 47.709488,
      "long": -122.323301,
      "timestamp": 1559586371000,
      "description": "Aid Response",
      "address": "11030 5th Av Ne,Seattle,WA",
      "units": "A31",
      "entries": 1,
      "neighborhood": "Northgate/Maple Leaf",
      "neighborhoodGroup": "North"
    }
  },
  {
    "id_str": "F190057637",
    "created_at": "6/3/2019 11:10:43 AM",
    "derived": {
      "lat": 47.606371,
      "long": -122.325496,
      "timestamp": 1559585443000,
      "description": "Medic Response",
      "address": "715 9th Av,Seattle,WA",
      "units": "A5 M10",
      "entries": 2,
      "neighborhood": "First Hill",
      "neighborhoodGroup": "East"
    }
  },
  {
    "id_str": "F190057635",
    "created_at": "6/3/2019 10:55:56 AM",
    "derived": {
      "lat": 47.521022,
      "long": -122.365894,
      "timestamp": 1559584556000,
      "description": "Medic Response",
      "address": "26th Av Sw / Sw Barton St,Seattle,WA",
      "units": "E37 M10",
      "entries": 2,
      "neighborhood": "Roxhill/Westwood",
      "neighborhoodGroup": "Delridge Neighborhoods"
    }
  },
  {
    "id_str": "F190057633",
    "created_at": "6/3/2019 10:51:43 AM",
    "derived": {
      "lat": 47.721425,
      "long": -122.356883,
      "timestamp": 1559584303000,
      "description": "Aid Response",
      "address": "12701 Palatine Av N,Seattle,WA",
      "units": "E24",
      "entries": 1,
      "neighborhood": "Broadview/Bitter Lake",
      "neighborhoodGroup": "Northwest"
    }
  },
  {
    "id_str": "F190057632",
    "created_at": "6/3/2019 10:42:18 AM",
    "derived": {
      "lat": 47.584234,
      "long": -122.299024,
      "timestamp": 1559583738000,
      "description": "Medic Response",
      "address": "2121 26th Av S,Seattle,WA",
      "units": "E6 M1",
      "entries": 1,
      "neighborhood": "Mt. Baker/North Rainier",
      "neighborhoodGroup": "Southeast"
    }
  },
  {
    "id_str": "F190057630",
    "created_at": "6/3/2019 10:18:08 AM",
    "derived": {
      "lat": 47.564369,
      "long": -122.385453,
      "timestamp": 1559582288000,
      "description": "Medic Response, 6 per Rule",
      "address": "4417 42nd Av Sw,Seattle,WA",
      "units": "E29 M10 R1",
      "entries": 1,
      "neighborhood": "West Seattle Junction/Genesee Hill",
      "neighborhoodGroup": "Southwest"
    }
  },
  {
    "id_str": "F190057629",
    "created_at": "6/3/2019 10:17:16 AM",
    "derived": {
      "lat": 47.719264,
      "long": -122.292573,
      "timestamp": 1559582236000,
      "description": "Aid Response",
      "address": "3316 Ne 125th St,Seattle,WA",
      "units": "E39",
      "entries": 1,
      "neighborhood": "Cedar Park/Meadowbrook",
      "neighborhoodGroup": "North"
    }
  },
  {
    "id_str": "F190057628",
    "created_at": "6/3/2019 10:10:23 AM",
    "derived": {
      "lat": 47.562472,
      "long": -122.385455,
      "timestamp": 1559581823000,
      "description": "Aid Response",
      "address": "4545 42nd Av Sw,Seattle,WA",
      "units": "E32",
      "entries": 1,
      "neighborhood": "West Seattle Junction/Genesee Hill",
      "neighborhoodGroup": "Southwest"
    }
  },
  {
    "id_str": "F190057627",
    "created_at": "6/3/2019 10:08:42 AM",
    "derived": {
      "lat": 47.683892,
      "long": -122.263842,
      "timestamp": 1559581722000,
      "description": "Aid Response",
      "address": "7600 Sand Point Way Ne,Seattle,WA",
      "units": "E40",
      "entries": 1,
      "neighborhood": "Laurelhurst/Sand Point",
      "neighborhoodGroup": "Northeast"
    }
  },
  {
    "id_str": "F190057626",
    "created_at": "6/3/2019 10:07:51 AM",
    "derived": {
      "lat": 47.611672,
      "long": -122.336484,
      "timestamp": 1559581671000,
      "description": "MVI - Motor Vehicle Incident",
      "address": "5th Av / Pine St,Seattle,WA",
      "units": "E8",
      "entries": 1,
      "neighborhood": "Downtown Commercial Core",
      "neighborhoodGroup": "Downtown"
    }
  },
  {
    "id_str": "F190057624",
    "created_at": "6/3/2019 10:02:26 AM",
    "derived": {
      "lat": 47.61559,
      "long": -122.310151,
      "timestamp": 1559581346000,
      "description": "Aid Response Yellow",
      "address": "1700 E Madison St,Seattle,WA",
      "units": "L10",
      "entries": 1,
      "neighborhood": "Central Area/Squire Park",
      "neighborhoodGroup": "Central"
    }
  },
  {
    "id_str": "F190057620",
    "created_at": "6/3/2019 9:48:23 AM",
    "derived": {
      "lat": 47.511544,
      "long": -122.38445,
      "timestamp": 1559580503000,
      "description": "Medic Response",
      "address": "10252 41st Av Sw,Seattle,WA",
      "units": "E37 M28",
      "entries": 1,
      "neighborhood": "Arbor Heights",
      "neighborhoodGroup": "Southwest"
    }
  },
  {
    "id_str": "F190057619",
    "created_at": "6/3/2019 9:46:49 AM",
    "derived": {
      "lat": 47.595357,
      "long": -122.292714,
      "timestamp": 1559580409000,
      "description": "Aid Response",
      "address": "835 31st Av S,Seattle,WA",
      "units": "E6",
      "entries": 1,
      "neighborhood": "Madrona/Leschi",
      "neighborhoodGroup": "Central"
    }
  },
  {
    "id_str": "F190057618",
    "created_at": "6/3/2019 9:43:25 AM",
    "derived": {
      "lat": 47.614106,
      "long": -122.310161,
      "timestamp": 1559580205000,
      "description": "Aid Response",
      "address": "1501 17TH AV,Seattle,WA",
      "units": "A25 E34",
      "entries": 2,
      "neighborhood": "Central Area/Squire Park",
      "neighborhoodGroup": "Central"
    }
  },
  {
    "id_str": "F190057617",
    "created_at": "6/3/2019 9:42:05 AM",
    "derived": {
      "lat": 47.718117,
      "long": -122.370349,
      "timestamp": 1559580125000,
      "description": "Aid Response",
      "address": "12242 11th Av Nw,Seattle,WA",
      "units": "E24",
      "entries": 1,
      "neighborhood": "Broadview/Bitter Lake",
      "neighborhoodGroup": "Northwest"
    }
  },
  {
    "id_str": "F190057616",
    "created_at": "6/3/2019 9:41:15 AM",
    "derived": {
      "lat": 47.719343,
      "long": -122.295195,
      "timestamp": 1559580075000,
      "description": "4RED - 2 + 1 + 1",
      "address": "12508 Lake City Way Ne,Seattle,WA",
      "units": "B6 E31 E39 L5 L8",
      "entries": 2,
      "neighborhood": "Cedar Park/Meadowbrook",
      "neighborhoodGroup": "North"
    }
  },
  {
    "id_str": "F190057615",
    "created_at": "6/3/2019 9:39:30 AM",
    "derived": {
      "lat": 47.67834,
      "long": -122.32895,
      "timestamp": 1559579970000,
      "description": "Aid Response",
      "address": "6720 East Green Lake Way N,Seattle,WA",
      "units": "E17 L9",
      "entries": 2,
      "neighborhood": "Green Lake",
      "neighborhoodGroup": "Northwest"
    }
  },
  {
    "id_str": "F190057610",
    "created_at": "6/3/2019 9:30:18 AM",
    "derived": {
      "lat": 47.62118,
      "long": -122.314685,
      "timestamp": 1559579418000,
      "description": "Aid Response",
      "address": "308 14th Av E,Seattle,WA",
      "units": "A25",
      "entries": 1,
      "neighborhood": "Capitol Hill",
      "neighborhoodGroup": "East"
    }
  },
  {
    "id_str": "F190057611",
    "created_at": "6/3/2019 9:30:02 AM",
    "derived": {
      "lat": 47.581187,
      "long": -122.385299,
      "timestamp": 1559579402000,
      "description": "Car Fire",
      "address": "4210 Sw Admiral Way,Seattle,WA",
      "units": "E29",
      "entries": 1,
      "neighborhood": "Alki/Admiral",
      "neighborhoodGroup": "Southwest"
    }
  },
  {
    "id_str": "F190057609",
    "created_at": "6/3/2019 9:29:34 AM",
    "derived": {
      "lat": 47.609343,
      "long": -122.325128,
      "timestamp": 1559579374000,
      "description": "Aid Response",
      "address": "1101 Madison St,Seattle,WA",
      "units": "A5 M28",
      "entries": 2,
      "neighborhood": "First Hill",
      "neighborhoodGroup": "East"
    }
  },
  {
    "id_str": "F190057607",
    "created_at": "6/3/2019 9:15:08 AM",
    "derived": {
      "lat": null,
      "long": null,
      "timestamp": 1559578508000,
      "description": "Auto Fire Alarm",
      "address": "1904 3rd Av,Seattle,WA",
      "units": "E5 L4",
      "entries": 1
    }
  },
  {
    "id_str": "F190057606",
    "created_at": "6/3/2019 9:10:56 AM",
    "derived": {
      "lat": 47.72696,
      "long": -122.29092,
      "timestamp": 1559578256000,
      "description": "Water Job Minor",
      "address": "13555 35th Av Ne,Seattle,WA",
      "units": "L5",
      "entries": 1,
      "neighborhood": "Cedar Park/Meadowbrook",
      "neighborhoodGroup": "North"
    }
  },
  {
    "id_str": "F190057605",
    "created_at": "6/3/2019 9:10:54 AM",
    "derived": {
      "lat": 47.604841,
      "long": -122.324097,
      "timestamp": 1559578254000,
      "description": "Medic Response",
      "address": "9th Av / Jefferson St,Seattle,WA",
      "units": "A5 M17",
      "entries": 1,
      "neighborhood": "First Hill",
      "neighborhoodGroup": "East"
    }
  },
  {
    "id_str": "F190057603",
    "created_at": "6/3/2019 9:08:40 AM",
    "derived": {
      "lat": 47.650918,
      "long": -122.34266,
      "timestamp": 1559578120000,
      "description": "Aid Response Yellow",
      "address": "3636 Stone Way N,Seattle,WA",
      "units": "E9",
      "entries": 1,
      "neighborhood": "Fremont",
      "neighborhoodGroup": "Lake Union"
    }
  },
  {
    "id_str": "F190057602",
    "created_at": "6/3/2019 9:06:27 AM",
    "derived": {
      "lat": 47.67837,
      "long": -122.327511,
      "timestamp": 1559577987000,
      "description": "Medic Response",
      "address": "6800 East Green Lake Way N,Seattle,WA",
      "units": "E17 M17",
      "entries": 2,
      "neighborhood": "Green Lake",
      "neighborhoodGroup": "Northwest"
    }
  },
  {
    "id_str": "F190057601",
    "created_at": "6/3/2019 9:05:21 AM",
    "derived": {
      "lat": 47.544588,
      "long": -122.362624,
      "timestamp": 1559577921000,
      "description": "Aid Response",
      "address": "6510 23rd Av Sw,Seattle,WA",
      "units": "E37",
      "entries": 1,
      "neighborhood": "High Point",
      "neighborhoodGroup": "Delridge Neighborhoods"
    }
  },
  {
    "id_str": "F190057597",
    "created_at": "6/3/2019 8:52:05 AM",
    "derived": {
      "lat": 47.625849,
      "long": -122.360866,
      "timestamp": 1559577125000,
      "description": "Medic Response, 7 per Rule",
      "address": "320 W ROY ST,Seattle,WA",
      "units": "E8 L6 M1",
      "entries": 2,
      "neighborhood": "Queen Anne",
      "neighborhoodGroup": "Magnolia/Queen Anne"
    }
  },
  {
    "id_str": "F190057596",
    "created_at": "6/3/2019 8:47:18 AM",
    "derived": {
      "lat": 47.608073,
      "long": -122.320755,
      "timestamp": 1559576838000,
      "description": "Medic Response",
      "address": "700 Broadway,Seattle,WA",
      "units": "A25 M10",
      "entries": 1,
      "neighborhood": "First Hill",
      "neighborhoodGroup": "East"
    }
  },
  {
    "id_str": "F190057595",
    "created_at": "6/3/2019 8:38:38 AM",
    "derived": {
      "lat": 47.639727,
      "long": -122.327316,
      "timestamp": 1559576318000,
      "description": "Aid Response Yellow",
      "address": "92 E Lynn St,Seattle,WA",
      "units": "E22",
      "entries": 1,
      "neighborhood": "Montlake/Portage Bay",
      "neighborhoodGroup": "Northeast"
    }
  },
  {
    "id_str": "F190057594",
    "created_at": "6/3/2019 8:30:04 AM",
    "derived": {
      "lat": 47.571408,
      "long": -122.291001,
      "timestamp": 1559575804000,
      "description": "Aid Response",
      "address": "3621 33rd Av S,Seattle,WA",
      "units": "E30",
      "entries": 1,
      "neighborhood": "Columbia City",
      "neighborhoodGroup": "Southeast"
    }
  },
  {
    "id_str": "F190057592",
    "created_at": "6/3/2019 8:20:08 AM",
    "derived": {
      "lat": 47.602769,
      "long": -122.331409,
      "timestamp": 1559575208000,
      "description": "Aid Response",
      "address": "3rd Av / James St,Seattle,WA",
      "units": "A5",
      "entries": 1,
      "neighborhood": "Downtown Commercial Core",
      "neighborhoodGroup": "Downtown"
    }
  },
  {
    "id_str": "F190057591",
    "created_at": "6/3/2019 8:17:28 AM",
    "derived": {
      "lat": 47.617943,
      "long": -122.334397,
      "timestamp": 1559575048000,
      "description": "Aid Response",
      "address": "2022 Boren Av,Seattle,WA",
      "units": "A2",
      "entries": 1,
      "neighborhood": "Cascade/Eastlake",
      "neighborhoodGroup": "Lake Union"
    }
  },
  {
    "id_str": "F190057588",
    "created_at": "6/3/2019 8:05:21 AM",
    "derived": {
      "lat": 47.588046,
      "long": -122.386276,
      "timestamp": 1559574321000,
      "description": "Medic Response",
      "address": "California Av Sw / Sw Massachusetts St,Seattle,WA",
      "units": "E29 M32",
      "entries": 1,
      "neighborhood": "Alki/Admiral",
      "neighborhoodGroup": "Southwest"
    }
  },
  {
    "id_str": "F190057589",
    "created_at": "6/3/2019 8:05:11 AM",
    "derived": {
      "lat": 47.61055,
      "long": -122.329318,
      "timestamp": 1559574311000,
      "description": "Aid Response",
      "address": "900 University St,Seattle,WA",
      "units": "A25",
      "entries": 1,
      "neighborhood": "First Hill",
      "neighborhoodGroup": "East"
    }
  },
  {
    "id_str": "F190057587",
    "created_at": "6/3/2019 8:03:56 AM",
    "derived": {
      "lat": 47.677657,
      "long": -122.297382,
      "timestamp": 1559574236000,
      "description": "Aid Response",
      "address": "6806 28th Av Ne,Seattle,WA",
      "units": "E38",
      "entries": 1,
      "neighborhood": "Ravenna/Bryant",
      "neighborhoodGroup": "Northeast"
    }
  },
  {
    "id_str": "F190057584",
    "created_at": "6/3/2019 7:59:33 AM",
    "derived": {
      "lat": 47.606982,
      "long": -122.326056,
      "timestamp": 1559573973000,
      "description": "Medic Response",
      "address": "801 9th Av,Seattle,WA",
      "units": "A10 M1 M10",
      "entries": 2,
      "neighborhood": "First Hill",
      "neighborhoodGroup": "East"
    }
  },
  {
    "id_str": "F190057583",
    "created_at": "6/3/2019 7:58:08 AM",
    "derived": {
      "lat": 47.533419,
      "long": -122.328143,
      "timestamp": 1559573888000,
      "description": "Aid Response",
      "address": "500 S Portland St,Seattle,WA",
      "units": "E26",
      "entries": 1,
      "neighborhood": "South Park",
      "neighborhoodGroup": "Greater Duwamish"
    }
  },
  {
    "id_str": "F190057582",
    "created_at": "6/3/2019 7:39:15 AM",
    "derived": {
      "lat": 47.720938,
      "long": -122.292513,
      "timestamp": 1559572755000,
      "description": "Medic Response, 7 per Rule",
      "address": "12740 33rd Av Ne,Seattle,WA",
      "units": "E31 E40 M31",
      "entries": 3,
      "neighborhood": "Cedar Park/Meadowbrook",
      "neighborhoodGroup": "North"
    }
  },
  {
    "id_str": "F190057581",
    "created_at": "6/3/2019 7:38:31 AM",
    "derived": {
      "lat": 47.716051,
      "long": -122.312565,
      "timestamp": 1559572711000,
      "description": "Auto Fire Alarm",
      "address": "12044 15th Av Ne,Seattle,WA",
      "units": "E39 L5",
      "entries": 1,
      "neighborhood": "Olympic Hills/Victory Heights",
      "neighborhoodGroup": "North"
    }
  },
  {
    "id_str": "F190057580",
    "created_at": "6/3/2019 7:21:14 AM",
    "derived": {
      "lat": 47.582882,
      "long": -122.301609,
      "timestamp": 1559571674000,
      "description": "Aid Response",
      "address": "2345 Rainier Av S,Seattle,WA",
      "units": "E30",
      "entries": 1,
      "neighborhood": "Mt. Baker/North Rainier",
      "neighborhoodGroup": "Southeast"
    }
  },
  {
    "id_str": "F190057577",
    "created_at": "6/3/2019 7:08:28 AM",
    "derived": {
      "lat": 47.648927,
      "long": -122.398252,
      "timestamp": 1559570908000,
      "description": "Aid Response",
      "address": "3233 32nd Av W,Seattle,WA",
      "units": "E41",
      "entries": 1,
      "neighborhood": "Magnolia",
      "neighborhoodGroup": "Magnolia/Queen Anne"
    }
  },
  {
    "id_str": "F190057576",
    "created_at": "6/3/2019 7:04:32 AM",
    "derived": {
      "lat": 47.631378,
      "long": -122.359203,
      "timestamp": 1559570672000,
      "description": "Automatic Medical Alarm",
      "address": "1407 2nd Av W,Seattle,WA",
      "units": "E8",
      "entries": 1,
      "neighborhood": "Queen Anne",
      "neighborhoodGroup": "Magnolia/Queen Anne"
    }
  },
  {
    "id_str": "F190057575",
    "created_at": "6/3/2019 7:03:38 AM",
    "derived": {
      "lat": 47.610155,
      "long": -122.333545,
      "timestamp": 1559570618000,
      "description": "Medic Response, 6 per Rule",
      "address": "601 Union St,Seattle,WA",
      "units": "A25 E2 M1 M17",
      "entries": 2,
      "neighborhood": "First Hill",
      "neighborhoodGroup": "East"
    }
  },
  {
    "id_str": "F190057574",
    "created_at": "6/3/2019 6:57:55 AM",
    "derived": {
      "lat": 47.612535,
      "long": -122.331134,
      "timestamp": 1559570275000,
      "description": "Aid Response",
      "address": "Pike St / Convention Pl,Seattle,WA",
      "units": "A2",
      "entries": 1,
      "neighborhood": "First Hill",
      "neighborhoodGroup": "East"
    }
  },
  {
    "id_str": "F190057573",
    "created_at": "6/3/2019 6:43:40 AM",
    "derived": {
      "lat": 47.566556,
      "long": -122.320956,
      "timestamp": 1559569420000,
      "description": "Medic Response",
      "address": "Sb I5 At Alaska,Seattle,WA",
      "units": "A14 E13 E36 M10",
      "entries": 2,
      "neighborhood": "Duwamish/SODO",
      "neighborhoodGroup": "Greater Duwamish"
    }
  },
  {
    "id_str": "F190057572",
    "created_at": "6/3/2019 6:37:01 AM",
    "derived": {
      "lat": 47.659108,
      "long": -122.362935,
      "timestamp": 1559569021000,
      "description": "Aid Response",
      "address": "4307 5th Av Nw,Seattle,WA",
      "units": "E9",
      "entries": 1,
      "neighborhood": "Fremont",
      "neighborhoodGroup": "Lake Union"
    }
  },
  {
    "id_str": "F190057570",
    "created_at": "6/3/2019 6:08:38 AM",
    "derived": {
      "lat": 47.604991,
      "long": -122.333174,
      "timestamp": 1559567318000,
      "description": "Aid Response",
      "address": "317 Marion St,Seattle,WA",
      "units": "A5",
      "entries": 1,
      "neighborhood": "Downtown Commercial Core",
      "neighborhoodGroup": "Downtown"
    }
  },
  {
    "id_str": "F190057569",
    "created_at": "6/3/2019 5:56:07 AM",
    "derived": {
      "lat": 47.58821,
      "long": -122.302596,
      "timestamp": 1559566567000,
      "description": "Medic Response",
      "address": "1711 23rd Av S,Seattle,WA",
      "units": "E2 E6 M1",
      "entries": 2,
      "neighborhood": "Mt. Baker/North Rainier",
      "neighborhoodGroup": "Southeast"
    }
  },
  {
    "id_str": "F190057568",
    "created_at": "6/3/2019 5:47:34 AM",
    "derived": {
      "lat": 47.535211,
      "long": -122.280325,
      "timestamp": 1559566054000,
      "description": "Medic Response",
      "address": "S Webster St / Renton Av S,Seattle,WA",
      "units": "E28 M28",
      "entries": 1,
      "neighborhood": "South Beacon Hill/NewHolly",
      "neighborhoodGroup": "Greater Duwamish"
    }
  },
  {
    "id_str": "F190057567",
    "created_at": "6/3/2019 5:36:07 AM",
    "derived": {
      "lat": 47.61523,
      "long": -122.323218,
      "timestamp": 1559565367000,
      "description": "AFA4 - Auto Alarm 2 + 1 + 1",
      "address": "715 E Pine St,Seattle,WA",
      "units": "B2 E2 E25 L10",
      "entries": 1,
      "neighborhood": "Capitol Hill",
      "neighborhoodGroup": "East"
    }
  },
  {
    "id_str": "F190057566",
    "created_at": "6/3/2019 5:11:37 AM",
    "derived": {
      "lat": 47.540318,
      "long": -122.282693,
      "timestamp": 1559563897000,
      "description": "Aid Response",
      "address": "6940 M L King Jr Way S,Seattle,WA",
      "units": "E28",
      "entries": 1,
      "neighborhood": "South Beacon Hill/NewHolly",
      "neighborhoodGroup": "Greater Duwamish"
    }
  },
  {
    "id_str": "F190057564",
    "created_at": "6/3/2019 4:36:30 AM",
    "derived": {
      "lat": 47.549955,
      "long": -122.363012,
      "timestamp": 1559561790000,
      "description": "Aid Response",
      "address": "5915 Delridge Way Sw,Seattle,WA",
      "units": "E11",
      "entries": 1,
      "neighborhood": "High Point",
      "neighborhoodGroup": "Delridge Neighborhoods"
    }
  },
  {
    "id_str": "F190057563",
    "created_at": "6/3/2019 4:32:58 AM",
    "derived": {
      "lat": 47.732881,
      "long": -122.296531,
      "timestamp": 1559561578000,
      "description": "Aid Response",
      "address": "14396 30th Av Ne,Seattle,WA",
      "units": "E40",
      "entries": 1,
      "neighborhood": "Olympic Hills/Victory Heights",
      "neighborhoodGroup": "North"
    }
  },
  {
    "id_str": "F190057562",
    "created_at": "6/3/2019 4:25:22 AM",
    "derived": {
      "lat": 47.542877,
      "long": -122.300912,
      "timestamp": 1559561122000,
      "description": "Medic Response",
      "address": "2460 S Holly St,Seattle,WA",
      "units": "E28 M28",
      "entries": 1,
      "neighborhood": "South Beacon Hill/NewHolly",
      "neighborhoodGroup": "Greater Duwamish"
    }
  },
  {
    "id_str": "F190057561",
    "created_at": "6/3/2019 4:09:47 AM",
    "derived": {
      "lat": 47.721329,
      "long": -122.296339,
      "timestamp": 1559560187000,
      "description": "Medic Response",
      "address": "12740 30th Av Ne,Seattle,WA",
      "units": "E39 M31",
      "entries": 1,
      "neighborhood": "Cedar Park/Meadowbrook",
      "neighborhoodGroup": "North"
    }
  },
  {
    "id_str": "F190057560",
    "created_at": "6/3/2019 3:58:45 AM",
    "derived": {
      "lat": 47.701508,
      "long": -122.280052,
      "timestamp": 1559559525000,
      "description": "Aid Response Yellow",
      "address": "10059 45th Av Ne,Seattle,WA",
      "units": "E40",
      "entries": 1,
      "neighborhood": "Wedgwood/View Ridge",
      "neighborhoodGroup": "Northeast"
    }
  },
  {
    "id_str": "F190057558",
    "created_at": "6/3/2019 3:53:59 AM",
    "derived": {
      "lat": 47.583642,
      "long": -122.386443,
      "timestamp": 1559559239000,
      "description": "Medic Response",
      "address": "2235 California Av Sw,Seattle,WA",
      "units": "E29 M32",
      "entries": 2,
      "neighborhood": "Alki/Admiral",
      "neighborhoodGroup": "Southwest"
    }
  },
  {
    "id_str": "F190057557",
    "created_at": "6/3/2019 3:50:30 AM",
    "derived": {
      "lat": 47.690655,
      "long": -122.365993,
      "timestamp": 1559559030000,
      "description": "Medic Response",
      "address": "8th Av Nw / Nw 85th St,Seattle,WA",
      "units": "E21 M18",
      "entries": 1,
      "neighborhood": "Greenwood/Phinney Ridge",
      "neighborhoodGroup": "Northwest"
    }
  },
  {
    "id_str": "F190057556",
    "created_at": "6/3/2019 3:37:29 AM",
    "derived": {
      "lat": 47.608682,
      "long": -122.341421,
      "timestamp": 1559558249000,
      "description": "Medic Response",
      "address": "1533 Western Av,Seattle,WA",
      "units": "E5 M10",
      "entries": 1,
      "neighborhood": "Downtown Commercial Core",
      "neighborhoodGroup": "Downtown"
    }
  },
  {
    "id_str": "F190057555",
    "created_at": "6/3/2019 3:17:04 AM",
    "derived": {
      "lat": 47.690628,
      "long": -122.361159,
      "timestamp": 1559557024000,
      "description": "Medic Response, 7 per Rule",
      "address": "358 Nw 85th St,Seattle,WA",
      "units": "E21 E31 M31",
      "entries": 2,
      "neighborhood": "Greenwood/Phinney Ridge",
      "neighborhoodGroup": "Northwest"
    }
  },
  {
    "id_str": "F190057554",
    "created_at": "6/3/2019 2:52:06 AM",
    "derived": {
      "lat": 47.626721,
      "long": -122.35812,
      "timestamp": 1559555526000,
      "description": "Aid Response",
      "address": "110 W Olympic Pl,Seattle,WA",
      "units": "E8",
      "entries": 1,
      "neighborhood": "Queen Anne",
      "neighborhoodGroup": "Magnolia/Queen Anne"
    }
  },
  {
    "id_str": "F190057553",
    "created_at": "6/3/2019 2:48:46 AM",
    "derived": {
      "lat": 47.688933,
      "long": -122.3768,
      "timestamp": 1559555326000,
      "description": "Aid Response Yellow",
      "address": "8323 15TH AV NW,Seattle,WA",
      "units": "E35",
      "entries": 1,
      "neighborhood": "Whittier Heights",
      "neighborhoodGroup": "Ballard"
    }
  },
  {
    "id_str": "F190057552",
    "created_at": "6/3/2019 2:17:19 AM",
    "derived": {
      "lat": 47.614317,
      "long": -122.316839,
      "timestamp": 1559553439000,
      "description": "Aid Response",
      "address": "1519 12th Av,Seattle,WA",
      "units": "A25",
      "entries": 1,
      "neighborhood": "Capitol Hill",
      "neighborhoodGroup": "East"
    }
  },
  {
    "id_str": "F190057549",
    "created_at": "6/3/2019 2:05:28 AM",
    "derived": {
      "lat": 47.60739,
      "long": -122.332564,
      "timestamp": 1559552728000,
      "description": "Aid Response",
      "address": "1118 5th Av,Seattle,WA",
      "units": "A10",
      "entries": 1,
      "neighborhood": "Downtown Commercial Core",
      "neighborhoodGroup": "Downtown"
    }
  },
  {
    "id_str": "F190057544",
    "created_at": "6/3/2019 1:34:46 AM",
    "derived": {
      "lat": 47.609488,
      "long": -122.339089,
      "timestamp": 1559550886000,
      "description": "Aid Response",
      "address": "1521 2nd Av,Seattle,WA",
      "units": "A2",
      "entries": 1,
      "neighborhood": "Downtown Commercial Core",
      "neighborhoodGroup": "Downtown"
    }
  },
  {
    "id_str": "F190057543",
    "created_at": "6/3/2019 1:33:54 AM",
    "derived": {
      "lat": 47.679973,
      "long": -122.262231,
      "timestamp": 1559550834000,
      "description": "Medic Response",
      "address": "7101 62nd Av Ne,Seattle,WA",
      "units": "E38 M17",
      "entries": 1,
      "neighborhood": "Laurelhurst/Sand Point",
      "neighborhoodGroup": "Northeast"
    }
  },
  {
    "id_str": "F190057542",
    "created_at": "6/3/2019 1:30:13 AM",
    "derived": {
      "lat": 47.608434,
      "long": -122.338125,
      "timestamp": 1559550613000,
      "description": "Auto Fire Alarm",
      "address": "1415 2nd Av,Seattle,WA",
      "units": "E5 L4",
      "entries": 1,
      "neighborhood": "Downtown Commercial Core",
      "neighborhoodGroup": "Downtown"
    }
  },
  {
    "id_str": "F190057534",
    "created_at": "6/3/2019 12:52:43 AM",
    "derived": {
      "lat": 47.59919,
      "long": -122.320841,
      "timestamp": 1559548363000,
      "description": "Rescue Elevator",
      "address": "913 S Jackson St,Seattle,WA",
      "units": "L1",
      "entries": 1,
      "neighborhood": "Pioneer Square/International District",
      "neighborhoodGroup": "Downtown"
    }
  },
  {
    "id_str": "F190057533",
    "created_at": "6/3/2019 12:49:55 AM",
    "derived": {
      "lat": 47.617173,
      "long": -122.333103,
      "timestamp": 1559548195000,
      "description": "Aid Response",
      "address": "1930 Boren Av,Seattle,WA",
      "units": "A2",
      "entries": 1,
      "neighborhood": "Cascade/Eastlake",
      "neighborhoodGroup": "Lake Union"
    }
  },
  {
    "id_str": "F190057532",
    "created_at": "6/3/2019 12:48:31 AM",
    "derived": {
      "lat": 47.604615,
      "long": -122.32228,
      "timestamp": 1559548111000,
      "description": "Automatic Medical Alarm",
      "address": "1005 Terrace St,Seattle,WA",
      "units": "A5",
      "entries": 1,
      "neighborhood": "First Hill",
      "neighborhoodGroup": "East"
    }
  },
  {
    "id_str": "F190057530",
    "created_at": "6/3/2019 12:36:27 AM",
    "derived": {
      "lat": 47.632321,
      "long": -122.359809,
      "timestamp": 1559547387000,
      "description": "Aid Response",
      "address": "223 W Galer St,Seattle,WA",
      "units": "E8",
      "entries": 1,
      "neighborhood": "Queen Anne",
      "neighborhoodGroup": "Magnolia/Queen Anne"
    }
  },
  {
    "id_str": "F190057529",
    "created_at": "6/3/2019 12:35:48 AM",
    "derived": {
      "lat": 47.573681,
      "long": -122.297727,
      "timestamp": 1559547348000,
      "description": "Aid Response",
      "address": "3310 27th Av S,Seattle,WA",
      "units": "E30",
      "entries": 1,
      "neighborhood": "North Beacon Hill/Jefferson Park",
      "neighborhoodGroup": "Greater Duwamish"
    }
  },
  {
    "id_str": "F190057528",
    "created_at": "6/3/2019 12:30:13 AM",
    "derived": {
      "lat": 47.655998,
      "long": -122.31426,
      "timestamp": 1559547013000,
      "description": "Aid Response",
      "address": "1315 Ne Campus Pkwy,Seattle,WA",
      "units": "E17",
      "entries": 1,
      "neighborhood": "University District",
      "neighborhoodGroup": "Northeast"
    }
  },
  {
    "id_str": "F190057527",
    "created_at": "6/3/2019 12:23:37 AM",
    "derived": {
      "lat": 47.579471,
      "long": -122.312377,
      "timestamp": 1559546617000,
      "description": "Aid Response",
      "address": "2700 Beacon Av S,Seattle,WA",
      "units": "E13",
      "entries": 1,
      "neighborhood": "North Beacon Hill/Jefferson Park",
      "neighborhoodGroup": "Greater Duwamish"
    }
  },
  {
    "id_str": "F190057526",
    "created_at": "6/3/2019 12:20:21 AM",
    "derived": {
      "lat": 47.601687,
      "long": -122.31398,
      "timestamp": 1559546421000,
      "description": "Auto Fire Alarm",
      "address": "1414 E Yesler Way,Seattle,WA",
      "units": "E6 L3",
      "entries": 1,
      "neighborhood": "First Hill",
      "neighborhoodGroup": "East"
    }
  },
  {
    "id_str": "F190057524",
    "created_at": "6/3/2019 12:06:02 AM",
    "derived": {
      "lat": 47.528352,
      "long": -122.379477,
      "timestamp": 1559545562000,
      "description": "MVI - Motor Vehicle Incident",
      "address": "3712 Sw Thistle St,Seattle,WA",
      "units": "E37",
      "entries": 1,
      "neighborhood": "Roxhill/Westwood",
      "neighborhoodGroup": "Delridge Neighborhoods"
    }
  },
  {
    "id_str": "F190057523",
    "created_at": "6/2/2019 11:54:18 PM",
    "derived": {
      "lat": 47.50116,
      "long": -122.241406,
      "timestamp": 1559544858000,
      "description": "Scenes Of Violence 7",
      "address": "11417 Cornell Av S,Seattle,WA",
      "units": "E28 E33 M28",
      "entries": 2,
      "neighborhood": "Rainier Beach",
      "neighborhoodGroup": "Southeast"
    }
  },
  {
    "id_str": "F190057522",
    "created_at": "6/2/2019 11:50:08 PM",
    "derived": {
      "lat": 47.636676,
      "long": -122.323292,
      "timestamp": 1559544608000,
      "description": "MVI Freeway",
      "address": "SB I5 AT SR520,Seattle,WA",
      "units": "A25 E16 E17 E22 M17",
      "entries": 3,
      "neighborhood": "Cascade/Eastlake",
      "neighborhoodGroup": "Lake Union"
    }
  },
  {
    "id_str": "F190057521",
    "created_at": "6/2/2019 11:48:39 PM",
    "derived": {
      "lat": 47.515535,
      "long": -122.387512,
      "timestamp": 1559544519000,
      "description": "Aid Response Yellow",
      "address": "9811 California Av Sw,Seattle,WA",
      "units": "E37",
      "entries": 1,
      "neighborhood": "Arbor Heights",
      "neighborhoodGroup": "Southwest"
    }
  },
  {
    "id_str": "F190057519",
    "created_at": "6/2/2019 11:30:15 PM",
    "derived": {
      "lat": 47.59216,
      "long": -122.294428,
      "timestamp": 1559543415000,
      "description": "Aid Response",
      "address": "Yakima Av S / S Judkins St,Seattle,WA",
      "units": "E6",
      "entries": 1,
      "neighborhood": "Madrona/Leschi",
      "neighborhoodGroup": "Central"
    }
  },
  {
    "id_str": "F190057518",
    "created_at": "6/2/2019 11:27:33 PM",
    "derived": {
      "lat": 47.581888,
      "long": -122.335125,
      "timestamp": 1559543253000,
      "description": "1RED 1 Unit",
      "address": "2401 Utah Av S,Seattle,WA",
      "units": "R1",
      "entries": 1,
      "neighborhood": "Duwamish/SODO",
      "neighborhoodGroup": "Greater Duwamish"
    }
  },
  {
    "id_str": "F190057517",
    "created_at": "6/2/2019 11:26:28 PM",
    "derived": {
      "lat": 47.708656,
      "long": -122.3329,
      "timestamp": 1559543188000,
      "description": "Aid Response",
      "address": "2140 N Northgate Way,Seattle,WA",
      "units": "E31",
      "entries": 1,
      "neighborhood": "Northgate/Maple Leaf",
      "neighborhoodGroup": "North"
    }
  },
  {
    "id_str": "F190057516",
    "created_at": "6/2/2019 11:25:21 PM",
    "derived": {
      "lat": 47.621975,
      "long": -122.329149,
      "timestamp": 1559543121000,
      "description": "Aid Response",
      "address": "Eastlake Av E / Harrison St,Seattle,WA",
      "units": "A25",
      "entries": 1,
      "neighborhood": "Cascade/Eastlake",
      "neighborhoodGroup": "Lake Union"
    }
  },
  {
    "id_str": "F190057515",
    "created_at": "6/2/2019 11:24:17 PM",
    "derived": {
      "lat": 47.665845,
      "long": -122.301932,
      "timestamp": 1559543057000,
      "description": "Aid Response",
      "address": "2401 Ne Blakeley St,Seattle,WA",
      "units": "E38",
      "entries": 1,
      "neighborhood": "Ravenna/Bryant",
      "neighborhoodGroup": "Northeast"
    }
  },
  {
    "id_str": "F190057512",
    "created_at": "6/2/2019 11:19:23 PM",
    "derived": {
      "lat": 47.656834,
      "long": -122.313246,
      "timestamp": 1559542763000,
      "description": "1RED 1 Unit",
      "address": "Ne 41st St / University Way Ne,Seattle,WA",
      "units": "E17",
      "entries": 1,
      "neighborhood": "University District",
      "neighborhoodGroup": "Northeast"
    }
  },
  {
    "id_str": "F190057511",
    "created_at": "6/2/2019 11:15:04 PM",
    "derived": {
      "lat": 47.626342,
      "long": -122.342333,
      "timestamp": 1559542504000,
      "description": "Aid Response",
      "address": "810 DEXTER AV N,Seattle,WA",
      "units": "A2",
      "entries": 1,
      "neighborhood": "Queen Anne",
      "neighborhoodGroup": "Magnolia/Queen Anne"
    }
  },
  {
    "id_str": "F190057510",
    "created_at": "6/2/2019 11:07:48 PM",
    "derived": {
      "lat": 47.596469,
      "long": -122.334192,
      "timestamp": 1559542068000,
      "description": "Aid Response",
      "address": "1st Av S / S Dearborn St,Seattle,WA",
      "units": "A10 A5",
      "entries": 2,
      "neighborhood": "Duwamish/SODO",
      "neighborhoodGroup": "Greater Duwamish"
    }
  },
  {
    "id_str": "F190057509",
    "created_at": "6/2/2019 11:00:38 PM",
    "derived": {
      "lat": 47.58884,
      "long": -122.386248,
      "timestamp": 1559541638000,
      "description": "Aid Response",
      "address": "1637 California Av Sw,Seattle,WA",
      "units": "E29",
      "entries": 1,
      "neighborhood": "Alki/Admiral",
      "neighborhoodGroup": "Southwest"
    }
  },
  {
    "id_str": "F190057508",
    "created_at": "6/2/2019 10:57:11 PM",
    "derived": {
      "lat": 47.504893,
      "long": -122.269578,
      "timestamp": 1559541431000,
      "description": "Aid Response Yellow",
      "address": "5143 S Hazel St,Seattle,WA",
      "units": "E33",
      "entries": 1,
      "neighborhood": "Rainier Beach",
      "neighborhoodGroup": "Southeast"
    }
  },
  {
    "id_str": "F190057507",
    "created_at": "6/2/2019 10:57:02 PM",
    "derived": {
      "lat": 47.596469,
      "long": -122.334192,
      "timestamp": 1559541422000,
      "description": "Aid Response",
      "address": "1st Av S / S Dearborn St,Seattle,WA",
      "units": "A10",
      "entries": 1,
      "neighborhood": "Duwamish/SODO",
      "neighborhoodGroup": "Greater Duwamish"
    }
  },
  {
    "id_str": "F190057506",
    "created_at": "6/2/2019 10:37:09 PM",
    "derived": {
      "lat": 47.731129,
      "long": -122.345064,
      "timestamp": 1559540229000,
      "description": "Aid Response",
      "address": "14115 Aurora Av N,Seattle,WA",
      "units": "E31",
      "entries": 1,
      "neighborhood": "Haller Lake",
      "neighborhoodGroup": "Northwest"
    }
  },
  {
    "id_str": "F190057503",
    "created_at": "6/2/2019 10:29:24 PM",
    "derived": {
      "lat": 47.549149,
      "long": -122.359835,
      "timestamp": 1559539764000,
      "description": "Aid Response",
      "address": "6011 21st Av Sw,Seattle,WA",
      "units": "E11",
      "entries": 1,
      "neighborhood": "Riverview",
      "neighborhoodGroup": "Delridge Neighborhoods"
    }
  },
  {
    "id_str": "F190057504",
    "created_at": "6/2/2019 10:29:21 PM",
    "derived": {
      "lat": 47.704884,
      "long": -122.279712,
      "timestamp": 1559539761000,
      "description": "Aid Response",
      "address": "4508 Ne 106th St,Seattle,WA",
      "units": "E40",
      "entries": 1,
      "neighborhood": "Cedar Park/Meadowbrook",
      "neighborhoodGroup": "North"
    }
  },
  {
    "id_str": "F190057502",
    "created_at": "6/2/2019 10:28:06 PM",
    "derived": {
      "lat": 47.599195,
      "long": -122.327667,
      "timestamp": 1559539686000,
      "description": "Aid Response",
      "address": "5th Av S / S Jackson St,Seattle,WA",
      "units": "A5",
      "entries": 1,
      "neighborhood": "Pioneer Square/International District",
      "neighborhoodGroup": "Downtown"
    }
  },
  {
    "id_str": "F190057501",
    "created_at": "6/2/2019 10:26:55 PM",
    "derived": {
      "lat": 47.604377,
      "long": -122.325207,
      "timestamp": 1559539615000,
      "description": "Rescue Elevator",
      "address": "800 Jefferson St,Seattle,WA",
      "units": "L1",
      "entries": 1,
      "neighborhood": "First Hill",
      "neighborhoodGroup": "East"
    }
  },
  {
    "id_str": "F190057500",
    "created_at": "6/2/2019 10:21:39 PM",
    "derived": {
      "lat": 47.562472,
      "long": -122.385455,
      "timestamp": 1559539299000,
      "description": "Aid Response",
      "address": "4545 42nd Av Sw,Seattle,WA",
      "units": "L11",
      "entries": 1,
      "neighborhood": "West Seattle Junction/Genesee Hill",
      "neighborhoodGroup": "Southwest"
    }
  },
  {
    "id_str": "F190057499",
    "created_at": "6/2/2019 10:16:56 PM",
    "derived": {
      "lat": 47.588268,
      "long": -122.315982,
      "timestamp": 1559539016000,
      "description": "Aid Response",
      "address": "1711 13th Av S,Seattle,WA",
      "units": "E13",
      "entries": 1,
      "neighborhood": "North Beacon Hill/Jefferson Park",
      "neighborhoodGroup": "Greater Duwamish"
    }
  },
  {
    "id_str": "F190057498",
    "created_at": "6/2/2019 10:13:42 PM",
    "derived": {
      "lat": 47.563923,
      "long": -122.37877,
      "timestamp": 1559538822000,
      "description": "Medic Response",
      "address": "4431 37th Av Sw,Seattle,WA",
      "units": "E32 M32",
      "entries": 1,
      "neighborhood": "West Seattle Junction/Genesee Hill",
      "neighborhoodGroup": "Southwest"
    }
  },
  {
    "id_str": "F190057494",
    "created_at": "6/2/2019 9:59:26 PM",
    "derived": {
      "lat": 47.527337,
      "long": -122.327702,
      "timestamp": 1559537966000,
      "description": "Activated CO Detector",
      "address": "545 S Sullivan St,Seattle,WA",
      "units": "E27 R1",
      "entries": 2,
      "neighborhood": "South Park",
      "neighborhoodGroup": "Greater Duwamish"
    }
  },
  {
    "id_str": "F190057492",
    "created_at": "6/2/2019 9:55:04 PM",
    "derived": {
      "lat": 47.720135,
      "long": -122.366373,
      "timestamp": 1559537704000,
      "description": "Medic Response",
      "address": "12552 8th Av Nw,Seattle,WA",
      "units": "E24 M31",
      "entries": 2,
      "neighborhood": "Broadview/Bitter Lake",
      "neighborhoodGroup": "Northwest"
    }
  },
  {
    "id_str": "F190057486",
    "created_at": "6/2/2019 9:26:30 PM",
    "derived": {
      "lat": 47.548953,
      "long": -122.302251,
      "timestamp": 1559535990000,
      "description": "Aid Response",
      "address": "5940 24th Av S,Seattle,WA",
      "units": "E13",
      "entries": 1,
      "neighborhood": "Beacon Hill",
      "neighborhoodGroup": "Greater Duwamish"
    }
  },
  {
    "id_str": "F190057485",
    "created_at": "6/2/2019 9:24:53 PM",
    "derived": {
      "lat": 47.6146,
      "long": -122.342634,
      "timestamp": 1559535893000,
      "description": "Aid Response",
      "address": "2201 4th Av,Seattle,WA",
      "units": "A2",
      "entries": 1,
      "neighborhood": "Cascade/Eastlake",
      "neighborhoodGroup": "Lake Union"
    }
  },
  {
    "id_str": "F190057484",
    "created_at": "6/2/2019 9:12:13 PM",
    "derived": {
      "lat": 47.539432,
      "long": -122.320383,
      "timestamp": 1559535133000,
      "description": "Aid Response",
      "address": "1000 S Myrtle St,Seattle,WA",
      "units": "E27",
      "entries": 1,
      "neighborhood": "Georgetown",
      "neighborhoodGroup": "Greater Duwamish"
    }
  },
  {
    "id_str": "F190057481",
    "created_at": "6/2/2019 9:05:50 PM",
    "derived": {
      "lat": 47.618123,
      "long": -122.347615,
      "timestamp": 1559534750000,
      "description": "Natural Gas Odor",
      "address": "415 Cedar St,Seattle,WA",
      "units": "L4",
      "entries": 1,
      "neighborhood": "Cascade/Eastlake",
      "neighborhoodGroup": "Lake Union"
    }
  },
  {
    "id_str": "F190057479",
    "created_at": "6/2/2019 9:03:20 PM",
    "derived": {
      "lat": 47.645565,
      "long": -122.306887,
      "timestamp": 1559534600000,
      "description": "Automatic Medical Alarm",
      "address": "1867 E Hamlin St,Seattle,WA",
      "units": "E22",
      "entries": 1,
      "neighborhood": "Montlake/Portage Bay",
      "neighborhoodGroup": "Northeast"
    }
  },
  {
    "id_str": "F190057477",
    "created_at": "6/2/2019 8:57:01 PM",
    "derived": {
      "lat": 47.618483,
      "long": -122.323976,
      "timestamp": 1559534221000,
      "description": "Medic Response",
      "address": "605 E Denny Way,Seattle,WA",
      "units": "A25 E25 M1",
      "entries": 2,
      "neighborhood": "Capitol Hill",
      "neighborhoodGroup": "East"
    }
  },
  {
    "id_str": "F190057476",
    "created_at": "6/2/2019 8:56:22 PM",
    "derived": {
      "lat": 47.719284,
      "long": -122.296115,
      "timestamp": 1559534182000,
      "description": "Aid Response",
      "address": "3018 Ne 125th St,Seattle,WA",
      "units": "E39",
      "entries": 1,
      "neighborhood": "Cedar Park/Meadowbrook",
      "neighborhoodGroup": "North"
    }
  },
  {
    "id_str": "F190057475",
    "created_at": "6/2/2019 8:53:41 PM",
    "derived": {
      "lat": 47.61377,
      "long": -122.334753,
      "timestamp": 1559534021000,
      "description": "Aid Response",
      "address": "737 Olive Way,Seattle,WA",
      "units": "A2",
      "entries": 1,
      "neighborhood": "Cascade/Eastlake",
      "neighborhoodGroup": "Lake Union"
    }
  },
  {
    "id_str": "F190057473",
    "created_at": "6/2/2019 8:51:24 PM",
    "derived": {
      "lat": 47.658656,
      "long": -122.349851,
      "timestamp": 1559533884000,
      "description": "Aid Response",
      "address": "711 N Motor Pl,Seattle,WA",
      "units": "E9",
      "entries": 1,
      "neighborhood": "Fremont",
      "neighborhoodGroup": "Lake Union"
    }
  },
  {
    "id_str": "F190057470",
    "created_at": "6/2/2019 8:42:42 PM",
    "derived": {
      "lat": 47.648765,
      "long": -122.396917,
      "timestamp": 1559533362000,
      "description": "Aid Response",
      "address": "3215 31st Av W,Seattle,WA",
      "units": "E20",
      "entries": 1,
      "neighborhood": "Magnolia",
      "neighborhoodGroup": "Magnolia/Queen Anne"
    }
  },
  {
    "id_str": "F190057469",
    "created_at": "6/2/2019 8:41:09 PM",
    "derived": {
      "lat": 47.616442,
      "long": -122.309884,
      "timestamp": 1559533269000,
      "description": "Auto Fire Alarm",
      "address": "1720 E Olive St,Seattle,WA",
      "units": "E25 L10",
      "entries": 1,
      "neighborhood": "Central Area/Squire Park",
      "neighborhoodGroup": "Central"
    }
  },
  {
    "id_str": "F190057468",
    "created_at": "6/2/2019 8:39:44 PM",
    "derived": {
      "lat": 47.568791,
      "long": -122.37075,
      "timestamp": 1559533184000,
      "description": "Aid Response",
      "address": "2970 Sw Avalon Way,Seattle,WA",
      "units": "E36",
      "entries": 1,
      "neighborhood": "North Delridge",
      "neighborhoodGroup": "Delridge Neighborhoods"
    }
  },
  {
    "id_str": "F190057467",
    "created_at": "6/2/2019 8:38:20 PM",
    "derived": {
      "lat": 47.615659,
      "long": -122.318166,
      "timestamp": 1559533100000,
      "description": "Aid Response",
      "address": "1635 11th Av,Seattle,WA",
      "units": "A25",
      "entries": 1,
      "neighborhood": "Capitol Hill",
      "neighborhoodGroup": "East"
    }
  },
  {
    "id_str": "F190057466",
    "created_at": "6/2/2019 8:19:45 PM",
    "derived": {
      "lat": 47.726496,
      "long": -122.286865,
      "timestamp": 1559531985000,
      "description": "Aid Response",
      "address": "13509 39th Av Ne,Seattle,WA",
      "units": "E39",
      "entries": 1,
      "neighborhood": "Cedar Park/Meadowbrook",
      "neighborhoodGroup": "North"
    }
  },
  {
    "id_str": "F190057463",
    "created_at": "6/2/2019 7:58:33 PM",
    "derived": {
      "lat": 47.617474,
      "long": -122.345512,
      "timestamp": 1559530713000,
      "description": "Aid Response",
      "address": "2522 5th Av,Seattle,WA",
      "units": "A2 A4",
      "entries": 3,
      "neighborhood": "Cascade/Eastlake",
      "neighborhoodGroup": "Lake Union"
    }
  },
  {
    "id_str": "F190057462",
    "created_at": "6/2/2019 7:57:44 PM",
    "derived": {
      "lat": 47.571408,
      "long": -122.291001,
      "timestamp": 1559530664000,
      "description": "Medic Response",
      "address": "3621 33rd Av S,Seattle,WA",
      "units": "E13 E30 M28",
      "entries": 3,
      "neighborhood": "Columbia City",
      "neighborhoodGroup": "Southeast"
    }
  },
  {
    "id_str": "F190057461",
    "created_at": "6/2/2019 7:57:13 PM",
    "derived": {
      "lat": 47.665061,
      "long": -122.40471,
      "timestamp": 1559530633000,
      "description": "Aid Response",
      "address": "3642 W Lawton St,Seattle,WA",
      "units": "E41",
      "entries": 1,
      "neighborhood": "Magnolia",
      "neighborhoodGroup": "Magnolia/Queen Anne"
    }
  },
  {
    "id_str": "F190057460",
    "created_at": "6/2/2019 7:55:15 PM",
    "derived": {
      "lat": 47.644494,
      "long": -122.326988,
      "timestamp": 1559530515000,
      "description": "Aid Response",
      "address": "E Edgar St / Yale Av E,Seattle,WA",
      "units": "E22",
      "entries": 1,
      "neighborhood": "Montlake/Portage Bay",
      "neighborhoodGroup": "Northeast"
    }
  },
  {
    "id_str": "F190057458",
    "created_at": "6/2/2019 7:52:57 PM",
    "derived": {
      "lat": 47.692549,
      "long": -122.375453,
      "timestamp": 1559530377000,
      "description": "Aid Response",
      "address": "8720 Mary Av Nw,Seattle,WA",
      "units": "E35",
      "entries": 1,
      "neighborhood": "North Beach/Blue Ridge",
      "neighborhoodGroup": "Ballard"
    }
  },
  {
    "id_str": "F190057457",
    "created_at": "6/2/2019 7:51:04 PM",
    "derived": {
      "lat": 47.575875,
      "long": -122.294935,
      "timestamp": 1559530264000,
      "description": "Aid Response",
      "address": "2931 S Mount Baker Blvd,Seattle,WA",
      "units": "E30",
      "entries": 1,
      "neighborhood": "Mt. Baker/North Rainier",
      "neighborhoodGroup": "Southeast"
    }
  },
  {
    "id_str": "F190057456",
    "created_at": "6/2/2019 7:50:13 PM",
    "derived": {
      "lat": 47.614217,
      "long": -122.347937,
      "timestamp": 1559530213000,
      "description": "Auto Fire Alarm",
      "address": "2414 1st Av,Seattle,WA",
      "units": "E2 L4",
      "entries": 1,
      "neighborhood": "Belltown",
      "neighborhoodGroup": "Downtown"
    }
  },
  {
    "id_str": "F190057455",
    "created_at": "6/2/2019 7:45:40 PM",
    "derived": {
      "lat": 47.725631,
      "long": -122.328885,
      "timestamp": 1559529940000,
      "description": "Aid Response Yellow",
      "address": "13317 1st Av Ne,Seattle,WA",
      "units": "E24",
      "entries": 1,
      "neighborhood": "Haller Lake",
      "neighborhoodGroup": "Northwest"
    }
  },
  {
    "id_str": "F190057453",
    "created_at": "6/2/2019 7:43:33 PM",
    "derived": {
      "lat": 47.610301,
      "long": -122.327555,
      "timestamp": 1559529813000,
      "description": "Investigate Out Of Service",
      "address": "1000 Seneca St,Seattle,WA",
      "units": "E25",
      "entries": 1,
      "neighborhood": "First Hill",
      "neighborhoodGroup": "East"
    }
  },
  {
    "id_str": "F190057452",
    "created_at": "6/2/2019 7:37:40 PM",
    "derived": {
      "lat": 47.60975,
      "long": -122.337793,
      "timestamp": 1559529460000,
      "description": "Unk Odor",
      "address": "3rd Av / Pike St,Seattle,WA",
      "units": "E5",
      "entries": 1,
      "neighborhood": "Downtown Commercial Core",
      "neighborhoodGroup": "Downtown"
    }
  },
  {
    "id_str": "F190057451",
    "created_at": "6/2/2019 7:35:28 PM",
    "derived": {
      "lat": 47.610092,
      "long": -122.341969,
      "timestamp": 1559529328000,
      "description": "Medic Response",
      "address": "1919 Post Al,Seattle,WA",
      "units": "A4 M17",
      "entries": 1,
      "neighborhood": "Belltown",
      "neighborhoodGroup": "Downtown"
    }
  },
  {
    "id_str": "F190057449",
    "created_at": "6/2/2019 7:32:20 PM",
    "derived": {
      "lat": 47.641965,
      "long": -122.314916,
      "timestamp": 1559529140000,
      "description": "Rescue Elevator",
      "address": "2524 Boyer Av E,Seattle,WA",
      "units": "L9",
      "entries": 1,
      "neighborhood": "Montlake/Portage Bay",
      "neighborhoodGroup": "Northeast"
    }
  },
  {
    "id_str": "F190057450",
    "created_at": "6/2/2019 7:32:16 PM",
    "derived": {
      "lat": 47.569691,
      "long": -122.409743,
      "timestamp": 1559529136000,
      "description": "AFA4 - Auto Alarm 2 + 1 + 1",
      "address": "3859 Beach Dr Sw,Seattle,WA",
      "units": "B7 E36 E37 FIREBOAT L11",
      "entries": 1,
      "neighborhood": "Alki/Admiral",
      "neighborhoodGroup": "Southwest"
    }
  },
  {
    "id_str": "F190057448",
    "created_at": "6/2/2019 7:30:33 PM",
    "derived": {
      "lat": 47.577612,
      "long": -122.41069,
      "timestamp": 1559529033000,
      "description": "Investigate Out Of Service",
      "address": "3014 61st Av Sw,Seattle,WA",
      "units": "E32",
      "entries": 1,
      "neighborhood": "Alki/Admiral",
      "neighborhoodGroup": "Southwest"
    }
  },
  {
    "id_str": "F190057447",
    "created_at": "6/2/2019 7:29:31 PM",
    "derived": {
      "lat": 47.611109,
      "long": -122.327981,
      "timestamp": 1559528971000,
      "description": "Medic Response",
      "address": "1020 University St,Seattle,WA",
      "units": "A25 M10",
      "entries": 1,
      "neighborhood": "First Hill",
      "neighborhoodGroup": "East"
    }
  },
  {
    "id_str": "F190057446",
    "created_at": "6/2/2019 7:13:54 PM",
    "derived": {
      "lat": 47.602011,
      "long": -122.308962,
      "timestamp": 1559528034000,
      "description": "Medic Response",
      "address": "117 18th Av,Seattle,WA",
      "units": "E6 M1 M10",
      "entries": 2,
      "neighborhood": "Central Area/Squire Park",
      "neighborhoodGroup": "Central"
    }
  },
  {
    "id_str": "F190057443",
    "created_at": "6/2/2019 7:03:40 PM",
    "derived": {
      "lat": 47.718639,
      "long": -122.342232,
      "timestamp": 1559527420000,
      "description": "Aid Response",
      "address": "12200 Stone Av N,Seattle,WA",
      "units": "E24",
      "entries": 1,
      "neighborhood": "Haller Lake",
      "neighborhoodGroup": "Northwest"
    }
  },
  {
    "id_str": "F190057442",
    "created_at": "6/2/2019 7:03:07 PM",
    "derived": {
      "lat": 47.585042,
      "long": -122.381075,
      "timestamp": 1559527387000,
      "description": "Aid Response",
      "address": "2112 Arch Av Sw,Seattle,WA",
      "units": "E29",
      "entries": 1,
      "neighborhood": "Alki/Admiral",
      "neighborhoodGroup": "Southwest"
    }
  },
  {
    "id_str": "F190057440",
    "created_at": "6/2/2019 6:48:48 PM",
    "derived": {
      "lat": 47.661386,
      "long": -122.345734,
      "timestamp": 1559526528000,
      "description": "Aid Response",
      "address": "1006 N 45th St,Seattle,WA",
      "units": "E9",
      "entries": 1,
      "neighborhood": "Wallingford",
      "neighborhoodGroup": "Lake Union"
    }
  },
  {
    "id_str": "F190057439",
    "created_at": "6/2/2019 6:45:14 PM",
    "derived": {
      "lat": 47.616989,
      "long": -122.330811,
      "timestamp": 1559526314000,
      "description": "Aid Response Yellow",
      "address": "1820 Minor Av,Seattle,WA",
      "units": "A4",
      "entries": 1,
      "neighborhood": "Cascade/Eastlake",
      "neighborhoodGroup": "Lake Union"
    }
  },
  {
    "id_str": "F190057438",
    "created_at": "6/2/2019 6:43:56 PM",
    "derived": {
      "lat": 47.571344,
      "long": -122.362192,
      "timestamp": 1559526236000,
      "description": "Aid Response",
      "address": "Chelan Av Sw / Sw Spokane St,Seattle,WA",
      "units": "E36",
      "entries": 1,
      "neighborhood": "North Delridge",
      "neighborhoodGroup": "Delridge Neighborhoods"
    }
  },
  {
    "id_str": "F190057435",
    "created_at": "6/2/2019 6:34:26 PM",
    "derived": {
      "lat": 47.600194,
      "long": -122.330541,
      "timestamp": 1559525666000,
      "description": "Aid Response",
      "address": "318 2nd Av Et S,Seattle,WA",
      "units": "A10",
      "entries": 1,
      "neighborhood": "Pioneer Square/International District",
      "neighborhoodGroup": "Downtown"
    }
  },
  {
    "id_str": "F190057432",
    "created_at": "6/2/2019 6:33:03 PM",
    "derived": {
      "lat": 47.602348,
      "long": -122.337148,
      "timestamp": 1559525583000,
      "description": "Aid Response",
      "address": "801 Alaskan Way,Seattle,WA",
      "units": "E5",
      "entries": 1,
      "neighborhood": "Downtown Commercial Core",
      "neighborhoodGroup": "Downtown"
    }
  },
  {
    "id_str": "F190057431",
    "created_at": "6/2/2019 6:32:50 PM",
    "derived": {
      "lat": 47.577302,
      "long": -122.335127,
      "timestamp": 1559525570000,
      "description": "Aid Response",
      "address": "2959 Utah Av S,Seattle,WA",
      "units": "A14",
      "entries": 1,
      "neighborhood": "Duwamish/SODO",
      "neighborhoodGroup": "Greater Duwamish"
    }
  },
  {
    "id_str": "F190057430",
    "created_at": "6/2/2019 6:25:07 PM",
    "derived": {
      "lat": 47.726864,
      "long": -122.348004,
      "timestamp": 1559525107000,
      "description": "Aid Response",
      "address": "751 N 135th St,Seattle,WA",
      "units": "E24",
      "entries": 1,
      "neighborhood": "Broadview/Bitter Lake",
      "neighborhoodGroup": "Northwest"
    }
  },
  {
    "id_str": "F190057429",
    "created_at": "6/2/2019 6:23:59 PM",
    "derived": {
      "lat": 47.605911,
      "long": -122.340413,
      "timestamp": 1559525039000,
      "description": "Aid Response",
      "address": "1301 Alaskan Way,Seattle,WA",
      "units": "A5",
      "entries": 1,
      "neighborhood": "Downtown Commercial Core",
      "neighborhoodGroup": "Downtown"
    }
  },
  {
    "id_str": "F190057428",
    "created_at": "6/2/2019 6:19:48 PM",
    "derived": {
      "lat": 47.506583,
      "long": -122.270133,
      "timestamp": 1559524788000,
      "description": "Aid Response Yellow",
      "address": "10500 51st Av S,Seattle,WA",
      "units": "E33",
      "entries": 1
    }
  },
  {
    "id_str": "F190057427",
    "created_at": "6/2/2019 6:19:31 PM",
    "derived": {
      "lat": 47.696045,
      "long": -122.3608,
      "timestamp": 1559524771000,
      "description": "Medic Response",
      "address": "309 Nw 92nd St,Seattle,WA",
      "units": "E35 M31",
      "entries": 2,
      "neighborhood": "Greenwood/Phinney Ridge",
      "neighborhoodGroup": "Northwest"
    }
  },
  {
    "id_str": "F190057422",
    "created_at": "6/2/2019 6:09:46 PM",
    "derived": {
      "lat": 47.602348,
      "long": -122.337148,
      "timestamp": 1559524186000,
      "description": "Aid Response",
      "address": "801 Alaskan Way,Seattle,WA",
      "units": "E5",
      "entries": 1,
      "neighborhood": "Downtown Commercial Core",
      "neighborhoodGroup": "Downtown"
    }
  },
  {
    "id_str": "F190057421",
    "created_at": "6/2/2019 6:08:33 PM",
    "derived": {
      "lat": 47.521411,
      "long": -122.269997,
      "timestamp": 1559524113000,
      "description": "Aid Response",
      "address": "Rainier Av S / S Fisher Pl,Seattle,WA",
      "units": "E28",
      "entries": 1,
      "neighborhood": "Rainier Beach",
      "neighborhoodGroup": "Southeast"
    }
  },
  {
    "id_str": "F190057417",
    "created_at": "6/2/2019 6:04:51 PM",
    "derived": {
      "lat": 47.514163,
      "long": -122.27004,
      "timestamp": 1559523891000,
      "description": "Aid Response",
      "address": "9703 51st Av S,Seattle,WA",
      "units": "E33",
      "entries": 1,
      "neighborhood": "Rainier Beach",
      "neighborhoodGroup": "Southeast"
    }
  },
  {
    "id_str": "F190057415",
    "created_at": "6/2/2019 6:01:48 PM",
    "derived": {
      "lat": 47.623281,
      "long": -122.358026,
      "timestamp": 1559523708000,
      "description": "Aid Response",
      "address": "1st Av W / W Republican St,Seattle,WA",
      "units": "A2",
      "entries": 1,
      "neighborhood": "Queen Anne",
      "neighborhoodGroup": "Magnolia/Queen Anne"
    }
  },
  {
    "id_str": "F190057413",
    "created_at": "6/2/2019 6:01:00 PM",
    "derived": {
      "lat": 47.520451,
      "long": -122.336003,
      "timestamp": 1559523660000,
      "description": "Automatic Medical Alarm",
      "address": "9240 2nd Av Sw,Seattle,WA",
      "units": "E26",
      "entries": 1
    }
  },
  {
    "id_str": "F190057414",
    "created_at": "6/2/2019 6:00:33 PM",
    "derived": {
      "lat": 47.651361,
      "long": -122.345986,
      "timestamp": 1559523633000,
      "description": "Rescue Lock In/Out",
      "address": "3661 Whitman Av N,Seattle,WA",
      "units": "E9",
      "entries": 1,
      "neighborhood": "Fremont",
      "neighborhoodGroup": "Lake Union"
    }
  },
  {
    "id_str": "F190057412",
    "created_at": "6/2/2019 5:59:22 PM",
    "derived": {
      "lat": 47.616989,
      "long": -122.330811,
      "timestamp": 1559523562000,
      "description": "Aid Response Yellow",
      "address": "1820 Minor Av,Seattle,WA",
      "units": "A4",
      "entries": 1,
      "neighborhood": "Cascade/Eastlake",
      "neighborhoodGroup": "Lake Union"
    }
  },
  {
    "id_str": "F190057411",
    "created_at": "6/2/2019 5:58:54 PM",
    "derived": {
      "lat": 47.611679,
      "long": -122.315437,
      "timestamp": 1559523534000,
      "description": "Alarm Bell",
      "address": "1128 13th Av,Seattle,WA",
      "units": "E25 L10",
      "entries": 1,
      "neighborhood": "First Hill",
      "neighborhoodGroup": "East"
    }
  },
  {
    "id_str": "F190057409",
    "created_at": "6/2/2019 5:51:35 PM",
    "derived": {
      "lat": 47.582626,
      "long": -122.300345,
      "timestamp": 1559523095000,
      "description": "Aid Response",
      "address": "2336 25th Av S,Seattle,WA",
      "units": "E30",
      "entries": 1,
      "neighborhood": "Mt. Baker/North Rainier",
      "neighborhoodGroup": "Southeast"
    }
  },
  {
    "id_str": "F190057407",
    "created_at": "6/2/2019 5:45:16 PM",
    "derived": {
      "lat": 47.561926,
      "long": -122.376204,
      "timestamp": 1559522716000,
      "description": "Aid Response Yellow",
      "address": "4611 35th Av Sw,Seattle,WA",
      "units": "E32",
      "entries": 1,
      "neighborhood": "North Delridge",
      "neighborhoodGroup": "Delridge Neighborhoods"
    }
  },
  {
    "id_str": "F190057405",
    "created_at": "6/2/2019 5:38:58 PM",
    "derived": {
      "lat": 47.616446,
      "long": -122.311456,
      "timestamp": 1559522338000,
      "description": "1RED 1 Unit",
      "address": "1600 E Olive St,Seattle,WA",
      "units": "E25",
      "entries": 1,
      "neighborhood": "Central Area/Squire Park",
      "neighborhoodGroup": "Central"
    }
  },
  {
    "id_str": "F190057404",
    "created_at": "6/2/2019 5:35:18 PM",
    "derived": {
      "lat": 47.550123,
      "long": -122.365579,
      "timestamp": 1559522118000,
      "description": "Illegal Burn",
      "address": "26th Av Sw / Sw Juneau St,Seattle,WA",
      "units": "E11",
      "entries": 1,
      "neighborhood": "High Point",
      "neighborhoodGroup": "Delridge Neighborhoods"
    }
  },
  {
    "id_str": "F190057402",
    "created_at": "6/2/2019 5:33:17 PM",
    "derived": {
      "lat": 47.61122,
      "long": -122.337562,
      "timestamp": 1559521997000,
      "description": "Aid Response",
      "address": "401 Pine St,Seattle,WA",
      "units": "A4",
      "entries": 1,
      "neighborhood": "Downtown Commercial Core",
      "neighborhoodGroup": "Downtown"
    }
  },
  {
    "id_str": "F190057400",
    "created_at": "6/2/2019 5:25:40 PM",
    "derived": {
      "lat": 47.602172,
      "long": -122.330863,
      "timestamp": 1559521540000,
      "description": "Aid Response",
      "address": "517 3rd Av,Seattle,WA",
      "units": "A10",
      "entries": 1,
      "neighborhood": "Downtown Commercial Core",
      "neighborhoodGroup": "Downtown"
    }
  },
  {
    "id_str": "F190057399",
    "created_at": "6/2/2019 5:25:19 PM",
    "derived": {
      "lat": 47.525196,
      "long": -122.386847,
      "timestamp": 1559521519000,
      "description": "Aid Response Yellow",
      "address": "8717 Fauntlee Crest Sw,Seattle,WA",
      "units": "E37",
      "entries": 1,
      "neighborhood": "Fauntleroy/Seaview",
      "neighborhoodGroup": "Southwest"
    }
  },
  {
    "id_str": "F190057398",
    "created_at": "6/2/2019 5:21:25 PM",
    "derived": {
      "lat": 47.591312,
      "long": -122.312698,
      "timestamp": 1559521285000,
      "description": "Aid Response",
      "address": "1324 16th Av S,Seattle,WA",
      "units": "E13",
      "entries": 1,
      "neighborhood": "North Beacon Hill/Jefferson Park",
      "neighborhoodGroup": "Greater Duwamish"
    }
  },
  {
    "id_str": "F190057396",
    "created_at": "6/2/2019 5:20:04 PM",
    "derived": {
      "lat": 47.708706,
      "long": -122.352811,
      "timestamp": 1559521204000,
      "description": "MVI - Motor Vehicle Incident",
      "address": "Dayton Av N / N 110th St,Seattle,WA",
      "units": "E31",
      "entries": 1,
      "neighborhood": "North Beach/Blue Ridge",
      "neighborhoodGroup": "Ballard"
    }
  },
  {
    "id_str": "F190057394",
    "created_at": "6/2/2019 5:15:41 PM",
    "derived": {
      "lat": 47.630904,
      "long": -122.312516,
      "timestamp": 1559520941000,
      "description": "Aid Response",
      "address": "1247 15th Av E,Seattle,WA",
      "units": "A25 E25",
      "entries": 2,
      "neighborhood": "Miller Park",
      "neighborhoodGroup": "East"
    }
  },
  {
    "id_str": "F190057393",
    "created_at": "6/2/2019 5:14:29 PM",
    "derived": {
      "lat": 47.603479,
      "long": -122.32285,
      "timestamp": 1559520869000,
      "description": "Auto Fire Alarm",
      "address": "310 9th Av,Seattle,WA",
      "units": "E10 L1",
      "entries": 1,
      "neighborhood": "First Hill",
      "neighborhoodGroup": "East"
    }
  },
  {
    "id_str": "F190057392",
    "created_at": "6/2/2019 5:12:03 PM",
    "derived": {
      "lat": 47.668703,
      "long": -122.30062,
      "timestamp": 1559520723000,
      "description": "4RED - 2 + 1 + 1",
      "address": "5531 25th Av Ne,Seattle,WA",
      "units": "B6 E16 E38 L9",
      "entries": 1,
      "neighborhood": "Ravenna/Bryant",
      "neighborhoodGroup": "Northeast"
    }
  },
  {
    "id_str": "F190057391",
    "created_at": "6/2/2019 5:06:20 PM",
    "derived": {
      "lat": 47.519128,
      "long": -122.365903,
      "timestamp": 1559520380000,
      "description": "Aid Response",
      "address": "9407 26th Av Sw,Seattle,WA",
      "units": "E11",
      "entries": 1,
      "neighborhood": "Roxhill/Westwood",
      "neighborhoodGroup": "Delridge Neighborhoods"
    }
  },
  {
    "id_str": "F190057390",
    "created_at": "6/2/2019 5:02:30 PM",
    "derived": {
      "lat": 47.66167,
      "long": -122.319564,
      "timestamp": 1559520150000,
      "description": "Aid Response",
      "address": "4540 8th Av Ne,Seattle,WA",
      "units": "E17",
      "entries": 1,
      "neighborhood": "Wallingford",
      "neighborhoodGroup": "Lake Union"
    }
  },
  {
    "id_str": "F190057388",
    "created_at": "6/2/2019 5:00:00 PM",
    "derived": {
      "lat": 47.69057,
      "long": -122.344522,
      "timestamp": 1559520000000,
      "description": "Aid Response",
      "address": "8502 Aurora Av N,Seattle,WA",
      "units": "E21",
      "entries": 1,
      "neighborhood": "Licton Springs",
      "neighborhoodGroup": "Northwest"
    }
  }
]