[
  {
    "id_str": "F190053924",
    "created_at": "5/27/2019 4:59:03 PM",
    "derived": {
      "lat": 47.613063,
      "long": -122.340033,
      "timestamp": 1559001543000,
      "description": "Aid Response",
      "address": "4th Av / Virginia St,Seattle,WA",
      "entries": 1,
      "neighborhood": "Cascade/Eastlake",
      "neighborhoodGroup": "Lake Union",
      "unitCount": 1,
      "severity": 0,
      "units": "A2"
    }
  },
  {
    "id_str": "F190053923",
    "created_at": "5/27/2019 4:58:23 PM",
    "derived": {
      "lat": 47.625969,
      "long": -122.334344,
      "timestamp": 1559001503000,
      "description": "Aid Response Yellow",
      "address": "800 Fairview Av N,Seattle,WA",
      "entries": 1,
      "neighborhood": "Cascade/Eastlake",
      "neighborhoodGroup": "Lake Union",
      "unitCount": 1,
      "severity": 0,
      "units": "A4"
    }
  },
  {
    "id_str": "F190053922",
    "created_at": "5/27/2019 4:57:36 PM",
    "derived": {
      "lat": 47.575576,
      "long": -122.334203,
      "timestamp": 1559001456000,
      "description": "Aid Response",
      "address": "1st Av S / S Hanford St,Seattle,WA",
      "entries": 1,
      "neighborhood": "Duwamish/SODO",
      "neighborhoodGroup": "Greater Duwamish",
      "unitCount": 1,
      "severity": 0,
      "units": "A14"
    }
  },
  {
    "id_str": "F190053921",
    "created_at": "5/27/2019 4:56:01 PM",
    "derived": {
      "lat": 47.650685,
      "long": -122.374895,
      "timestamp": 1559001361000,
      "description": "Aid Response",
      "address": "3438 14th Av W,Seattle,WA",
      "entries": 1,
      "neighborhood": "Queen Anne",
      "neighborhoodGroup": "Magnolia/Queen Anne",
      "unitCount": 1,
      "severity": 0,
      "units": "E20"
    }
  },
  {
    "id_str": "F190053920",
    "created_at": "5/27/2019 4:55:32 PM",
    "derived": {
      "lat": 47.72343,
      "long": -122.348164,
      "timestamp": 1559001332000,
      "description": "Auto Fire Alarm",
      "address": "13030 Linden Av N,Seattle,WA",
      "entries": 1,
      "neighborhood": "Broadview/Bitter Lake",
      "neighborhoodGroup": "Northwest",
      "unitCount": 2,
      "severity": 0,
      "units": "E31 L8"
    }
  },
  {
    "id_str": "F190053919",
    "created_at": "5/27/2019 4:55:19 PM",
    "derived": {
      "lat": 47.602985,
      "long": -122.328535,
      "timestamp": 1559001319000,
      "description": "Medic Response",
      "address": "500 5th Av,Seattle,WA",
      "entries": 3,
      "neighborhood": "First Hill",
      "neighborhoodGroup": "East",
      "unitCount": 3,
      "severity": 0,
      "units": "A10 E10 M1"
    }
  },
  {
    "id_str": "F190053918",
    "created_at": "5/27/2019 4:53:33 PM",
    "derived": {
      "lat": 47.603237,
      "long": -122.337944,
      "timestamp": 1559001213000,
      "description": "Aid Response",
      "address": "925 ALASKAN WAY,Seattle,WA",
      "entries": 1,
      "neighborhood": "Downtown Commercial Core",
      "neighborhoodGroup": "Downtown",
      "unitCount": 1,
      "severity": 0,
      "units": "E5"
    }
  },
  {
    "id_str": "F190053917",
    "created_at": "5/27/2019 4:52:19 PM",
    "derived": {
      "lat": 47.626322,
      "long": -122.348863,
      "timestamp": 1559001139000,
      "description": "Rescue Elevator",
      "address": "805 4th Av N,Seattle,WA",
      "entries": 1,
      "neighborhood": "Queen Anne",
      "neighborhoodGroup": "Magnolia/Queen Anne",
      "unitCount": 1,
      "severity": 0,
      "units": "L6"
    }
  },
  {
    "id_str": "F190053915",
    "created_at": "5/27/2019 4:51:22 PM",
    "derived": {
      "lat": 47.726854,
      "long": -122.337217,
      "timestamp": 1559001082000,
      "description": "Auto Fire Alarm",
      "address": "1819 N 135th St,Seattle,WA",
      "entries": 1,
      "neighborhood": "Haller Lake",
      "neighborhoodGroup": "Northwest",
      "unitCount": 2,
      "severity": 0,
      "units": "E24 L9"
    }
  },
  {
    "id_str": "F190053914",
    "created_at": "5/27/2019 4:50:12 PM",
    "derived": {
      "lat": 47.66288,
      "long": -122.353974,
      "timestamp": 1559001012000,
      "description": "Aid Response",
      "address": "4700 Phinney Av N,Seattle,WA",
      "entries": 1,
      "neighborhood": "Fremont",
      "neighborhoodGroup": "Lake Union",
      "unitCount": 1,
      "severity": 0,
      "units": "E21"
    }
  },
  {
    "id_str": "F190053913",
    "created_at": "5/27/2019 4:50:11 PM",
    "derived": {
      "lat": 47.715942,
      "long": -122.312561,
      "timestamp": 1559001011000,
      "description": "Auto Fire Alarm",
      "address": "12026 15th Av Ne,Seattle,WA",
      "entries": 1,
      "neighborhood": "Olympic Hills/Victory Heights",
      "neighborhoodGroup": "North",
      "unitCount": 2,
      "severity": 0,
      "units": "E39 L5"
    }
  },
  {
    "id_str": "F190053911",
    "created_at": "5/27/2019 4:45:42 PM",
    "derived": {
      "lat": 47.585083,
      "long": -122.318596,
      "timestamp": 1559000742000,
      "description": "Aid Response",
      "address": "11th Av S / Beacon Av S,Seattle,WA",
      "entries": 1,
      "neighborhood": "Duwamish/SODO",
      "neighborhoodGroup": "Greater Duwamish",
      "unitCount": 1,
      "severity": 0,
      "units": "A10"
    }
  },
  {
    "id_str": "F190053910",
    "created_at": "5/27/2019 4:45:24 PM",
    "derived": {
      "lat": 47.646749,
      "long": -122.351057,
      "timestamp": 1559000724000,
      "description": "MVI - Motor Vehicle Incident",
      "address": "318 Nickerson St,Seattle,WA",
      "entries": 1,
      "neighborhood": "Queen Anne",
      "neighborhoodGroup": "Magnolia/Queen Anne",
      "unitCount": 1,
      "severity": 0,
      "units": "E9"
    }
  },
  {
    "id_str": "F190053909",
    "created_at": "5/27/2019 4:42:51 PM",
    "derived": {
      "lat": 47.67454,
      "long": -122.368987,
      "timestamp": 1559000571000,
      "description": "Medic Response",
      "address": "920 Nw 63rd St,Seattle,WA",
      "entries": 1,
      "neighborhood": "Whittier Heights",
      "neighborhoodGroup": "Ballard",
      "unitCount": 2,
      "severity": 0,
      "units": "E18 M18"
    }
  },
  {
    "id_str": "F190053908",
    "created_at": "5/27/2019 4:40:42 PM",
    "derived": {
      "lat": 47.599184,
      "long": -122.319627,
      "timestamp": 1559000442000,
      "description": "Aid Response",
      "address": "1001 S Jackson St,Seattle,WA",
      "entries": 1,
      "neighborhood": "Pioneer Square/International District",
      "neighborhoodGroup": "Downtown",
      "unitCount": 1,
      "severity": 0,
      "units": "A5"
    }
  },
  {
    "id_str": "F190053907",
    "created_at": "5/27/2019 4:36:45 PM",
    "derived": {
      "lat": 47.540654,
      "long": -122.286239,
      "timestamp": 1559000205000,
      "description": "Aid Response",
      "address": "6900 37th Av S,Seattle,WA",
      "entries": 1,
      "neighborhood": "South Beacon Hill/NewHolly",
      "neighborhoodGroup": "Greater Duwamish",
      "unitCount": 1,
      "severity": 0,
      "units": "E30"
    }
  },
  {
    "id_str": "F190053906",
    "created_at": "5/27/2019 4:35:48 PM",
    "derived": {
      "lat": 47.536598,
      "long": -122.279378,
      "timestamp": 1559000148000,
      "description": "Medic Response",
      "address": "7349 43rd Av S,Seattle,WA",
      "entries": 1,
      "neighborhood": "Columbia City",
      "neighborhoodGroup": "Southeast",
      "unitCount": 2,
      "severity": 0,
      "units": "E28 M28"
    }
  },
  {
    "id_str": "F190053905",
    "created_at": "5/27/2019 4:29:56 PM",
    "derived": {
      "lat": 47.599968,
      "long": -122.328965,
      "timestamp": 1558999796000,
      "description": "Aid Response",
      "address": "308 4th Av S,Seattle,WA",
      "entries": 1,
      "neighborhood": "Pioneer Square/International District",
      "neighborhoodGroup": "Downtown",
      "unitCount": 1,
      "severity": 0,
      "units": "A5"
    }
  },
  {
    "id_str": "F190053902",
    "created_at": "5/27/2019 4:21:37 PM",
    "derived": {
      "lat": 47.666712,
      "long": -122.313047,
      "timestamp": 1558999297000,
      "description": "Aid Response",
      "address": "5240 University Way Ne,Seattle,WA",
      "entries": 1,
      "neighborhood": "University District",
      "neighborhoodGroup": "Northeast",
      "unitCount": 1,
      "severity": 0,
      "units": "E17"
    }
  },
  {
    "id_str": "F190053901",
    "created_at": "5/27/2019 4:21:22 PM",
    "derived": {
      "lat": 47.626721,
      "long": -122.35812,
      "timestamp": 1558999282000,
      "description": "Aid Response",
      "address": "110 W Olympic Pl,Seattle,WA",
      "entries": 1,
      "neighborhood": "Queen Anne",
      "neighborhoodGroup": "Magnolia/Queen Anne",
      "unitCount": 1,
      "severity": 0,
      "units": "E8"
    }
  },
  {
    "id_str": "F190053898",
    "created_at": "5/27/2019 4:15:07 PM",
    "derived": {
      "lat": 47.574938,
      "long": -122.306284,
      "timestamp": 1558998907000,
      "description": "Medic Response",
      "address": "3214 20th Av S,Seattle,WA",
      "entries": 2,
      "neighborhood": "North Beacon Hill/Jefferson Park",
      "neighborhoodGroup": "Greater Duwamish",
      "unitCount": 2,
      "severity": 0,
      "units": "E13 M1"
    }
  },
  {
    "id_str": "F190053897",
    "created_at": "5/27/2019 4:13:28 PM",
    "derived": {
      "lat": 47.650966,
      "long": -122.347397,
      "timestamp": 1558998808000,
      "description": "Aid Response",
      "address": "Troll Av N / N 36th St,Seattle,WA",
      "entries": 1,
      "neighborhood": "Fremont",
      "neighborhoodGroup": "Lake Union",
      "unitCount": 1,
      "severity": 0,
      "units": "E9"
    }
  },
  {
    "id_str": "F190053896",
    "created_at": "5/27/2019 4:13:12 PM",
    "derived": {
      "lat": 47.571408,
      "long": -122.291001,
      "timestamp": 1558998792000,
      "description": "Aid Response",
      "address": "3621 33rd Av S,Seattle,WA",
      "entries": 1,
      "neighborhood": "Columbia City",
      "neighborhoodGroup": "Southeast",
      "unitCount": 1,
      "severity": 0,
      "units": "E30"
    }
  },
  {
    "id_str": "F190053895",
    "created_at": "5/27/2019 4:13:09 PM",
    "derived": {
      "lat": 47.610278,
      "long": -122.339812,
      "timestamp": 1558998789000,
      "description": "Aid Response",
      "address": "2nd Av / Pine St,Seattle,WA",
      "entries": 1,
      "neighborhood": "Downtown Commercial Core",
      "neighborhoodGroup": "Downtown",
      "unitCount": 1,
      "severity": 0,
      "units": "A2"
    }
  },
  {
    "id_str": "F190053889",
    "created_at": "5/27/2019 4:02:24 PM",
    "derived": {
      "lat": 47.60883,
      "long": -122.33999,
      "timestamp": 1558998144000,
      "description": "Aid Response",
      "address": "102 Pike St,Seattle,WA",
      "entries": 1,
      "neighborhood": "Downtown Commercial Core",
      "neighborhoodGroup": "Downtown",
      "unitCount": 1,
      "severity": 0,
      "units": "A4"
    }
  },
  {
    "id_str": "F190053888",
    "created_at": "5/27/2019 3:58:56 PM",
    "derived": {
      "lat": 47.613247,
      "long": -122.327187,
      "timestamp": 1558997936000,
      "description": "Aid Response",
      "address": "1431 Minor Av,Seattle,WA",
      "entries": 1,
      "neighborhood": "Capitol Hill",
      "neighborhoodGroup": "East",
      "unitCount": 1,
      "severity": 0,
      "units": "A25"
    }
  },
  {
    "id_str": "F190053887",
    "created_at": "5/27/2019 3:55:29 PM",
    "derived": {
      "lat": 47.599187,
      "long": -122.317225,
      "timestamp": 1558997729000,
      "description": "Investigate Out Of Service",
      "address": "12th Av S / S Jackson St,Seattle,WA",
      "entries": 1,
      "neighborhood": "Pioneer Square/International District",
      "neighborhoodGroup": "Downtown",
      "unitCount": 1,
      "severity": 0,
      "units": "E10"
    }
  },
  {
    "id_str": "F190053885",
    "created_at": "5/27/2019 3:47:22 PM",
    "derived": {
      "lat": 47.600885,
      "long": -122.334925,
      "timestamp": 1558997242000,
      "description": "Aid Response",
      "address": "77 S Washington St,Seattle,WA",
      "entries": 1,
      "neighborhood": "Pioneer Square/International District",
      "neighborhoodGroup": "Downtown",
      "unitCount": 1,
      "severity": 0,
      "units": "A5"
    }
  },
  {
    "id_str": "F190053884",
    "created_at": "5/27/2019 3:44:49 PM",
    "derived": {
      "lat": 47.533388,
      "long": -122.276337,
      "timestamp": 1558997089000,
      "description": "Aid Response",
      "address": "4513 S Holden St,Seattle,WA",
      "entries": 1,
      "neighborhood": "Columbia City",
      "neighborhoodGroup": "Southeast",
      "unitCount": 1,
      "severity": 0,
      "units": "E28"
    }
  },
  {
    "id_str": "F190053883",
    "created_at": "5/27/2019 3:36:42 PM",
    "derived": {
      "lat": 47.599968,
      "long": -122.328965,
      "timestamp": 1558996602000,
      "description": "Aid Response",
      "address": "308 4th Av S,Seattle,WA",
      "entries": 1,
      "neighborhood": "Pioneer Square/International District",
      "neighborhoodGroup": "Downtown",
      "unitCount": 1,
      "severity": 0,
      "units": "A10"
    }
  },
  {
    "id_str": "F190053881",
    "created_at": "5/27/2019 3:30:00 PM",
    "derived": {
      "lat": 47.523237,
      "long": -122.264551,
      "timestamp": 1558996200000,
      "description": "Aid Response",
      "address": "9002 SEWARD PARK AV S,Seattle,WA",
      "entries": 1,
      "neighborhood": "Rainier Beach",
      "neighborhoodGroup": "Southeast",
      "unitCount": 1,
      "severity": 0,
      "units": "E33"
    }
  },
  {
    "id_str": "F190053880",
    "created_at": "5/27/2019 3:29:29 PM",
    "derived": {
      "lat": 47.562019,
      "long": -122.323047,
      "timestamp": 1558996169000,
      "description": "Medic Response",
      "address": "Airport Way S / S Snoqualmie St,Seattle,WA",
      "entries": 2,
      "neighborhood": "Duwamish/SODO",
      "neighborhoodGroup": "Greater Duwamish",
      "unitCount": 2,
      "severity": 0,
      "units": "E27 M10"
    }
  },
  {
    "id_str": "F190053879",
    "created_at": "5/27/2019 3:26:07 PM",
    "derived": {
      "lat": 47.603781,
      "long": -122.338424,
      "timestamp": 1558995967000,
      "description": "Aid Response",
      "address": "1001 Alaskan Way,Seattle,WA",
      "entries": 1,
      "neighborhood": "Downtown Commercial Core",
      "neighborhoodGroup": "Downtown",
      "unitCount": 1,
      "severity": 0,
      "units": "E5"
    }
  },
  {
    "id_str": "F190053878",
    "created_at": "5/27/2019 3:23:34 PM",
    "derived": {
      "lat": 47.579471,
      "long": -122.312377,
      "timestamp": 1558995814000,
      "description": "Aid Response Yellow",
      "address": "2700 Beacon Av S,Seattle,WA",
      "entries": 1,
      "neighborhood": "North Beacon Hill/Jefferson Park",
      "neighborhoodGroup": "Greater Duwamish",
      "unitCount": 1,
      "severity": 0,
      "units": "E13"
    }
  },
  {
    "id_str": "F190053875",
    "created_at": "5/27/2019 3:21:26 PM",
    "derived": {
      "lat": 47.614821,
      "long": -122.333167,
      "timestamp": 1558995686000,
      "description": "Aid Response",
      "address": "9th Av / Howell St,Seattle,WA",
      "entries": 2,
      "neighborhood": "Cascade/Eastlake",
      "neighborhoodGroup": "Lake Union",
      "unitCount": 2,
      "severity": 0,
      "units": "A2 A4"
    }
  },
  {
    "id_str": "F190053873",
    "created_at": "5/27/2019 3:13:26 PM",
    "derived": {
      "lat": 47.549998,
      "long": -122.383094,
      "timestamp": 1558995206000,
      "description": "Investigate Out Of Service",
      "address": "5907 40th Av Sw,Seattle,WA",
      "entries": 1,
      "neighborhood": "Fauntleroy/Seaview",
      "neighborhoodGroup": "Southwest",
      "unitCount": 1,
      "severity": 0,
      "units": "E32"
    }
  },
  {
    "id_str": "F190053872",
    "created_at": "5/27/2019 3:13:18 PM",
    "derived": {
      "lat": 47.70684,
      "long": -122.332461,
      "timestamp": 1558995198000,
      "description": "Medic Response",
      "address": "2150 N 107th St,Seattle,WA",
      "entries": 2,
      "neighborhood": "Northgate/Maple Leaf",
      "neighborhoodGroup": "North",
      "unitCount": 3,
      "severity": 0,
      "units": "A31 E31 M18"
    }
  },
  {
    "id_str": "F190053874",
    "created_at": "5/27/2019 3:13:02 PM",
    "derived": {
      "lat": 47.569608,
      "long": -122.290486,
      "timestamp": 1558995182000,
      "description": "Advised Incident",
      "address": "3820 Rainier Av S,Seattle,WA",
      "entries": 2,
      "neighborhood": "Columbia City",
      "neighborhoodGroup": "Southeast",
      "unitCount": 2,
      "severity": 0,
      "units": "E30 M28"
    }
  },
  {
    "id_str": "F190053871",
    "created_at": "5/27/2019 3:04:33 PM",
    "derived": {
      "lat": 47.619877,
      "long": -122.331698,
      "timestamp": 1558994673000,
      "description": "Aid Response",
      "address": "219 Pontius Av N,Seattle,WA",
      "entries": 1,
      "neighborhood": "Cascade/Eastlake",
      "neighborhoodGroup": "Lake Union",
      "unitCount": 1,
      "severity": 0,
      "units": "A4"
    }
  },
  {
    "id_str": "F190053870",
    "created_at": "5/27/2019 3:02:33 PM",
    "derived": {
      "lat": 47.564579,
      "long": -122.363318,
      "timestamp": 1558994553000,
      "description": "Medic Response",
      "address": "4408 Delridge Way Sw,Seattle,WA",
      "entries": 1,
      "neighborhood": "North Delridge",
      "neighborhoodGroup": "Delridge Neighborhoods",
      "unitCount": 2,
      "severity": 0,
      "units": "E36 M32"
    }
  },
  {
    "id_str": "F190053869",
    "created_at": "5/27/2019 2:53:41 PM",
    "derived": {
      "lat": 47.66707,
      "long": -122.301946,
      "timestamp": 1558994021000,
      "description": "Aid Response",
      "address": "5300 24th Av Ne,Seattle,WA",
      "entries": 1,
      "neighborhood": "Ravenna/Bryant",
      "neighborhoodGroup": "Northeast",
      "unitCount": 1,
      "severity": 0,
      "units": "E16"
    }
  },
  {
    "id_str": "F190053868",
    "created_at": "5/27/2019 2:45:21 PM",
    "derived": {
      "lat": 47.670541,
      "long": -122.308249,
      "timestamp": 1558993521000,
      "description": "Medic Response",
      "address": "1816 Ne Ravenna Blvd,Seattle,WA",
      "entries": 1,
      "neighborhood": "University District",
      "neighborhoodGroup": "Northeast",
      "unitCount": 2,
      "severity": 0,
      "units": "E17 M31"
    }
  },
  {
    "id_str": "F190053865",
    "created_at": "5/27/2019 2:38:01 PM",
    "derived": {
      "lat": 47.676042,
      "long": -122.278918,
      "timestamp": 1558993081000,
      "description": "Aid Response Yellow",
      "address": "6543 46th Av Ne,Seattle,WA",
      "entries": 1,
      "neighborhood": "Wedgwood/View Ridge",
      "neighborhoodGroup": "Northeast",
      "unitCount": 1,
      "severity": 0,
      "units": "E40"
    }
  },
  {
    "id_str": "F190053864",
    "created_at": "5/27/2019 2:26:12 PM",
    "derived": {
      "lat": 47.682124,
      "long": -122.263668,
      "timestamp": 1558992372000,
      "description": "Water Rescue Response",
      "address": "7400 Sand Point Way Ne,Seattle,WA",
      "entries": 4,
      "neighborhood": "Laurelhurst/Sand Point",
      "neighborhoodGroup": "Northeast",
      "unitCount": 11,
      "severity": 2,
      "units": "B6 CHAP6 FB1 FIREBOAT FRB5 L9 M17 M44 PIO PTRL4 SAFT2"
    }
  },
  {
    "id_str": "F190053863",
    "created_at": "5/27/2019 2:24:29 PM",
    "derived": {
      "lat": 47.682124,
      "long": -122.263668,
      "timestamp": 1558992269000,
      "description": "Water Rescue Recon Response",
      "address": "7400 Sand Point Way Ne,Seattle,WA",
      "entries": 1,
      "neighborhood": "Laurelhurst/Sand Point",
      "neighborhoodGroup": "Northeast",
      "unitCount": 6,
      "severity": 1,
      "units": "A14 B2 E2 E38 L1 R1"
    }
  },
  {
    "id_str": "F190053862",
    "created_at": "5/27/2019 2:19:22 PM",
    "derived": {
      "lat": 47.509699,
      "long": -122.258681,
      "timestamp": 1558991962000,
      "description": "Aid Response",
      "address": "6004 S Ryan St,Seattle,WA",
      "entries": 1,
      "neighborhood": "Rainier Beach",
      "neighborhoodGroup": "Southeast",
      "unitCount": 1,
      "severity": 0,
      "units": "E33"
    }
  },
  {
    "id_str": "F190053860",
    "created_at": "5/27/2019 2:18:28 PM",
    "derived": {
      "lat": 47.607996,
      "long": -122.295807,
      "timestamp": 1558991908000,
      "description": "Automatic Fire Alarm False",
      "address": "2805 E Cherry St,Seattle,WA",
      "entries": 1,
      "neighborhood": "Central Area/Squire Park",
      "neighborhoodGroup": "Central",
      "unitCount": 1,
      "severity": 0,
      "units": "L10"
    }
  },
  {
    "id_str": "F190053861",
    "created_at": "5/27/2019 2:18:01 PM",
    "derived": {
      "lat": 47.613511,
      "long": -122.281348,
      "timestamp": 1558991881000,
      "description": "Aid Response",
      "address": "1500 Lake Washington Blvd,Seattle,WA",
      "entries": 1,
      "neighborhood": "Madrona/Leschi",
      "neighborhoodGroup": "Central",
      "unitCount": 1,
      "severity": 0,
      "units": "E34"
    }
  },
  {
    "id_str": "F190053859",
    "created_at": "5/27/2019 2:06:34 PM",
    "derived": {
      "lat": 47.625121,
      "long": -122.334336,
      "timestamp": 1558991194000,
      "description": "Aid Response",
      "address": "700 Fairview Av N,Seattle,WA",
      "entries": 2,
      "neighborhood": "Cascade/Eastlake",
      "neighborhoodGroup": "Lake Union",
      "unitCount": 2,
      "severity": 0,
      "units": "A4 E2"
    }
  },
  {
    "id_str": "F190053850",
    "created_at": "5/27/2019 2:02:01 PM",
    "derived": {
      "lat": 47.635953,
      "long": -122.376138,
      "timestamp": 1558990921000,
      "description": "Aid Response",
      "address": "15th Av W / W Howe St,Seattle,WA",
      "entries": 1,
      "neighborhood": "Interbay",
      "neighborhoodGroup": "Magnolia/Queen Anne",
      "unitCount": 1,
      "severity": 0,
      "units": "E20"
    }
  },
  {
    "id_str": "F190053851",
    "created_at": "5/27/2019 2:01:53 PM",
    "derived": {
      "lat": 47.595817,
      "long": -122.314084,
      "timestamp": 1558990913000,
      "description": "4RED - 2 + 1 + 1",
      "address": "CORWIN PL S / S DEARBORN ST,Seattle,WA",
      "entries": 4,
      "neighborhood": "North Beacon Hill/Jefferson Park",
      "neighborhoodGroup": "Greater Duwamish",
      "unitCount": 5,
      "severity": 1,
      "units": "B5 E5 E6 L3 MAR5"
    }
  },
  {
    "id_str": "F190053848",
    "created_at": "5/27/2019 1:59:25 PM",
    "derived": {
      "lat": 47.613308,
      "long": -122.342432,
      "timestamp": 1558990765000,
      "description": "Aid Response",
      "address": "2119 3rd Av,Seattle,WA",
      "entries": 3,
      "neighborhood": "Cascade/Eastlake",
      "neighborhoodGroup": "Lake Union",
      "unitCount": 2,
      "severity": 0,
      "units": "A2 A4"
    }
  },
  {
    "id_str": "F190053847",
    "created_at": "5/27/2019 1:59:22 PM",
    "derived": {
      "lat": 47.612995,
      "long": -122.301416,
      "timestamp": 1558990762000,
      "description": "Auto Fire Alarm",
      "address": "1405 24th Av,Seattle,WA",
      "entries": 1,
      "neighborhood": "Central Area/Squire Park",
      "neighborhoodGroup": "Central",
      "unitCount": 2,
      "severity": 0,
      "units": "E25 L10"
    }
  },
  {
    "id_str": "F190053845",
    "created_at": "5/27/2019 1:57:02 PM",
    "derived": {
      "lat": 47.569166,
      "long": -122.31343,
      "timestamp": 1558990622000,
      "description": "MVI - Motor Vehicle Incident",
      "address": "15th Av S / S Columbian Way,Seattle,WA",
      "entries": 2,
      "neighborhood": "North Beacon Hill/Jefferson Park",
      "neighborhoodGroup": "Greater Duwamish",
      "unitCount": 2,
      "severity": 0,
      "units": "E27 E30"
    }
  },
  {
    "id_str": "F190053844",
    "created_at": "5/27/2019 1:53:22 PM",
    "derived": {
      "lat": 47.701742,
      "long": -122.335029,
      "timestamp": 1558990402000,
      "description": "Aid Response",
      "address": "10049 College Way N,Seattle,WA",
      "entries": 1,
      "neighborhood": "Licton Springs",
      "neighborhoodGroup": "Northwest",
      "unitCount": 1,
      "severity": 0,
      "units": "A31"
    }
  },
  {
    "id_str": "F190053842",
    "created_at": "5/27/2019 1:50:15 PM",
    "derived": {
      "lat": 47.515607,
      "long": -122.376997,
      "timestamp": 1558990215000,
      "description": "1RED 1 Unit",
      "address": "3528 Sw 98th St,Seattle,WA",
      "entries": 1,
      "neighborhood": "Arbor Heights",
      "neighborhoodGroup": "Southwest",
      "unitCount": 1,
      "severity": 0,
      "units": "E37"
    }
  },
  {
    "id_str": "F190053840",
    "created_at": "5/27/2019 1:46:12 PM",
    "derived": {
      "lat": 47.690901,
      "long": -122.376806,
      "timestamp": 1558989972000,
      "description": "Aid Response",
      "address": "8532 15th Av Nw,Seattle,WA",
      "entries": 1,
      "neighborhood": "North Beach/Blue Ridge",
      "neighborhoodGroup": "Ballard",
      "unitCount": 1,
      "severity": 0,
      "units": "E35"
    }
  },
  {
    "id_str": "F190053839",
    "created_at": "5/27/2019 1:43:27 PM",
    "derived": {
      "lat": 47.600194,
      "long": -122.330541,
      "timestamp": 1558989807000,
      "description": "Aid Response",
      "address": "318 2nd Av Et S,Seattle,WA",
      "entries": 1,
      "neighborhood": "Pioneer Square/International District",
      "neighborhoodGroup": "Downtown",
      "unitCount": 1,
      "severity": 0,
      "units": "A5"
    }
  },
  {
    "id_str": "F190053838",
    "created_at": "5/27/2019 1:42:25 PM",
    "derived": {
      "lat": 47.675618,
      "long": -122.387584,
      "timestamp": 1558989745000,
      "description": "Aid Response",
      "address": "6450 24th Av Nw,Seattle,WA",
      "entries": 1,
      "neighborhood": "Sunset Hill/Loyal Heights",
      "neighborhoodGroup": "Ballard",
      "unitCount": 1,
      "severity": 0,
      "units": "L8"
    }
  },
  {
    "id_str": "F190053837",
    "created_at": "5/27/2019 1:36:24 PM",
    "derived": {
      "lat": 47.609638,
      "long": -122.341346,
      "timestamp": 1558989384000,
      "description": "Aid Response",
      "address": "86 Pine St,Seattle,WA",
      "entries": 1,
      "neighborhood": "Downtown Commercial Core",
      "neighborhoodGroup": "Downtown",
      "unitCount": 1,
      "severity": 0,
      "units": "A4"
    }
  },
  {
    "id_str": "F190053836",
    "created_at": "5/27/2019 1:31:51 PM",
    "derived": {
      "lat": 47.703266,
      "long": -122.333904,
      "timestamp": 1558989111000,
      "description": "Aid Response",
      "address": "10306 Meridian Av N,Seattle,WA",
      "entries": 1,
      "neighborhood": "Northgate/Maple Leaf",
      "neighborhoodGroup": "North",
      "unitCount": 1,
      "severity": 0,
      "units": "A31"
    }
  },
  {
    "id_str": "F190053835",
    "created_at": "5/27/2019 1:30:09 PM",
    "derived": {
      "lat": 47.573151,
      "long": -122.287748,
      "timestamp": 1558989009000,
      "description": "Automatic Fire Alarm Resd",
      "address": "3339 36th Av S,Seattle,WA",
      "entries": 1,
      "neighborhood": "Mt. Baker/North Rainier",
      "neighborhoodGroup": "Southeast",
      "unitCount": 1,
      "severity": 0,
      "units": "E30"
    }
  },
  {
    "id_str": "F190053833",
    "created_at": "5/27/2019 1:13:24 PM",
    "derived": {
      "lat": 47.602382,
      "long": -122.332338,
      "timestamp": 1558988004000,
      "description": "Aid Response",
      "address": "216 James St,Seattle,WA",
      "entries": 1,
      "neighborhood": "Downtown Commercial Core",
      "neighborhoodGroup": "Downtown",
      "unitCount": 1,
      "severity": 0,
      "units": "A10"
    }
  },
  {
    "id_str": "F190053832",
    "created_at": "5/27/2019 1:13:22 PM",
    "derived": {
      "lat": 47.591746,
      "long": -122.385215,
      "timestamp": 1558988002000,
      "description": "Aid Response",
      "address": "1326 42nd Av Sw,Seattle,WA",
      "entries": 1,
      "neighborhood": "Alki/Admiral",
      "neighborhoodGroup": "Southwest",
      "unitCount": 1,
      "severity": 0,
      "units": "E29"
    }
  },
  {
    "id_str": "F190053831",
    "created_at": "5/27/2019 1:07:49 PM",
    "derived": {
      "lat": 47.67317,
      "long": -122.387587,
      "timestamp": 1558987669000,
      "description": "Rescue Elevator",
      "address": "6110 24th Av Nw,Seattle,WA",
      "entries": 1,
      "neighborhood": "Sunset Hill/Loyal Heights",
      "neighborhoodGroup": "Ballard",
      "unitCount": 1,
      "severity": 0,
      "units": "L8"
    }
  },
  {
    "id_str": "F190053830",
    "created_at": "5/27/2019 1:02:55 PM",
    "derived": {
      "lat": 47.722899,
      "long": -122.293194,
      "timestamp": 1558987375000,
      "description": "Aid Response",
      "address": "13000 Lake City Way Ne,Seattle,WA",
      "entries": 1,
      "neighborhood": "Cedar Park/Meadowbrook",
      "neighborhoodGroup": "North",
      "unitCount": 1,
      "severity": 0,
      "units": "E40"
    }
  },
  {
    "id_str": "F190053828",
    "created_at": "5/27/2019 1:02:26 PM",
    "derived": {
      "lat": 47.72216,
      "long": -122.3046,
      "timestamp": 1558987346000,
      "description": "Medic Response",
      "address": "12824 23rd Av Ne,Seattle,WA",
      "entries": 1,
      "neighborhood": "Olympic Hills/Victory Heights",
      "neighborhoodGroup": "North",
      "unitCount": 2,
      "severity": 0,
      "units": "E39 M31"
    }
  },
  {
    "id_str": "F190053829",
    "created_at": "5/27/2019 1:02:17 PM",
    "derived": {
      "lat": 47.666363,
      "long": -122.284802,
      "timestamp": 1558987337000,
      "description": "Aid Response",
      "address": "5120 40th Av Ne,Seattle,WA",
      "entries": 1,
      "neighborhood": "Ravenna/Bryant",
      "neighborhoodGroup": "Northeast",
      "unitCount": 1,
      "severity": 0,
      "units": "E38"
    }
  },
  {
    "id_str": "F190053827",
    "created_at": "5/27/2019 1:01:20 PM",
    "derived": {
      "lat": 47.679478,
      "long": -122.322726,
      "timestamp": 1558987280000,
      "description": "Aid Response",
      "address": "505 Ne 70th St,Seattle,WA",
      "entries": 1,
      "neighborhood": "Green Lake",
      "neighborhoodGroup": "Northwest",
      "unitCount": 1,
      "severity": 0,
      "units": "E16"
    }
  },
  {
    "id_str": "F190053823",
    "created_at": "5/27/2019 12:22:56 PM",
    "derived": {
      "lat": 47.607817,
      "long": -122.331423,
      "timestamp": 1558984976000,
      "description": "Aid Response",
      "address": "1113 6th Av,Seattle,WA",
      "entries": 1,
      "neighborhood": "First Hill",
      "neighborhoodGroup": "East",
      "unitCount": 1,
      "severity": 0,
      "units": "E5"
    }
  },
  {
    "id_str": "F190053822",
    "created_at": "5/27/2019 12:21:39 PM",
    "derived": {
      "lat": 47.653255,
      "long": -122.358956,
      "timestamp": 1558984899000,
      "description": "Aid Response",
      "address": "Nw 36th St / Leary Way Nw,Seattle,WA",
      "entries": 1,
      "neighborhood": "Fremont",
      "neighborhoodGroup": "Lake Union",
      "unitCount": 1,
      "severity": 0,
      "units": "E9"
    }
  },
  {
    "id_str": "F190053820",
    "created_at": "5/27/2019 12:20:13 PM",
    "derived": {
      "lat": 47.623267,
      "long": -122.354109,
      "timestamp": 1558984813000,
      "description": "Medic Response",
      "address": "WARREN AV N / REPUBLICAN ST,Seattle,WA",
      "entries": 4,
      "neighborhood": "Queen Anne",
      "neighborhoodGroup": "Magnolia/Queen Anne",
      "unitCount": 4,
      "severity": 0,
      "units": "A2 A4 M1 M28"
    }
  },
  {
    "id_str": "F190053819",
    "created_at": "5/27/2019 12:18:51 PM",
    "derived": {
      "lat": 47.616338,
      "long": -122.326185,
      "timestamp": 1558984731000,
      "description": "Medic Response",
      "address": "E Olive St / Crawford Pl,Seattle,WA",
      "entries": 2,
      "neighborhood": "Capitol Hill",
      "neighborhoodGroup": "East",
      "unitCount": 2,
      "severity": 0,
      "units": "A25 M10"
    }
  },
  {
    "id_str": "F190053818",
    "created_at": "5/27/2019 12:13:54 PM",
    "derived": {
      "lat": 47.693957,
      "long": -122.309127,
      "timestamp": 1558984434000,
      "description": "Illegal Burn",
      "address": "1741 Ne 90th St,Seattle,WA",
      "entries": 1,
      "neighborhood": "Northgate/Maple Leaf",
      "neighborhoodGroup": "North",
      "unitCount": 1,
      "severity": 0,
      "units": "E40"
    }
  },
  {
    "id_str": "F190053816",
    "created_at": "5/27/2019 12:01:15 PM",
    "derived": {
      "lat": 47.643191,
      "long": -122.325887,
      "timestamp": 1558983675000,
      "description": "Aid Response",
      "address": "Eastlake Av E / E Roanoke St,Seattle,WA",
      "entries": 1,
      "neighborhood": "Montlake/Portage Bay",
      "neighborhoodGroup": "Northeast",
      "unitCount": 1,
      "severity": 0,
      "units": "E22"
    }
  },
  {
    "id_str": "F190053815",
    "created_at": "5/27/2019 11:56:39 AM",
    "derived": {
      "lat": 47.542238,
      "long": -122.272642,
      "timestamp": 1558983399000,
      "description": "Aid Response",
      "address": "6727 Rainier Av S,Seattle,WA",
      "entries": 1,
      "neighborhood": "Seward Park",
      "neighborhoodGroup": "Southeast",
      "unitCount": 1,
      "severity": 0,
      "units": "E28"
    }
  },
  {
    "id_str": "F190053813",
    "created_at": "5/27/2019 11:56:16 AM",
    "derived": {
      "lat": 47.66707,
      "long": -122.301946,
      "timestamp": 1558983376000,
      "description": "Aid Response",
      "address": "5300 24th Av Ne,Seattle,WA",
      "entries": 1,
      "neighborhood": "Ravenna/Bryant",
      "neighborhoodGroup": "Northeast",
      "unitCount": 1,
      "severity": 0,
      "units": "L9"
    }
  },
  {
    "id_str": "F190053811",
    "created_at": "5/27/2019 11:53:04 AM",
    "derived": {
      "lat": 47.602985,
      "long": -122.328535,
      "timestamp": 1558983184000,
      "description": "Aid Response",
      "address": "500 5th Av,Seattle,WA",
      "entries": 1,
      "neighborhood": "First Hill",
      "neighborhoodGroup": "East",
      "unitCount": 1,
      "severity": 0,
      "units": "A10"
    }
  },
  {
    "id_str": "F190053810",
    "created_at": "5/27/2019 11:52:20 AM",
    "derived": {
      "lat": 47.661281,
      "long": -122.274639,
      "timestamp": 1558983140000,
      "description": "Aid Response",
      "address": "4855 Ne 45th St,Seattle,WA",
      "entries": 1,
      "neighborhood": "Laurelhurst/Sand Point",
      "neighborhoodGroup": "Northeast",
      "unitCount": 1,
      "severity": 0,
      "units": "E38"
    }
  },
  {
    "id_str": "F190053809",
    "created_at": "5/27/2019 11:50:49 AM",
    "derived": {
      "lat": 47.618646,
      "long": -122.342401,
      "timestamp": 1558983049000,
      "description": "4RED - 2 + 1 + 1",
      "address": "109 Dexter Av N,Seattle,WA",
      "entries": 1,
      "neighborhood": "Cascade/Eastlake",
      "neighborhoodGroup": "Lake Union",
      "unitCount": 4,
      "severity": 0,
      "units": "B2 E2 E25 L4"
    }
  },
  {
    "id_str": "F190053807",
    "created_at": "5/27/2019 11:37:22 AM",
    "derived": {
      "lat": 47.561138,
      "long": -122.388131,
      "timestamp": 1558982242000,
      "description": "Investigate Out Of Service",
      "address": "44th Av Sw / Sw Alaska St,Seattle,WA",
      "entries": 1,
      "neighborhood": "West Seattle Junction/Genesee Hill",
      "neighborhoodGroup": "Southwest",
      "unitCount": 1,
      "severity": 0,
      "units": "E32"
    }
  },
  {
    "id_str": "F190053805",
    "created_at": "5/27/2019 11:33:34 AM",
    "derived": {
      "lat": 47.568736,
      "long": -122.322688,
      "timestamp": 1558982014000,
      "description": "Auto Fire Alarm",
      "address": "3924 Airport Way S,Seattle,WA",
      "entries": 2,
      "neighborhood": "Duwamish/SODO",
      "neighborhoodGroup": "Greater Duwamish",
      "unitCount": 3,
      "severity": 0,
      "units": "E13 L12 L3"
    }
  },
  {
    "id_str": "F190053804",
    "created_at": "5/27/2019 11:31:53 AM",
    "derived": {
      "lat": 47.611109,
      "long": -122.327981,
      "timestamp": 1558981913000,
      "description": "Aid Response",
      "address": "1020 University St,Seattle,WA",
      "entries": 2,
      "neighborhood": "First Hill",
      "neighborhoodGroup": "East",
      "unitCount": 2,
      "severity": 0,
      "units": "A4 L1"
    }
  },
  {
    "id_str": "F190053802",
    "created_at": "5/27/2019 11:30:49 AM",
    "derived": {
      "lat": 47.601601,
      "long": -122.302284,
      "timestamp": 1558981849000,
      "description": "Aid Response",
      "address": "113 23rd Av S,Seattle,WA",
      "entries": 2,
      "neighborhood": "Madrona/Leschi",
      "neighborhoodGroup": "Central",
      "unitCount": 2,
      "severity": 0,
      "units": "A10 A5"
    }
  },
  {
    "id_str": "F190053800",
    "created_at": "5/27/2019 11:16:31 AM",
    "derived": {
      "lat": 47.609015,
      "long": -122.330631,
      "timestamp": 1558980991000,
      "description": "Medic Response",
      "address": "698 SENECA ST,Seattle,WA",
      "entries": 1,
      "neighborhood": "First Hill",
      "neighborhoodGroup": "East",
      "unitCount": 2,
      "severity": 0,
      "units": "E25 M10"
    }
  },
  {
    "id_str": "F190053799",
    "created_at": "5/27/2019 11:13:32 AM",
    "derived": {
      "lat": 47.61842,
      "long": -122.30365,
      "timestamp": 1558980812000,
      "description": "Aid Response Yellow",
      "address": "2200 E Madison St,Seattle,WA",
      "entries": 1,
      "neighborhood": "Central Area/Squire Park",
      "neighborhoodGroup": "Central",
      "unitCount": 1,
      "severity": 0,
      "units": "A25"
    }
  },
  {
    "id_str": "F190053798",
    "created_at": "5/27/2019 11:12:49 AM",
    "derived": {
      "lat": 47.611543,
      "long": -122.330225,
      "timestamp": 1558980769000,
      "description": "Aid Response",
      "address": "9th Av / Union St,Seattle,WA",
      "entries": 1,
      "neighborhood": "First Hill",
      "neighborhoodGroup": "East",
      "unitCount": 1,
      "severity": 0,
      "units": "A4"
    }
  },
  {
    "id_str": "F190053794",
    "created_at": "5/27/2019 11:01:59 AM",
    "derived": {
      "lat": 47.699156,
      "long": -122.325251,
      "timestamp": 1558980119000,
      "description": "Medic Response",
      "address": "333 Ne 97th St,Seattle,WA",
      "entries": 1,
      "neighborhood": "Northgate/Maple Leaf",
      "neighborhoodGroup": "North",
      "unitCount": 2,
      "severity": 0,
      "units": "A31 M31"
    }
  },
  {
    "id_str": "F190053795",
    "created_at": "5/27/2019 11:01:08 AM",
    "derived": {
      "lat": 47.652482,
      "long": -122.303116,
      "timestamp": 1558980068000,
      "description": "Aid Response",
      "address": "3910 Montlake Blvd Ne,Seattle,WA",
      "entries": 2,
      "neighborhood": "University District",
      "neighborhoodGroup": "Northeast",
      "unitCount": 2,
      "severity": 0,
      "units": "E17 L9"
    }
  },
  {
    "id_str": "F190053793",
    "created_at": "5/27/2019 10:57:49 AM",
    "derived": {
      "lat": 47.533603,
      "long": -122.392673,
      "timestamp": 1558979869000,
      "description": "Automatic Fire Alarm Resd",
      "address": "7728 Fauntleroy Way Sw,Seattle,WA",
      "entries": 1,
      "neighborhood": "Fauntleroy/Seaview",
      "neighborhoodGroup": "Southwest",
      "unitCount": 1,
      "severity": 0,
      "units": "E37"
    }
  },
  {
    "id_str": "F190053792",
    "created_at": "5/27/2019 10:54:42 AM",
    "derived": {
      "lat": 47.618002,
      "long": -122.329182,
      "timestamp": 1558979682000,
      "description": "Automatic Medical Alarm",
      "address": "1811 Eastlake Av,Seattle,WA",
      "entries": 1,
      "neighborhood": "Cascade/Eastlake",
      "neighborhoodGroup": "Lake Union",
      "unitCount": 1,
      "severity": 0,
      "units": "A2"
    }
  },
  {
    "id_str": "F190053791",
    "created_at": "5/27/2019 10:53:11 AM",
    "derived": {
      "lat": 47.537839,
      "long": -122.294797,
      "timestamp": 1558979591000,
      "description": "Medic Response",
      "address": "7201 Beacon Av S,Seattle,WA",
      "entries": 1,
      "neighborhood": "South Beacon Hill/NewHolly",
      "neighborhoodGroup": "Greater Duwamish",
      "unitCount": 2,
      "severity": 0,
      "units": "L12 M28"
    }
  },
  {
    "id_str": "F190053790",
    "created_at": "5/27/2019 10:51:35 AM",
    "derived": {
      "lat": 47.531555,
      "long": -122.285907,
      "timestamp": 1558979495000,
      "description": "Aid Response",
      "address": "3701 S Kenyon St,Seattle,WA",
      "entries": 1,
      "neighborhood": "South Beacon Hill/NewHolly",
      "neighborhoodGroup": "Greater Duwamish",
      "unitCount": 1,
      "severity": 0,
      "units": "E28"
    }
  },
  {
    "id_str": "F190053789",
    "created_at": "5/27/2019 10:50:32 AM",
    "derived": {
      "lat": 47.618554,
      "long": -122.343368,
      "timestamp": 1558979432000,
      "description": "Aid Response",
      "address": "Denny Way / Borealis Av,Seattle,WA",
      "entries": 1,
      "neighborhood": "Cascade/Eastlake",
      "neighborhoodGroup": "Lake Union",
      "unitCount": 1,
      "severity": 0,
      "units": "A4"
    }
  },
  {
    "id_str": "F190053787",
    "created_at": "5/27/2019 10:40:38 AM",
    "derived": {
      "lat": 47.568893,
      "long": -122.407392,
      "timestamp": 1558978838000,
      "description": "Aid Response",
      "address": "3921 Boyd Pl Sw,Seattle,WA",
      "entries": 2,
      "neighborhood": "Alki/Admiral",
      "neighborhoodGroup": "Southwest",
      "unitCount": 2,
      "severity": 0,
      "units": "E29 L11"
    }
  },
  {
    "id_str": "F190053786",
    "created_at": "5/27/2019 10:32:58 AM",
    "derived": {
      "lat": 47.593232,
      "long": -122.334194,
      "timestamp": 1558978378000,
      "description": "Aid Response",
      "address": "1046 1st Av S,Seattle,WA",
      "entries": 1,
      "neighborhood": "Duwamish/SODO",
      "neighborhoodGroup": "Greater Duwamish",
      "unitCount": 1,
      "severity": 0,
      "units": "A10"
    }
  },
  {
    "id_str": "F190053784",
    "created_at": "5/27/2019 10:18:02 AM",
    "derived": {
      "lat": 47.571408,
      "long": -122.291001,
      "timestamp": 1558977482000,
      "description": "Aid Response Yellow",
      "address": "3621 33rd Av S,Seattle,WA",
      "entries": 1,
      "neighborhood": "Columbia City",
      "neighborhoodGroup": "Southeast",
      "unitCount": 1,
      "severity": 0,
      "units": "E30"
    }
  },
  {
    "id_str": "F190053783",
    "created_at": "5/27/2019 10:13:33 AM",
    "derived": {
      "lat": 47.618002,
      "long": -122.329182,
      "timestamp": 1558977213000,
      "description": "Aid Response",
      "address": "1811 Eastlake Av,Seattle,WA",
      "entries": 1,
      "neighborhood": "Cascade/Eastlake",
      "neighborhoodGroup": "Lake Union",
      "unitCount": 1,
      "severity": 0,
      "units": "A4"
    }
  },
  {
    "id_str": "F190053782",
    "created_at": "5/27/2019 10:08:39 AM",
    "derived": {
      "lat": 47.709488,
      "long": -122.323301,
      "timestamp": 1558976919000,
      "description": "Aid Response",
      "address": "11030 5th Av Ne,Seattle,WA",
      "entries": 1,
      "neighborhood": "Northgate/Maple Leaf",
      "neighborhoodGroup": "North",
      "unitCount": 1,
      "severity": 0,
      "units": "A31"
    }
  },
  {
    "id_str": "F190053780",
    "created_at": "5/27/2019 10:07:26 AM",
    "derived": {
      "lat": 47.705096,
      "long": -122.344695,
      "timestamp": 1558976846000,
      "description": "Aid Response",
      "address": "10507 Aurora Av N,Seattle,WA",
      "entries": 2,
      "neighborhood": "Licton Springs",
      "neighborhoodGroup": "Northwest",
      "unitCount": 2,
      "severity": 0,
      "units": "E31 L5"
    }
  },
  {
    "id_str": "F190053778",
    "created_at": "5/27/2019 10:06:13 AM",
    "derived": {
      "lat": 47.614077,
      "long": -122.29136,
      "timestamp": 1558976773000,
      "description": "1RED 1 Unit",
      "address": "3202 E Pike St,Seattle,WA",
      "entries": 1,
      "neighborhood": "Madrona/Leschi",
      "neighborhoodGroup": "Central",
      "unitCount": 1,
      "severity": 0,
      "units": "E34"
    }
  },
  {
    "id_str": "F190053779",
    "created_at": "5/27/2019 10:06:04 AM",
    "derived": {
      "lat": 47.577076,
      "long": -122.329058,
      "timestamp": 1558976764000,
      "description": "Aid Response",
      "address": "2990 4th Av S,Seattle,WA",
      "entries": 1,
      "neighborhood": "Duwamish/SODO",
      "neighborhoodGroup": "Greater Duwamish",
      "unitCount": 1,
      "severity": 0,
      "units": "A2"
    }
  },
  {
    "id_str": "F190053777",
    "created_at": "5/27/2019 9:58:44 AM",
    "derived": {
      "lat": 47.594249,
      "long": -122.32905,
      "timestamp": 1558976324000,
      "description": "Aid Response",
      "address": "1010 4th Av S,Seattle,WA",
      "entries": 2,
      "neighborhood": "Duwamish/SODO",
      "neighborhoodGroup": "Greater Duwamish",
      "unitCount": 2,
      "severity": 0,
      "units": "E6 L3"
    }
  },
  {
    "id_str": "F190053772",
    "created_at": "5/27/2019 9:48:50 AM",
    "derived": {
      "lat": 47.60252,
      "long": -122.329645,
      "timestamp": 1558975730000,
      "description": "Aid Response",
      "address": "4th Av / Jefferson St,Seattle,WA",
      "entries": 1,
      "neighborhood": "Downtown Commercial Core",
      "neighborhoodGroup": "Downtown",
      "unitCount": 1,
      "severity": 0,
      "units": "A10"
    }
  },
  {
    "id_str": "F190053771",
    "created_at": "5/27/2019 9:48:17 AM",
    "derived": {
      "lat": 47.5798,
      "long": -122.335125,
      "timestamp": 1558975697000,
      "description": "Medic Response",
      "address": "2701 Utah Av S,Seattle,WA",
      "entries": 4,
      "neighborhood": "Duwamish/SODO",
      "neighborhoodGroup": "Greater Duwamish",
      "unitCount": 3,
      "severity": 0,
      "units": "A5 M1 M32"
    }
  },
  {
    "id_str": "F190053770",
    "created_at": "5/27/2019 9:44:17 AM",
    "derived": {
      "lat": 47.598287,
      "long": -122.330894,
      "timestamp": 1558975457000,
      "description": "Vault Fire (Electrical)",
      "address": "255 S KING ST,Seattle,WA",
      "entries": 5,
      "neighborhood": "Duwamish/SODO",
      "neighborhoodGroup": "Greater Duwamish",
      "unitCount": 21,
      "severity": 2,
      "units": "A2 A25 AIR10 B2 B5 DEP1 E10 E13 E25 E30 E36 L1 L10 L6 M1 M10 M32 P25 SAFT2 STAF10 VAULT1"
    }
  },
  {
    "id_str": "F190053769",
    "created_at": "5/27/2019 9:37:57 AM",
    "derived": {
      "lat": 47.609851,
      "long": -122.337886,
      "timestamp": 1558975077000,
      "description": "Rescue Elevator",
      "address": "1511 3rd Av,Seattle,WA",
      "entries": 1,
      "neighborhood": "Downtown Commercial Core",
      "neighborhoodGroup": "Downtown",
      "unitCount": 1,
      "severity": 0,
      "units": "L4"
    }
  },
  {
    "id_str": "F190053768",
    "created_at": "5/27/2019 9:36:46 AM",
    "derived": {
      "lat": 47.723436,
      "long": -122.355547,
      "timestamp": 1558975006000,
      "description": "Aid Response",
      "address": "13023 Greenwood Av N,Seattle,WA",
      "entries": 1,
      "neighborhood": "Broadview/Bitter Lake",
      "neighborhoodGroup": "Northwest",
      "unitCount": 1,
      "severity": 0,
      "units": "E24"
    }
  },
  {
    "id_str": "F190053767",
    "created_at": "5/27/2019 9:35:03 AM",
    "derived": {
      "lat": 47.608051,
      "long": -122.339309,
      "timestamp": 1558974903000,
      "description": "Aid Response",
      "address": "1423 1st Av,Seattle,WA",
      "entries": 1,
      "neighborhood": "Downtown Commercial Core",
      "neighborhoodGroup": "Downtown",
      "unitCount": 1,
      "severity": 0,
      "units": "E5"
    }
  },
  {
    "id_str": "F190053765",
    "created_at": "5/27/2019 9:12:30 AM",
    "derived": {
      "lat": 47.613977,
      "long": -122.343441,
      "timestamp": 1558973550000,
      "description": "Aid Response",
      "address": "306 Blanchard St,Seattle,WA",
      "entries": 1,
      "neighborhood": "Cascade/Eastlake",
      "neighborhoodGroup": "Lake Union",
      "unitCount": 1,
      "severity": 0,
      "units": "A4"
    }
  },
  {
    "id_str": "F190053764",
    "created_at": "5/27/2019 9:06:14 AM",
    "derived": {
      "lat": 47.608292,
      "long": -122.337995,
      "timestamp": 1558973174000,
      "description": "Medic Response",
      "address": "1401 2nd Av,Seattle,WA",
      "entries": 1,
      "neighborhood": "Downtown Commercial Core",
      "neighborhoodGroup": "Downtown",
      "unitCount": 2,
      "severity": 0,
      "units": "E5 M10"
    }
  },
  {
    "id_str": "F190053763",
    "created_at": "5/27/2019 9:00:18 AM",
    "derived": {
      "lat": 47.588027,
      "long": -122.386277,
      "timestamp": 1558972818000,
      "description": "Medic Response",
      "address": "1703 California Av Sw,Seattle,WA",
      "entries": 2,
      "neighborhood": "Alki/Admiral",
      "neighborhoodGroup": "Southwest",
      "unitCount": 2,
      "severity": 0,
      "units": "E29 M32"
    }
  },
  {
    "id_str": "F190053760",
    "created_at": "5/27/2019 8:46:30 AM",
    "derived": {
      "lat": 47.691631,
      "long": -122.284936,
      "timestamp": 1558971990000,
      "description": "Aid Response",
      "address": "4033 Ne 87th St,Seattle,WA",
      "entries": 1,
      "neighborhood": "Wedgwood/View Ridge",
      "neighborhoodGroup": "Northeast",
      "unitCount": 1,
      "severity": 0,
      "units": "E40"
    }
  },
  {
    "id_str": "F190053758",
    "created_at": "5/27/2019 8:42:57 AM",
    "derived": {
      "lat": 47.61682,
      "long": -122.307201,
      "timestamp": 1558971777000,
      "description": "Automatic Medical Alarm",
      "address": "1916 E Madison St,Seattle,WA",
      "entries": 1,
      "neighborhood": "Central Area/Squire Park",
      "neighborhoodGroup": "Central",
      "unitCount": 1,
      "severity": 0,
      "units": "A25"
    }
  },
  {
    "id_str": "F190053757",
    "created_at": "5/27/2019 8:26:39 AM",
    "derived": {
      "lat": 47.614127,
      "long": -122.334009,
      "timestamp": 1558970799000,
      "description": "Aid Response",
      "address": "808 HOWELL ST,Seattle,WA",
      "entries": 1,
      "neighborhood": "Cascade/Eastlake",
      "neighborhoodGroup": "Lake Union",
      "unitCount": 1,
      "severity": 0,
      "units": "A2"
    }
  },
  {
    "id_str": "F190053756",
    "created_at": "5/27/2019 8:17:49 AM",
    "derived": {
      "lat": 47.608584,
      "long": -122.340581,
      "timestamp": 1558970269000,
      "description": "Aid Response",
      "address": "85 Pike St,Seattle,WA",
      "entries": 1,
      "neighborhood": "Downtown Commercial Core",
      "neighborhoodGroup": "Downtown",
      "unitCount": 1,
      "severity": 0,
      "units": "E5"
    }
  },
  {
    "id_str": "F190053755",
    "created_at": "5/27/2019 8:15:52 AM",
    "derived": {
      "lat": 47.599968,
      "long": -122.328965,
      "timestamp": 1558970152000,
      "description": "Medic Response",
      "address": "308 4th Av S,Seattle,WA",
      "entries": 3,
      "neighborhood": "Pioneer Square/International District",
      "neighborhoodGroup": "Downtown",
      "unitCount": 3,
      "severity": 0,
      "units": "A10 E31 M1"
    }
  },
  {
    "id_str": "F190053753",
    "created_at": "5/27/2019 8:03:18 AM",
    "derived": {
      "lat": 47.562472,
      "long": -122.385455,
      "timestamp": 1558969398000,
      "description": "Aid Response",
      "address": "4545 42nd Av Sw,Seattle,WA",
      "entries": 2,
      "neighborhood": "West Seattle Junction/Genesee Hill",
      "neighborhoodGroup": "Southwest",
      "unitCount": 2,
      "severity": 0,
      "units": "E32 L11"
    }
  },
  {
    "id_str": "F190053750",
    "created_at": "5/27/2019 7:45:11 AM",
    "derived": {
      "lat": 47.719638,
      "long": -122.355539,
      "timestamp": 1558968311000,
      "description": "Food On The Stove",
      "address": "12505 Greenwood Av N,Seattle,WA",
      "entries": 1,
      "neighborhood": "Broadview/Bitter Lake",
      "neighborhoodGroup": "Northwest",
      "unitCount": 1,
      "severity": 0,
      "units": "E24"
    }
  },
  {
    "id_str": "F190053749",
    "created_at": "5/27/2019 7:45:06 AM",
    "derived": {
      "lat": 47.614798,
      "long": -122.348918,
      "timestamp": 1558968306000,
      "description": "Automatic Medical Alarm",
      "address": "2519 1st Av,Seattle,WA",
      "entries": 1,
      "neighborhood": "Belltown",
      "neighborhoodGroup": "Downtown",
      "unitCount": 1,
      "severity": 0,
      "units": "A2"
    }
  },
  {
    "id_str": "F190053747",
    "created_at": "5/27/2019 7:28:29 AM",
    "derived": {
      "lat": 47.589965,
      "long": -122.3376,
      "timestamp": 1558967309000,
      "description": "Aid Response",
      "address": "1561 Alaskan Way S,Seattle,WA",
      "entries": 1,
      "neighborhood": "Duwamish/SODO",
      "neighborhoodGroup": "Greater Duwamish",
      "unitCount": 1,
      "severity": 0,
      "units": "A5"
    }
  },
  {
    "id_str": "F190053745",
    "created_at": "5/27/2019 7:23:10 AM",
    "derived": {
      "lat": 47.668557,
      "long": -122.28214,
      "timestamp": 1558966990000,
      "description": "Aid Response",
      "address": "4300 Ne 55th St,Seattle,WA",
      "entries": 1,
      "neighborhood": "Ravenna/Bryant",
      "neighborhoodGroup": "Northeast",
      "unitCount": 1,
      "severity": 0,
      "units": "E38"
    }
  },
  {
    "id_str": "F190053743",
    "created_at": "5/27/2019 7:21:50 AM",
    "derived": {
      "lat": 47.701329,
      "long": -122.323684,
      "timestamp": 1558966910000,
      "description": "Aid Response",
      "address": "450 Ne 100th St,Seattle,WA",
      "entries": 1,
      "neighborhood": "Northgate/Maple Leaf",
      "neighborhoodGroup": "North",
      "unitCount": 1,
      "severity": 0,
      "units": "E31"
    }
  },
  {
    "id_str": "F190053744",
    "created_at": "5/27/2019 7:21:16 AM",
    "derived": {
      "lat": 47.592782,
      "long": -122.322769,
      "timestamp": 1558966876000,
      "description": "1RED 1 Unit",
      "address": "Airport Way S / S Royal Brougham Way,Seattle,WA",
      "entries": 1,
      "neighborhood": "Duwamish/SODO",
      "neighborhoodGroup": "Greater Duwamish",
      "unitCount": 1,
      "severity": 0,
      "units": "E10"
    }
  },
  {
    "id_str": "F190053740",
    "created_at": "5/27/2019 7:18:47 AM",
    "derived": {
      "lat": 47.588027,
      "long": -122.386277,
      "timestamp": 1558966727000,
      "description": "Aid Response",
      "address": "1703 California Av Sw,Seattle,WA",
      "entries": 1,
      "neighborhood": "Alki/Admiral",
      "neighborhoodGroup": "Southwest",
      "unitCount": 1,
      "severity": 0,
      "units": "E29"
    }
  },
  {
    "id_str": "F190053739",
    "created_at": "5/27/2019 7:15:52 AM",
    "derived": {
      "lat": 47.627061,
      "long": -122.311284,
      "timestamp": 1558966552000,
      "description": "Automatic Medical Alarm",
      "address": "922 16th Av E,Seattle,WA",
      "entries": 1,
      "neighborhood": "Miller Park",
      "neighborhoodGroup": "East",
      "unitCount": 1,
      "severity": 0,
      "units": "A25"
    }
  },
  {
    "id_str": "F190053738",
    "created_at": "5/27/2019 7:12:33 AM",
    "derived": {
      "lat": 47.602683,
      "long": -122.314886,
      "timestamp": 1558966353000,
      "description": "Trans to AMR",
      "address": "1305 E Fir St,Seattle,WA",
      "entries": 1,
      "neighborhood": "First Hill",
      "neighborhoodGroup": "East",
      "unitCount": 1,
      "severity": 0,
      "units": "A25"
    }
  },
  {
    "id_str": "F190053737",
    "created_at": "5/27/2019 6:56:26 AM",
    "derived": {
      "lat": 47.618497,
      "long": -122.327854,
      "timestamp": 1558965386000,
      "description": "4RED - 2 + 1 + 1",
      "address": "100 Melrose Av E,Seattle,WA",
      "entries": 1,
      "neighborhood": "Capitol Hill",
      "neighborhoodGroup": "East",
      "unitCount": 4,
      "severity": 0,
      "units": "B2 E2 E25 L10"
    }
  },
  {
    "id_str": "F190053736",
    "created_at": "5/27/2019 6:49:00 AM",
    "derived": {
      "lat": 47.671649,
      "long": -122.390237,
      "timestamp": 1558964940000,
      "description": "Aid Response Yellow",
      "address": "2608 Nw 59th St,Seattle,WA",
      "entries": 1,
      "neighborhood": "Sunset Hill/Loyal Heights",
      "neighborhoodGroup": "Ballard",
      "unitCount": 1,
      "severity": 0,
      "units": "E18"
    }
  },
  {
    "id_str": "F190053732",
    "created_at": "5/27/2019 6:37:08 AM",
    "derived": {
      "lat": 47.599199,
      "long": -122.335909,
      "timestamp": 1558964228000,
      "description": "Auto Fire Alarm",
      "address": "401 Alaskan Way S,Seattle,WA",
      "entries": 2,
      "neighborhood": "Duwamish/SODO",
      "neighborhoodGroup": "Greater Duwamish",
      "unitCount": 4,
      "severity": 0,
      "units": "E10 FB4 FIREBOAT L1"
    }
  },
  {
    "id_str": "F190053731",
    "created_at": "5/27/2019 6:27:29 AM",
    "derived": {
      "lat": 47.61015,
      "long": -122.333556,
      "timestamp": 1558963649000,
      "description": "Aid Response",
      "address": "1400 6th Av,Seattle,WA",
      "entries": 1,
      "neighborhood": "First Hill",
      "neighborhoodGroup": "East",
      "unitCount": 1,
      "severity": 0,
      "units": "A5"
    }
  },
  {
    "id_str": "F190053726",
    "created_at": "5/27/2019 5:27:12 AM",
    "derived": {
      "lat": 47.540654,
      "long": -122.286239,
      "timestamp": 1558960032000,
      "description": "Medic Response",
      "address": "6900 37th Av S,Seattle,WA",
      "entries": 1,
      "neighborhood": "South Beacon Hill/NewHolly",
      "neighborhoodGroup": "Greater Duwamish",
      "unitCount": 2,
      "severity": 0,
      "units": "E28 M28"
    }
  },
  {
    "id_str": "F190053725",
    "created_at": "5/27/2019 5:12:14 AM",
    "derived": {
      "lat": 47.560296,
      "long": -122.38416,
      "timestamp": 1558959134000,
      "description": "Aid Response Yellow",
      "address": "4744 41st Av Sw,Seattle,WA",
      "entries": 1,
      "neighborhood": "West Seattle Junction/Genesee Hill",
      "neighborhoodGroup": "Southwest",
      "unitCount": 1,
      "severity": 0,
      "units": "E32"
    }
  },
  {
    "id_str": "F190053722",
    "created_at": "5/27/2019 4:25:01 AM",
    "derived": {
      "lat": 47.599968,
      "long": -122.328965,
      "timestamp": 1558956301000,
      "description": "Aid Response",
      "address": "308 4th Av S,Seattle,WA",
      "entries": 1,
      "neighborhood": "Pioneer Square/International District",
      "neighborhoodGroup": "Downtown",
      "unitCount": 1,
      "severity": 0,
      "units": "A10"
    }
  },
  {
    "id_str": "F190053721",
    "created_at": "5/27/2019 4:19:57 AM",
    "derived": {
      "lat": 47.704379,
      "long": -122.358359,
      "timestamp": 1558955997000,
      "description": "Automatic Medical Alarm",
      "address": "101 N 104th St,Seattle,WA",
      "entries": 1,
      "neighborhood": "North Beach/Blue Ridge",
      "neighborhoodGroup": "Ballard",
      "unitCount": 1,
      "severity": 0,
      "units": "E35"
    }
  },
  {
    "id_str": "F190053718",
    "created_at": "5/27/2019 4:10:20 AM",
    "derived": {
      "lat": 47.72535,
      "long": -122.359597,
      "timestamp": 1558955420000,
      "description": "Medic Response",
      "address": "13247 2nd Av Nw,Seattle,WA",
      "entries": 1,
      "neighborhood": "Broadview/Bitter Lake",
      "neighborhoodGroup": "Northwest",
      "unitCount": 2,
      "severity": 0,
      "units": "E24 M31"
    }
  },
  {
    "id_str": "F190053717",
    "created_at": "5/27/2019 4:07:59 AM",
    "derived": {
      "lat": 47.561845,
      "long": -122.310824,
      "timestamp": 1558955279000,
      "description": "Medic Response",
      "address": "1660 S Columbian Way,Seattle,WA",
      "entries": 1,
      "neighborhood": "North Beacon Hill/Jefferson Park",
      "neighborhoodGroup": "Greater Duwamish",
      "unitCount": 2,
      "severity": 0,
      "units": "E13 M28"
    }
  },
  {
    "id_str": "F190053715",
    "created_at": "5/27/2019 3:46:10 AM",
    "derived": {
      "lat": 47.709488,
      "long": -122.323301,
      "timestamp": 1558953970000,
      "description": "Aid Response",
      "address": "11030 5th Av Ne,Seattle,WA",
      "entries": 1,
      "neighborhood": "Northgate/Maple Leaf",
      "neighborhoodGroup": "North",
      "unitCount": 1,
      "severity": 0,
      "units": "E31"
    }
  },
  {
    "id_str": "F190053714",
    "created_at": "5/27/2019 3:39:25 AM",
    "derived": {
      "lat": 47.690782,
      "long": -122.376806,
      "timestamp": 1558953565000,
      "description": "Aid Response",
      "address": "8519 15th Av Nw,Seattle,WA",
      "entries": 1,
      "neighborhood": "North Beach/Blue Ridge",
      "neighborhoodGroup": "Ballard",
      "unitCount": 1,
      "severity": 0,
      "units": "E35"
    }
  },
  {
    "id_str": "F190053711",
    "created_at": "5/27/2019 3:29:58 AM",
    "derived": {
      "lat": 47.687458,
      "long": -122.282196,
      "timestamp": 1558952998000,
      "description": "Medic Response",
      "address": "8039 43rd Av Ne,Seattle,WA",
      "entries": 1,
      "neighborhood": "Wedgwood/View Ridge",
      "neighborhoodGroup": "Northeast",
      "unitCount": 2,
      "severity": 0,
      "units": "E40 M17"
    }
  },
  {
    "id_str": "F190053710",
    "created_at": "5/27/2019 3:14:07 AM",
    "derived": {
      "lat": 47.612626,
      "long": -122.341277,
      "timestamp": 1558952047000,
      "description": "Medic Response",
      "address": "2030 3rd Av,Seattle,WA",
      "entries": 2,
      "neighborhood": "Cascade/Eastlake",
      "neighborhoodGroup": "Lake Union",
      "unitCount": 2,
      "severity": 0,
      "units": "A2 M10"
    }
  },
  {
    "id_str": "F190053708",
    "created_at": "5/27/2019 3:11:54 AM",
    "derived": {
      "lat": 47.561106,
      "long": -122.386778,
      "timestamp": 1558951914000,
      "description": "Rescue Elevator",
      "address": "4700 California Av Sw,Seattle,WA",
      "entries": 1,
      "neighborhood": "West Seattle Junction/Genesee Hill",
      "neighborhoodGroup": "Southwest",
      "unitCount": 1,
      "severity": 0,
      "units": "L11"
    }
  },
  {
    "id_str": "F190053706",
    "created_at": "5/27/2019 3:05:10 AM",
    "derived": {
      "lat": 47.601719,
      "long": -122.331984,
      "timestamp": 1558951510000,
      "description": "Rescue Extrication",
      "address": "2nd Av / Yesler Way,Seattle,WA",
      "entries": 1,
      "neighborhood": "Downtown Commercial Core",
      "neighborhoodGroup": "Downtown",
      "unitCount": 11,
      "severity": 2,
      "units": "A14 A5 B2 B5 E10 E5 L1 M1 M44 R1 SAFT2"
    }
  },
  {
    "id_str": "F190053703",
    "created_at": "5/27/2019 2:48:54 AM",
    "derived": {
      "lat": 47.539419,
      "long": -122.390816,
      "timestamp": 1558950534000,
      "description": "Aid Response Yellow",
      "address": "7125 Fauntleroy Way Sw,Seattle,WA",
      "entries": 1,
      "neighborhood": "Fauntleroy/Seaview",
      "neighborhoodGroup": "Southwest",
      "unitCount": 1,
      "severity": 0,
      "units": "E37"
    }
  },
  {
    "id_str": "F190053702",
    "created_at": "5/27/2019 2:48:40 AM",
    "derived": {
      "lat": 47.614085,
      "long": -122.319447,
      "timestamp": 1558950520000,
      "description": "Aid Response",
      "address": "10th Av / E Pike St,Seattle,WA",
      "entries": 1,
      "neighborhood": "Capitol Hill",
      "neighborhoodGroup": "East",
      "unitCount": 1,
      "severity": 0,
      "units": "A25"
    }
  },
  {
    "id_str": "F190053701",
    "created_at": "5/27/2019 2:29:53 AM",
    "derived": {
      "lat": 47.611563,
      "long": -122.316779,
      "timestamp": 1558949393000,
      "description": "Aid Response",
      "address": "1110 E Spring St,Seattle,WA",
      "entries": 1,
      "neighborhood": "First Hill",
      "neighborhoodGroup": "East",
      "unitCount": 1,
      "severity": 0,
      "units": "A25"
    }
  },
  {
    "id_str": "F190053700",
    "created_at": "5/27/2019 2:13:56 AM",
    "derived": {
      "lat": 47.607763,
      "long": -122.335976,
      "timestamp": 1558948436000,
      "description": "Medic Response",
      "address": "3RD AV / UNIVERSITY ST,Seattle,WA",
      "entries": 1,
      "neighborhood": "Downtown Commercial Core",
      "neighborhoodGroup": "Downtown",
      "unitCount": 2,
      "severity": 0,
      "units": "E5 M10"
    }
  },
  {
    "id_str": "F190053699",
    "created_at": "5/27/2019 2:12:55 AM",
    "derived": {
      "lat": 47.582547,
      "long": -122.399345,
      "timestamp": 1558948375000,
      "description": "Aid Response",
      "address": "2327 Hughes Av Sw,Seattle,WA",
      "entries": 1,
      "neighborhood": "West Seattle Junction/Genesee Hill",
      "neighborhoodGroup": "Southwest",
      "unitCount": 1,
      "severity": 0,
      "units": "E29"
    }
  },
  {
    "id_str": "F190053697",
    "created_at": "5/27/2019 2:04:33 AM",
    "derived": {
      "lat": 47.543687,
      "long": -122.329275,
      "timestamp": 1558947873000,
      "description": "Aid Response",
      "address": "6701 East Marginal Way S,Seattle,WA",
      "entries": 1,
      "neighborhood": "Georgetown",
      "neighborhoodGroup": "Greater Duwamish",
      "unitCount": 1,
      "severity": 0,
      "units": "E27"
    }
  },
  {
    "id_str": "F190053694",
    "created_at": "5/27/2019 1:46:31 AM",
    "derived": {
      "lat": 47.663106,
      "long": -122.315263,
      "timestamp": 1558946791000,
      "description": "Aid Response",
      "address": "12th Av Ne / Ne 47th St,Seattle,WA",
      "entries": 1,
      "neighborhood": "University District",
      "neighborhoodGroup": "Northeast",
      "unitCount": 1,
      "severity": 0,
      "units": "E17"
    }
  },
  {
    "id_str": "F190053693",
    "created_at": "5/27/2019 1:29:16 AM",
    "derived": {
      "lat": 47.649764,
      "long": -122.357657,
      "timestamp": 1558945756000,
      "description": "Aid Response",
      "address": "4 Nickerson St,Seattle,WA",
      "entries": 1,
      "neighborhood": "Queen Anne",
      "neighborhoodGroup": "Magnolia/Queen Anne",
      "unitCount": 1,
      "severity": 0,
      "units": "E9"
    }
  },
  {
    "id_str": "F190053692",
    "created_at": "5/27/2019 1:15:34 AM",
    "derived": {
      "lat": 47.60436,
      "long": -122.316781,
      "timestamp": 1558944934000,
      "description": "Rescue Elevator",
      "address": "301 12th Av,Seattle,WA",
      "entries": 1,
      "neighborhood": "First Hill",
      "neighborhoodGroup": "East",
      "unitCount": 1,
      "severity": 0,
      "units": "L10"
    }
  },
  {
    "id_str": "F190053691",
    "created_at": "5/27/2019 1:11:18 AM",
    "derived": {
      "lat": 47.614127,
      "long": -122.334009,
      "timestamp": 1558944678000,
      "description": "Aid Response",
      "address": "808 Howell St,Seattle,WA",
      "entries": 1,
      "neighborhood": "Cascade/Eastlake",
      "neighborhoodGroup": "Lake Union",
      "unitCount": 1,
      "severity": 0,
      "units": "L4"
    }
  },
  {
    "id_str": "F190053690",
    "created_at": "5/27/2019 1:01:48 AM",
    "derived": {
      "lat": 47.595741,
      "long": -122.325068,
      "timestamp": 1558944108000,
      "description": "Aid Response",
      "address": "811 Maynard Av S,Seattle,WA",
      "entries": 1,
      "neighborhood": "Duwamish/SODO",
      "neighborhoodGroup": "Greater Duwamish",
      "unitCount": 1,
      "severity": 0,
      "units": "A10"
    }
  },
  {
    "id_str": "F190053689",
    "created_at": "5/27/2019 12:59:13 AM",
    "derived": {
      "lat": 47.614127,
      "long": -122.334009,
      "timestamp": 1558943953000,
      "description": "Auto Fire Alarm",
      "address": "808 Howell St,Seattle,WA",
      "entries": 1,
      "neighborhood": "Cascade/Eastlake",
      "neighborhoodGroup": "Lake Union",
      "unitCount": 2,
      "severity": 0,
      "units": "E2 L4"
    }
  },
  {
    "id_str": "F190053688",
    "created_at": "5/27/2019 12:55:13 AM",
    "derived": {
      "lat": 47.660503,
      "long": -122.305506,
      "timestamp": 1558943713000,
      "description": "Aid Response",
      "address": "2100 Ne Whitman Ln,Seattle,WA",
      "entries": 1,
      "neighborhood": "University District",
      "neighborhoodGroup": "Northeast",
      "unitCount": 1,
      "severity": 0,
      "units": "E17"
    }
  },
  {
    "id_str": "F190053687",
    "created_at": "5/27/2019 12:50:20 AM",
    "derived": {
      "lat": 47.522765,
      "long": -122.331749,
      "timestamp": 1558943420000,
      "description": "Aid Response",
      "address": "9010 2nd Av S,Seattle,WA",
      "entries": 1,
      "neighborhood": "South Park",
      "neighborhoodGroup": "Greater Duwamish",
      "unitCount": 1,
      "severity": 0,
      "units": "E26"
    }
  },
  {
    "id_str": "F190053686",
    "created_at": "5/27/2019 12:40:41 AM",
    "derived": {
      "lat": 47.575048,
      "long": -122.296851,
      "timestamp": 1558942841000,
      "description": "Medic Response",
      "address": "S Hanford St / M L King Jr Way S,Seattle,WA",
      "entries": 2,
      "neighborhood": "North Beacon Hill/Jefferson Park",
      "neighborhoodGroup": "Greater Duwamish",
      "unitCount": 2,
      "severity": 0,
      "units": "E30 M28"
    }
  },
  {
    "id_str": "F190053685",
    "created_at": "5/27/2019 12:34:58 AM",
    "derived": {
      "lat": 47.613247,
      "long": -122.320767,
      "timestamp": 1558942498000,
      "description": "Aid Response",
      "address": "1426 Broadway,Seattle,WA",
      "entries": 1,
      "neighborhood": "Capitol Hill",
      "neighborhoodGroup": "East",
      "unitCount": 1,
      "severity": 0,
      "units": "A25"
    }
  },
  {
    "id_str": "F190053684",
    "created_at": "5/27/2019 12:18:10 AM",
    "derived": {
      "lat": 47.618576,
      "long": -122.348925,
      "timestamp": 1558941490000,
      "description": "Aid Response Yellow",
      "address": "4TH AV N / DENNY WAY,Seattle,WA",
      "entries": 1,
      "neighborhood": "Cascade/Eastlake",
      "neighborhoodGroup": "Lake Union",
      "unitCount": 1,
      "severity": 0,
      "units": "A2"
    }
  },
  {
    "id_str": "F190053682",
    "created_at": "5/27/2019 12:04:00 AM",
    "derived": {
      "lat": 47.624578,
      "long": -122.355404,
      "timestamp": 1558940640000,
      "description": "Aid Response",
      "address": "600 1st Av N,Seattle,WA",
      "entries": 1,
      "neighborhood": "Queen Anne",
      "neighborhoodGroup": "Magnolia/Queen Anne",
      "unitCount": 1,
      "severity": 0,
      "units": "E8"
    }
  },
  {
    "id_str": "F190053681",
    "created_at": "5/27/2019 12:03:35 AM",
    "derived": {
      "lat": 47.599261,
      "long": -122.305258,
      "timestamp": 1558940615000,
      "description": "Aid Response",
      "address": "2020 S Jackson St,Seattle,WA",
      "entries": 1,
      "neighborhood": "Judkins Park",
      "neighborhoodGroup": "Central",
      "unitCount": 1,
      "severity": 0,
      "units": "E6"
    }
  },
  {
    "id_str": "F190053678",
    "created_at": "5/27/2019 12:01:08 AM",
    "derived": {
      "lat": 47.617439,
      "long": -122.3395,
      "timestamp": 1558940468000,
      "description": "Aid Response",
      "address": "2224 8th Av,Seattle,WA",
      "entries": 1,
      "neighborhood": "Cascade/Eastlake",
      "neighborhoodGroup": "Lake Union",
      "unitCount": 1,
      "severity": 0,
      "units": "E2"
    }
  },
  {
    "id_str": "F190053676",
    "created_at": "5/26/2019 11:54:05 PM",
    "derived": {
      "lat": 47.621989,
      "long": -122.33374,
      "timestamp": 1558940045000,
      "description": "Aid Response",
      "address": "1170 Harrison St,Seattle,WA",
      "entries": 1,
      "neighborhood": "Cascade/Eastlake",
      "neighborhoodGroup": "Lake Union",
      "unitCount": 1,
      "severity": 0,
      "units": "A2"
    }
  },
  {
    "id_str": "F190053675",
    "created_at": "5/26/2019 11:48:57 PM",
    "derived": {
      "lat": 47.525991,
      "long": -122.263778,
      "timestamp": 1558939737000,
      "description": "Aid Response",
      "address": "8650 55th Av S,Seattle,WA",
      "entries": 1,
      "neighborhood": "Rainier Beach",
      "neighborhoodGroup": "Southeast",
      "unitCount": 1,
      "severity": 0,
      "units": "E33"
    }
  },
  {
    "id_str": "F190053672",
    "created_at": "5/26/2019 11:34:34 PM",
    "derived": {
      "lat": 47.601686,
      "long": -122.31285,
      "timestamp": 1558938874000,
      "description": "Auto Fire Alarm",
      "address": "1502 E Yesler Way,Seattle,WA",
      "entries": 1,
      "neighborhood": "Central Area/Squire Park",
      "neighborhoodGroup": "Central",
      "unitCount": 2,
      "severity": 0,
      "units": "E6 L3"
    }
  },
  {
    "id_str": "F190053671",
    "created_at": "5/26/2019 11:32:47 PM",
    "derived": {
      "lat": 47.544669,
      "long": -122.373777,
      "timestamp": 1558938767000,
      "description": "Automatic Medical Alarm",
      "address": "3204 Sw Morgan St,Seattle,WA",
      "entries": 1,
      "neighborhood": "High Point",
      "neighborhoodGroup": "Delridge Neighborhoods",
      "unitCount": 1,
      "severity": 0,
      "units": "E37"
    }
  },
  {
    "id_str": "F190053670",
    "created_at": "5/26/2019 11:32:00 PM",
    "derived": {
      "lat": 47.63031,
      "long": -122.300324,
      "timestamp": 1558938720000,
      "description": "Automatic Medical Alarm",
      "address": "1210 25th Av E,Seattle,WA",
      "entries": 1,
      "neighborhood": "Miller Park",
      "neighborhoodGroup": "East",
      "unitCount": 1,
      "severity": 0,
      "units": "E34"
    }
  },
  {
    "id_str": "F190053669",
    "created_at": "5/26/2019 11:26:26 PM",
    "derived": {
      "lat": 47.722899,
      "long": -122.293194,
      "timestamp": 1558938386000,
      "description": "Aid Response",
      "address": "Lake City Way Ne / Ne 130th St,Seattle,WA",
      "entries": 1,
      "neighborhood": "Cedar Park/Meadowbrook",
      "neighborhoodGroup": "North",
      "unitCount": 1,
      "severity": 0,
      "units": "E39"
    }
  },
  {
    "id_str": "F190053668",
    "created_at": "5/26/2019 11:16:21 PM",
    "derived": {
      "lat": 47.559314,
      "long": -122.384189,
      "timestamp": 1558937781000,
      "description": "Aid Response",
      "address": "4100 Sw Edmunds St,Seattle,WA",
      "entries": 1,
      "neighborhood": "West Seattle Junction/Genesee Hill",
      "neighborhoodGroup": "Southwest",
      "unitCount": 1,
      "severity": 0,
      "units": "E32"
    }
  },
  {
    "id_str": "F190053667",
    "created_at": "5/26/2019 11:02:50 PM",
    "derived": {
      "lat": 47.701511,
      "long": -122.36565,
      "timestamp": 1558936970000,
      "description": "Aid Response",
      "address": "NW 100TH PL / NW 100TH ST,Seattle,WA",
      "entries": 1,
      "neighborhood": "North Beach/Blue Ridge",
      "neighborhoodGroup": "Ballard",
      "unitCount": 1,
      "severity": 0,
      "units": "E35"
    }
  },
  {
    "id_str": "F190053666",
    "created_at": "5/26/2019 10:56:26 PM",
    "derived": {
      "lat": 47.599197,
      "long": -122.328955,
      "timestamp": 1558936586000,
      "description": "Medic Response",
      "address": "401 S Jackson St,Seattle,WA",
      "entries": 1,
      "neighborhood": "Pioneer Square/International District",
      "neighborhoodGroup": "Downtown",
      "unitCount": 2,
      "severity": 0,
      "units": "A5 M1"
    }
  },
  {
    "id_str": "F190053665",
    "created_at": "5/26/2019 10:53:29 PM",
    "derived": {
      "lat": 47.611707,
      "long": -122.333447,
      "timestamp": 1558936409000,
      "description": "Aid Response",
      "address": "1511 7th Av,Seattle,WA",
      "entries": 1,
      "neighborhood": "First Hill",
      "neighborhoodGroup": "East",
      "unitCount": 1,
      "severity": 0,
      "units": "A10"
    }
  },
  {
    "id_str": "F190053664",
    "created_at": "5/26/2019 10:47:12 PM",
    "derived": {
      "lat": 47.619744,
      "long": -122.348859,
      "timestamp": 1558936032000,
      "description": "Aid Response",
      "address": "400 BROAD ST,Seattle,WA",
      "entries": 2,
      "neighborhood": "Cascade/Eastlake",
      "neighborhoodGroup": "Lake Union",
      "unitCount": 1,
      "severity": 0,
      "units": "A2"
    }
  },
  {
    "id_str": "F190053663",
    "created_at": "5/26/2019 10:45:25 PM",
    "derived": {
      "lat": 47.613969,
      "long": -122.327713,
      "timestamp": 1558935925000,
      "description": "Medic Response",
      "address": "310 E Pike St,Seattle,WA",
      "entries": 2,
      "neighborhood": "Capitol Hill",
      "neighborhoodGroup": "East",
      "unitCount": 2,
      "severity": 0,
      "units": "A25 M10"
    }
  },
  {
    "id_str": "F190053662",
    "created_at": "5/26/2019 10:38:12 PM",
    "derived": {
      "lat": 47.571499,
      "long": -122.290999,
      "timestamp": 1558935492000,
      "description": "Aid Response",
      "address": "3610 33rd Av S,Seattle,WA",
      "entries": 1,
      "neighborhood": "Columbia City",
      "neighborhoodGroup": "Southeast",
      "unitCount": 1,
      "severity": 0,
      "units": "E30"
    }
  },
  {
    "id_str": "F190053660",
    "created_at": "5/26/2019 10:20:12 PM",
    "derived": {
      "lat": 47.562857,
      "long": -122.385455,
      "timestamp": 1558934412000,
      "description": "Aid Response",
      "address": "4502 42nd Av Sw,Seattle,WA",
      "entries": 1,
      "neighborhood": "West Seattle Junction/Genesee Hill",
      "neighborhoodGroup": "Southwest",
      "unitCount": 1,
      "severity": 0,
      "units": "L11"
    }
  },
  {
    "id_str": "F190053659",
    "created_at": "5/26/2019 10:19:02 PM",
    "derived": {
      "lat": 47.589989,
      "long": -122.312696,
      "timestamp": 1558934342000,
      "description": "Aid Response Yellow",
      "address": "1501 Cherrylane Av S,Seattle,WA",
      "entries": 1,
      "neighborhood": "North Beacon Hill/Jefferson Park",
      "neighborhoodGroup": "Greater Duwamish",
      "unitCount": 1,
      "severity": 0,
      "units": "E13"
    }
  },
  {
    "id_str": "F190053657",
    "created_at": "5/26/2019 10:17:25 PM",
    "derived": {
      "lat": 47.627192,
      "long": -122.356823,
      "timestamp": 1558934245000,
      "description": "Aid Response",
      "address": "11 W Aloha St,Seattle,WA",
      "entries": 1,
      "neighborhood": "Queen Anne",
      "neighborhoodGroup": "Magnolia/Queen Anne",
      "unitCount": 1,
      "severity": 0,
      "units": "E8"
    }
  },
  {
    "id_str": "F190053653",
    "created_at": "5/26/2019 10:09:29 PM",
    "derived": {
      "lat": 47.674435,
      "long": -122.264862,
      "timestamp": 1558933769000,
      "description": "Medic Response",
      "address": "6327 Sand Point Way Ne,Seattle,WA",
      "entries": 1,
      "neighborhood": "Ravenna/Bryant",
      "neighborhoodGroup": "Northeast",
      "unitCount": 2,
      "severity": 0,
      "units": "E38 M17"
    }
  },
  {
    "id_str": "F190053651",
    "created_at": "5/26/2019 10:02:35 PM",
    "derived": {
      "lat": 47.696861,
      "long": -122.371408,
      "timestamp": 1558933355000,
      "description": "Aid Response",
      "address": "9220 12th Av Nw,Seattle,WA",
      "entries": 2,
      "neighborhood": "Greenwood/Phinney Ridge",
      "neighborhoodGroup": "Northwest",
      "unitCount": 2,
      "severity": 0,
      "units": "E31 E35"
    }
  },
  {
    "id_str": "F190053652",
    "created_at": "5/26/2019 10:02:00 PM",
    "derived": {
      "lat": 47.595825,
      "long": -122.319215,
      "timestamp": 1558933320000,
      "description": "Aid Response",
      "address": "10th Av S / S Dearborn St,Seattle,WA",
      "entries": 1,
      "neighborhood": "Pioneer Square/International District",
      "neighborhoodGroup": "Downtown",
      "unitCount": 1,
      "severity": 0,
      "units": "A5"
    }
  },
  {
    "id_str": "F190053649",
    "created_at": "5/26/2019 9:56:58 PM",
    "derived": {
      "lat": 47.618002,
      "long": -122.329182,
      "timestamp": 1558933018000,
      "description": "Aid Response",
      "address": "1811 Eastlake Av,Seattle,WA",
      "entries": 1,
      "neighborhood": "Cascade/Eastlake",
      "neighborhoodGroup": "Lake Union",
      "unitCount": 1,
      "severity": 0,
      "units": "A2"
    }
  },
  {
    "id_str": "F190053648",
    "created_at": "5/26/2019 9:56:48 PM",
    "derived": {
      "lat": 47.563869,
      "long": -122.376191,
      "timestamp": 1558933008000,
      "description": "Aid Response",
      "address": "4435 35th Av Sw,Seattle,WA",
      "entries": 1,
      "neighborhood": "North Delridge",
      "neighborhoodGroup": "Delridge Neighborhoods",
      "unitCount": 1,
      "severity": 0,
      "units": "E32"
    }
  },
  {
    "id_str": "F190053647",
    "created_at": "5/26/2019 9:54:10 PM",
    "derived": {
      "lat": 47.621244,
      "long": -122.283072,
      "timestamp": 1558932850000,
      "description": "MVI - Motor Vehicle Incident",
      "address": "Mcgilvra Blvd E / Lake Washington Blvd E,Seattle,WA",
      "entries": 1,
      "neighborhood": "Madrona/Leschi",
      "neighborhoodGroup": "Central",
      "unitCount": 1,
      "severity": 0,
      "units": "E34"
    }
  },
  {
    "id_str": "F190053646",
    "created_at": "5/26/2019 9:50:21 PM",
    "derived": {
      "lat": 47.61033,
      "long": -122.339687,
      "timestamp": 1558932621000,
      "description": "Auto Fire Alarm",
      "address": "211 Pine St,Seattle,WA",
      "entries": 1,
      "neighborhood": "Downtown Commercial Core",
      "neighborhoodGroup": "Downtown",
      "unitCount": 2,
      "severity": 0,
      "units": "E2 L4"
    }
  },
  {
    "id_str": "F190053645",
    "created_at": "5/26/2019 9:46:12 PM",
    "derived": {
      "lat": 47.572095,
      "long": -122.36001,
      "timestamp": 1558932372000,
      "description": "Aid Response",
      "address": "Delridge Way Sw / Sw Spokane St,Seattle,WA",
      "entries": 1,
      "neighborhood": "North Delridge",
      "neighborhoodGroup": "Delridge Neighborhoods",
      "unitCount": 1,
      "severity": 0,
      "units": "E36"
    }
  },
  {
    "id_str": "F190053642",
    "created_at": "5/26/2019 9:38:03 PM",
    "derived": {
      "lat": 47.599199,
      "long": -122.335909,
      "timestamp": 1558931883000,
      "description": "Illegal Burn",
      "address": "401 Alaskan Way S,Seattle,WA",
      "entries": 1,
      "neighborhood": "Duwamish/SODO",
      "neighborhoodGroup": "Greater Duwamish",
      "unitCount": 1,
      "severity": 0,
      "units": "E10"
    }
  },
  {
    "id_str": "F190053641",
    "created_at": "5/26/2019 9:35:56 PM",
    "derived": {
      "lat": 47.696178,
      "long": -122.360692,
      "timestamp": 1558931756000,
      "description": "Medic Response",
      "address": "9223 3rd Av Nw,Seattle,WA",
      "entries": 1,
      "neighborhood": "Greenwood/Phinney Ridge",
      "neighborhoodGroup": "Northwest",
      "unitCount": 2,
      "severity": 0,
      "units": "E35 M31"
    }
  },
  {
    "id_str": "F190053640",
    "created_at": "5/26/2019 9:33:25 PM",
    "derived": {
      "lat": 47.668673,
      "long": -122.380353,
      "timestamp": 1558931605000,
      "description": "Investigate Out Of Service",
      "address": "1801 NW MARKET ST,Seattle,WA",
      "entries": 1,
      "neighborhood": "Ballard",
      "neighborhoodGroup": "Ballard",
      "unitCount": 1,
      "severity": 0,
      "units": "L8"
    }
  },
  {
    "id_str": "F190053635",
    "created_at": "5/26/2019 9:24:09 PM",
    "derived": {
      "lat": 47.723086,
      "long": -122.307274,
      "timestamp": 1558931049000,
      "description": "Aid Response",
      "address": "13018 20th Av Ne,Seattle,WA",
      "entries": 1,
      "neighborhood": "Olympic Hills/Victory Heights",
      "neighborhoodGroup": "North",
      "unitCount": 1,
      "severity": 0,
      "units": "E39"
    }
  },
  {
    "id_str": "F190053634",
    "created_at": "5/26/2019 9:23:59 PM",
    "derived": {
      "lat": 47.670492,
      "long": -122.404703,
      "timestamp": 1558931039000,
      "description": "Aid Response",
      "address": "5705 Seaview Av Nw,Seattle,WA",
      "entries": 1,
      "neighborhood": "Sunset Hill/Loyal Heights",
      "neighborhoodGroup": "Ballard",
      "unitCount": 1,
      "severity": 0,
      "units": "E18"
    }
  },
  {
    "id_str": "F190053633",
    "created_at": "5/26/2019 9:23:37 PM",
    "derived": {
      "lat": 47.563624,
      "long": -122.273234,
      "timestamp": 1558931017000,
      "description": "Investigate Out Of Service",
      "address": "4429 48th Av S,Seattle,WA",
      "entries": 1,
      "neighborhood": "Columbia City",
      "neighborhoodGroup": "Southeast",
      "unitCount": 1,
      "severity": 0,
      "units": "E28"
    }
  },
  {
    "id_str": "F190053630",
    "created_at": "5/26/2019 9:21:57 PM",
    "derived": {
      "lat": 47.608756,
      "long": -122.336885,
      "timestamp": 1558930917000,
      "description": "Aid Response",
      "address": "3rd Av / Union St,Seattle,WA",
      "entries": 1,
      "neighborhood": "Downtown Commercial Core",
      "neighborhoodGroup": "Downtown",
      "unitCount": 1,
      "severity": 0,
      "units": "A10"
    }
  },
  {
    "id_str": "F190053629",
    "created_at": "5/26/2019 9:20:55 PM",
    "derived": {
      "lat": 47.661277,
      "long": -122.314251,
      "timestamp": 1558930855000,
      "description": "Aid Response",
      "address": "1303 Ne 45th St,Seattle,WA",
      "entries": 1,
      "neighborhood": "University District",
      "neighborhoodGroup": "Northeast",
      "unitCount": 1,
      "severity": 0,
      "units": "E17"
    }
  },
  {
    "id_str": "F190053628",
    "created_at": "5/26/2019 9:12:15 PM",
    "derived": {
      "lat": 47.674435,
      "long": -122.264862,
      "timestamp": 1558930335000,
      "description": "Aid Response",
      "address": "6327 Sand Point Way Ne,Seattle,WA",
      "entries": 1,
      "neighborhood": "Ravenna/Bryant",
      "neighborhoodGroup": "Northeast",
      "unitCount": 1,
      "severity": 0,
      "units": "E40"
    }
  },
  {
    "id_str": "F190053626",
    "created_at": "5/26/2019 9:05:54 PM",
    "derived": {
      "lat": 47.596646,
      "long": -122.308936,
      "timestamp": 1558929954000,
      "description": "Aid Response",
      "address": "1803 S Lane St,Seattle,WA",
      "entries": 1,
      "neighborhood": "Judkins Park",
      "neighborhoodGroup": "Central",
      "unitCount": 1,
      "severity": 0,
      "units": "E6"
    }
  },
  {
    "id_str": "F190053625",
    "created_at": "5/26/2019 9:05:42 PM",
    "derived": {
      "lat": 47.687429,
      "long": -122.265462,
      "timestamp": 1558929942000,
      "description": "Automatic Medical Alarm",
      "address": "8005 Sand Point Way Ne,Seattle,WA",
      "entries": 1,
      "neighborhood": "Laurelhurst/Sand Point",
      "neighborhoodGroup": "Northeast",
      "unitCount": 1,
      "severity": 0,
      "units": "E38"
    }
  },
  {
    "id_str": "F190053624",
    "created_at": "5/26/2019 9:00:37 PM",
    "derived": {
      "lat": 47.671564,
      "long": -122.327499,
      "timestamp": 1558929637000,
      "description": "Aid Response",
      "address": "153 Ne 59th St,Seattle,WA",
      "entries": 1,
      "neighborhood": "Wallingford",
      "neighborhoodGroup": "Lake Union",
      "unitCount": 1,
      "severity": 0,
      "units": "E16"
    }
  },
  {
    "id_str": "F190053623",
    "created_at": "5/26/2019 8:56:29 PM",
    "derived": {
      "lat": 47.618997,
      "long": -122.294809,
      "timestamp": 1558929389000,
      "description": "Aid Response",
      "address": "109 29th Av E,Seattle,WA",
      "entries": 1,
      "neighborhood": "Central Area/Squire Park",
      "neighborhoodGroup": "Central",
      "unitCount": 1,
      "severity": 0,
      "units": "E34"
    }
  },
  {
    "id_str": "F190053620",
    "created_at": "5/26/2019 8:55:23 PM",
    "derived": {
      "lat": 47.599261,
      "long": -122.305258,
      "timestamp": 1558929323000,
      "description": "Aid Response",
      "address": "2020 S Jackson St,Seattle,WA",
      "entries": 1,
      "neighborhood": "Judkins Park",
      "neighborhoodGroup": "Central",
      "unitCount": 1,
      "severity": 0,
      "units": "E6"
    }
  },
  {
    "id_str": "F190053619",
    "created_at": "5/26/2019 8:49:24 PM",
    "derived": {
      "lat": 47.624271,
      "long": -122.32199,
      "timestamp": 1558928964000,
      "description": "MVI - Motor Vehicle Incident",
      "address": "E Mercer St / Harvard Av E,Seattle,WA",
      "entries": 1,
      "neighborhood": "Capitol Hill",
      "neighborhoodGroup": "East",
      "unitCount": 1,
      "severity": 0,
      "units": "E25"
    }
  },
  {
    "id_str": "F190053618",
    "created_at": "5/26/2019 8:47:10 PM",
    "derived": {
      "lat": 47.626004,
      "long": -122.338785,
      "timestamp": 1558928830000,
      "description": "Aid Response",
      "address": "731 Westlake Av N,Seattle,WA",
      "entries": 1,
      "neighborhood": "Queen Anne",
      "neighborhoodGroup": "Magnolia/Queen Anne",
      "unitCount": 1,
      "severity": 0,
      "units": "A2"
    }
  },
  {
    "id_str": "F190053617",
    "created_at": "5/26/2019 8:45:26 PM",
    "derived": {
      "lat": 47.686942,
      "long": -122.286357,
      "timestamp": 1558928726000,
      "description": "Automatic Fire Alarm Resd",
      "address": "8032 39th Av Ne,Seattle,WA",
      "entries": 1,
      "neighborhood": "Wedgwood/View Ridge",
      "neighborhoodGroup": "Northeast",
      "unitCount": 1,
      "severity": 0,
      "units": "E38"
    }
  },
  {
    "id_str": "F190053615",
    "created_at": "5/26/2019 8:43:15 PM",
    "derived": {
      "lat": 47.725059,
      "long": -122.357384,
      "timestamp": 1558928595000,
      "description": "Aid Response",
      "address": "147 N 132nd St,Seattle,WA",
      "entries": 1,
      "neighborhood": "Broadview/Bitter Lake",
      "neighborhoodGroup": "Northwest",
      "unitCount": 1,
      "severity": 0,
      "units": "E24"
    }
  },
  {
    "id_str": "F190053614",
    "created_at": "5/26/2019 8:36:36 PM",
    "derived": {
      "lat": 47.72838,
      "long": -122.292253,
      "timestamp": 1558928196000,
      "description": "Aid Response",
      "address": "13716 Lake City Way Ne,Seattle,WA",
      "entries": 1,
      "neighborhood": "Cedar Park/Meadowbrook",
      "neighborhoodGroup": "North",
      "unitCount": 1,
      "severity": 0,
      "units": "E39"
    }
  },
  {
    "id_str": "F190053612",
    "created_at": "5/26/2019 8:25:28 PM",
    "derived": {
      "lat": 47.719585,
      "long": -122.292729,
      "timestamp": 1558927528000,
      "description": "Auto Fire Alarm",
      "address": "12546 33rd Av Ne,Seattle,WA",
      "entries": 1,
      "neighborhood": "Cedar Park/Meadowbrook",
      "neighborhoodGroup": "North",
      "unitCount": 2,
      "severity": 0,
      "units": "E40 L5"
    }
  },
  {
    "id_str": "F190053611",
    "created_at": "5/26/2019 8:19:50 PM",
    "derived": {
      "lat": 47.710159,
      "long": -122.310648,
      "timestamp": 1558927190000,
      "description": "Aid Response",
      "address": "11227 Goodwin Way Ne,Seattle,WA",
      "entries": 1,
      "neighborhood": "Olympic Hills/Victory Heights",
      "neighborhoodGroup": "North",
      "unitCount": 1,
      "severity": 0,
      "units": "E31"
    }
  },
  {
    "id_str": "F190053607",
    "created_at": "5/26/2019 8:11:25 PM",
    "derived": {
      "lat": 47.62312,
      "long": -122.333818,
      "timestamp": 1558926685000,
      "description": "Auto Fire Alarm",
      "address": "1167 Republican St,Seattle,WA",
      "entries": 1,
      "neighborhood": "Cascade/Eastlake",
      "neighborhoodGroup": "Lake Union",
      "unitCount": 2,
      "severity": 0,
      "units": "E2 L4"
    }
  },
  {
    "id_str": "F190053606",
    "created_at": "5/26/2019 8:09:58 PM",
    "derived": {
      "lat": 47.733947,
      "long": -122.312326,
      "timestamp": 1558926598000,
      "description": "Aid Response",
      "address": "1531 Ne 145th St,Seattle,WA",
      "entries": 2,
      "unitCount": 2,
      "severity": 0,
      "units": "A31 E31"
    }
  },
  {
    "id_str": "F190053605",
    "created_at": "5/26/2019 8:01:41 PM",
    "derived": {
      "lat": 47.713747,
      "long": -122.344837,
      "timestamp": 1558926101000,
      "description": "Aid Response",
      "address": "11616 AURORA AV N,Seattle,WA",
      "entries": 1,
      "neighborhood": "Broadview/Bitter Lake",
      "neighborhoodGroup": "Northwest",
      "unitCount": 1,
      "severity": 0,
      "units": "A31"
    }
  },
  {
    "id_str": "F190053604",
    "created_at": "5/26/2019 7:59:33 PM",
    "derived": {
      "lat": 47.571853,
      "long": -122.293193,
      "timestamp": 1558925973000,
      "description": "Aid Response",
      "address": "3501 Rainier Av S,Seattle,WA",
      "entries": 1,
      "neighborhood": "Columbia City",
      "neighborhoodGroup": "Southeast",
      "unitCount": 1,
      "severity": 0,
      "units": "E30"
    }
  },
  {
    "id_str": "F190053601",
    "created_at": "5/26/2019 7:47:14 PM",
    "derived": {
      "lat": 47.664884,
      "long": -122.310756,
      "timestamp": 1558925234000,
      "description": "Aid Response",
      "address": "1604 Ne 50th St,Seattle,WA",
      "entries": 2,
      "neighborhood": "University District",
      "neighborhoodGroup": "Northeast",
      "unitCount": 2,
      "severity": 0,
      "units": "E17 L9"
    }
  },
  {
    "id_str": "F190053600",
    "created_at": "5/26/2019 7:40:27 PM",
    "derived": {
      "lat": 47.599968,
      "long": -122.328965,
      "timestamp": 1558924827000,
      "description": "Auto Fire Alarm",
      "address": "308 4th Av S,Seattle,WA",
      "entries": 1,
      "neighborhood": "Pioneer Square/International District",
      "neighborhoodGroup": "Downtown",
      "unitCount": 2,
      "severity": 0,
      "units": "E5 L1"
    }
  },
  {
    "id_str": "F190053599",
    "created_at": "5/26/2019 7:40:26 PM",
    "derived": {
      "lat": 47.637765,
      "long": -122.405464,
      "timestamp": 1558924826000,
      "description": "Aid Response",
      "address": "2210 Eastmont Way W,Seattle,WA",
      "entries": 1,
      "neighborhood": "Magnolia",
      "neighborhoodGroup": "Magnolia/Queen Anne",
      "unitCount": 1,
      "severity": 0,
      "units": "E41"
    }
  },
  {
    "id_str": "F190053598",
    "created_at": "5/26/2019 7:37:52 PM",
    "derived": {
      "lat": 47.600881,
      "long": -122.332252,
      "timestamp": 1558924672000,
      "description": "Aid Response",
      "address": "173 S Washington St,Seattle,WA",
      "entries": 1,
      "neighborhood": "Pioneer Square/International District",
      "neighborhoodGroup": "Downtown",
      "unitCount": 1,
      "severity": 0,
      "units": "A5"
    }
  },
  {
    "id_str": "F190053597",
    "created_at": "5/26/2019 7:34:13 PM",
    "derived": {
      "lat": 47.727468,
      "long": -122.284008,
      "timestamp": 1558924453000,
      "description": "Automatic Medical Alarm",
      "address": "13568 41st Av Ne,Seattle,WA",
      "entries": 1,
      "neighborhood": "Cedar Park/Meadowbrook",
      "neighborhoodGroup": "North",
      "unitCount": 1,
      "severity": 0,
      "units": "E39"
    }
  },
  {
    "id_str": "F190053596",
    "created_at": "5/26/2019 7:31:50 PM",
    "derived": {
      "lat": 47.634866,
      "long": -122.326922,
      "timestamp": 1558924310000,
      "description": "Aid Response",
      "address": "1801 Fairview Av E,Seattle,WA",
      "entries": 1,
      "neighborhood": "Cascade/Eastlake",
      "neighborhoodGroup": "Lake Union",
      "unitCount": 1,
      "severity": 0,
      "units": "E22"
    }
  },
  {
    "id_str": "F190053593",
    "created_at": "5/26/2019 7:28:59 PM",
    "derived": {
      "lat": 47.725264,
      "long": -122.366342,
      "timestamp": 1558924139000,
      "description": "Medic Response",
      "address": "13227 8th Av Nw,Seattle,WA",
      "entries": 2,
      "neighborhood": "Broadview/Bitter Lake",
      "neighborhoodGroup": "Northwest",
      "unitCount": 2,
      "severity": 0,
      "units": "E24 M18"
    }
  },
  {
    "id_str": "F190053591",
    "created_at": "5/26/2019 7:27:19 PM",
    "derived": {
      "lat": 47.65575,
      "long": -122.283957,
      "timestamp": 1558924039000,
      "description": "Automatic Fire Alarm Resd",
      "address": "3959 Ne Surber Dr,Seattle,WA",
      "entries": 1,
      "neighborhood": "Laurelhurst/Sand Point",
      "neighborhoodGroup": "Northeast",
      "unitCount": 1,
      "severity": 0,
      "units": "E38"
    }
  },
  {
    "id_str": "F190053590",
    "created_at": "5/26/2019 7:26:13 PM",
    "derived": {
      "lat": 47.619908,
      "long": -122.320873,
      "timestamp": 1558923973000,
      "description": "Aid Response",
      "address": "Broadway E / E John St,Seattle,WA",
      "entries": 1,
      "neighborhood": "Capitol Hill",
      "neighborhoodGroup": "East",
      "unitCount": 1,
      "severity": 0,
      "units": "A25"
    }
  },
  {
    "id_str": "F190053589",
    "created_at": "5/26/2019 7:19:58 PM",
    "derived": {
      "lat": 47.682628,
      "long": -122.331584,
      "timestamp": 1558923598000,
      "description": "Rubbish Fire",
      "address": "Bagley Av N / East Green Lake Dr N,Seattle,WA",
      "entries": 1,
      "neighborhood": "Green Lake",
      "neighborhoodGroup": "Northwest",
      "unitCount": 1,
      "severity": 0,
      "units": "E16"
    }
  },
  {
    "id_str": "F190053588",
    "created_at": "5/26/2019 7:18:30 PM",
    "derived": {
      "lat": 47.601749,
      "long": -122.332011,
      "timestamp": 1558923510000,
      "description": "Aid Response",
      "address": "506 2nd Av,Seattle,WA",
      "entries": 1,
      "neighborhood": "Downtown Commercial Core",
      "neighborhoodGroup": "Downtown",
      "unitCount": 1,
      "severity": 0,
      "units": "E5"
    }
  },
  {
    "id_str": "F190053586",
    "created_at": "5/26/2019 7:13:48 PM",
    "derived": {
      "lat": 47.676145,
      "long": -122.369781,
      "timestamp": 1558923228000,
      "description": "Medic Response",
      "address": "6520 10th Av Nw,Seattle,WA",
      "entries": 1,
      "neighborhood": "Whittier Heights",
      "neighborhoodGroup": "Ballard",
      "unitCount": 2,
      "severity": 0,
      "units": "E18 M18"
    }
  },