[
  {
    "id_str": "F200068217",
    "created_at": "7/12/2020 4:58:28 PM",
    "lat": 47.538655,
    "long": -122.287045,
    "timestamp": 1594598308000,
    "description": "Aid Response",
    "address": "7133 Holly Park Dr S",
    "active": false,
    "unitCount": 2,
    "severity": 0,
    "neighborhood": "South Beacon Hill/NewHolly",
    "neighborhoodGroup": "Greater Duwamish",
    "units": "E28 M28"
  },
  {
    "id_str": "F200068216",
    "created_at": "7/12/2020 4:55:19 PM",
    "lat": 47.609372,
    "long": -122.329777,
    "timestamp": 1594598119000,
    "description": "MVI - Motor Vehicle Incident",
    "address": "800 Seneca St",
    "active": false,
    "unitCount": 1,
    "severity": 0,
    "neighborhood": "First Hill",
    "neighborhoodGroup": "East",
    "units": "L10"
  },
  {
    "id_str": "F200068214",
    "created_at": "7/12/2020 4:49:41 PM",
    "lat": 47.61559,
    "long": -122.310151,
    "timestamp": 1594597781000,
    "description": "Aid Response",
    "address": "17th Ave / E Madison St",
    "active": false,
    "unitCount": 1,
    "severity": 0,
    "neighborhood": "Central Area/Squire Park",
    "neighborhoodGroup": "Central",
    "units": "L10"
  },
  {
    "id_str": "F200068213",
    "created_at": "7/12/2020 4:49:05 PM",
    "lat": 47.613247,
    "long": -122.327187,
    "timestamp": 1594597745000,
    "description": "Scenes Of Violence 7",
    "address": "1431 Minor Av",
    "active": false,
    "unitCount": 5,
    "severity": 1,
    "neighborhood": "Capitol Hill",
    "neighborhoodGroup": "East",
    "units": "A25 B2 E25 M1 M44"
  },
  {
    "id_str": "F200068210",
    "created_at": "7/12/2020 4:42:11 PM",
    "lat": 47.61842,
    "long": -122.30365,
    "timestamp": 1594597331000,
    "description": "Aid Response",
    "address": "2200 E Madison St",
    "active": false,
    "unitCount": 1,
    "severity": 0,
    "neighborhood": "Central Area/Squire Park",
    "neighborhoodGroup": "Central",
    "units": "A25"
  },
  {
    "id_str": "F200068208",
    "created_at": "7/12/2020 4:37:24 PM",
    "lat": 47.684037,
    "long": -122.344136,
    "timestamp": 1594597044000,
    "description": "Aid Response",
    "address": "1124 N 76th St",
    "active": false,
    "unitCount": 1,
    "severity": 0,
    "neighborhood": "Green Lake",
    "neighborhoodGroup": "Northwest",
    "units": "E21"
  },
  {
    "id_str": "F200068207",
    "created_at": "7/12/2020 4:30:21 PM",
    "lat": 47.734129,
    "long": -122.347802,
    "timestamp": 1594596621000,
    "description": "Aid Response",
    "address": "N 145TH ST/LINDEN AVE N",
    "active": false,
    "unitCount": 1,
    "severity": 0,
    "neighborhood": "Broadview/Bitter Lake",
    "neighborhoodGroup": "Northwest",
    "units": "A31"
  },
  {
    "id_str": "F200068205",
    "created_at": "7/12/2020 4:15:17 PM",
    "lat": 47.62595,
    "long": -122.332568,
    "timestamp": 1594595717000,
    "description": "Aid Response",
    "address": "Valley St / Minor Ave N",
    "active": false,
    "unitCount": 1,
    "severity": 0,
    "neighborhood": "Cascade/Eastlake",
    "neighborhoodGroup": "Lake Union",
    "units": "A4"
  },
  {
    "id_str": "F200068204",
    "created_at": "7/12/2020 4:09:32 PM",
    "lat": 47.607817,
    "long": -122.331423,
    "timestamp": 1594595372000,
    "description": "Rescue Elevator",
    "address": "1113 6th Av",
    "active": false,
    "unitCount": 1,
    "severity": 0,
    "neighborhood": "First Hill",
    "neighborhoodGroup": "East",
    "units": "L1"
  },
  {
    "id_str": "F200068201",
    "created_at": "7/12/2020 3:55:55 PM",
    "lat": 47.516218,
    "long": -122.270028,
    "timestamp": 1594594555000,
    "description": "Aid Response",
    "address": "9621 51st Ave S",
    "active": false,
    "unitCount": 1,
    "severity": 0,
    "neighborhood": "Rainier Beach",
    "neighborhoodGroup": "Southeast",
    "units": "E33"
  },
  {
    "id_str": "F200068198",
    "created_at": "7/12/2020 3:49:23 PM",
    "lat": 47.595874,
    "long": -122.31153,
    "timestamp": 1594594163000,
    "description": "Aid Response",
    "address": "Rainier Ave S / S Dearborn St",
    "active": false,
    "unitCount": 1,
    "severity": 0,
    "neighborhood": "Judkins Park",
    "neighborhoodGroup": "Central",
    "units": "A10"
  },
  {
    "id_str": "F200068197",
    "created_at": "7/12/2020 3:43:48 PM",
    "lat": 47.644485,
    "long": -122.317077,
    "timestamp": 1594593828000,
    "description": "Low Acuity Response",
    "address": "2700 Boyer Av E",
    "active": false,
    "unitCount": 1,
    "severity": 0,
    "neighborhood": "Montlake/Portage Bay",
    "neighborhoodGroup": "Northeast",
    "units": "E22"
  },
  {
    "id_str": "F200068196",
    "created_at": "7/12/2020 3:36:05 PM",
    "lat": 47.608682,
    "long": -122.32454,
    "timestamp": 1594593365000,
    "description": "Aid Response",
    "address": "909 Boren Av",
    "active": false,
    "unitCount": 1,
    "severity": 0,
    "neighborhood": "First Hill",
    "neighborhoodGroup": "East",
    "units": "E25"
  },
  {
    "id_str": "F200068195",
    "created_at": "7/12/2020 3:35:11 PM",
    "lat": 47.705084,
    "long": -122.355453,
    "timestamp": 1594593311000,
    "description": "MVI - Motor Vehicle Incident",
    "address": "N 105th St / Greenwood Ave N",
    "active": false,
    "unitCount": 1,
    "severity": 0,
    "neighborhood": "North Beach/Blue Ridge",
    "neighborhoodGroup": "Ballard",
    "units": "E35"
  },
  {
    "id_str": "F200068194",
    "created_at": "7/12/2020 3:27:22 PM",
    "lat": 47.539733,
    "long": -122.341178,
    "timestamp": 1594592842000,
    "description": "Aid Response",
    "address": "7115 West Marginal Way Sw",
    "active": false,
    "unitCount": 1,
    "severity": 0,
    "neighborhood": "Highland Park",
    "neighborhoodGroup": "Delridge Neighborhoods",
    "units": "E11"
  },
  {
    "id_str": "F200068193",
    "created_at": "7/12/2020 3:27:07 PM",
    "lat": 47.576359,
    "long": -122.29663,
    "timestamp": 1594592827000,
    "description": "Aid Response",
    "address": "Rainier Ave S / M L King Jr Way S",
    "active": false,
    "unitCount": 1,
    "severity": 0,
    "neighborhood": "Mt. Baker/North Rainier",
    "neighborhoodGroup": "Southeast",
    "units": "E30"
  },
  {
    "id_str": "F200068192",
    "created_at": "7/12/2020 3:15:45 PM",
    "lat": 47.613494,
    "long": -122.328845,
    "timestamp": 1594592145000,
    "description": "Aid Response",
    "address": "1106 Pike St",
    "active": false,
    "unitCount": 1,
    "severity": 0,
    "neighborhood": "First Hill",
    "neighborhoodGroup": "East",
    "units": "A25"
  },
  {
    "id_str": "F200068188",
    "created_at": "7/12/2020 3:00:28 PM",
    "timestamp": 1594591228000,
    "description": "Advised Incident",
    "address": "Mercer St / Queen Anne Ave N",
    "active": false,
    "unitCount": 1,
    "severity": 0,
    "units": "A2"
  },
  {
    "id_str": "F200068186",
    "created_at": "7/12/2020 2:57:55 PM",
    "lat": 47.624583,
    "long": -122.356709,
    "timestamp": 1594591075000,
    "description": "Aid Response",
    "address": "QUEEN ANNE AVE N / MERCER ST",
    "active": false,
    "unitCount": 1,
    "severity": 0,
    "neighborhood": "Queen Anne",
    "neighborhoodGroup": "Magnolia/Queen Anne",
    "units": "E8"
  },
  {
    "id_str": "F200068185",
    "created_at": "7/12/2020 2:57:49 PM",
    "lat": 47.623472,
    "long": -122.358023,
    "timestamp": 1594591069000,
    "description": "Aid Response",
    "address": "516 1st Av W",
    "active": false,
    "unitCount": 2,
    "severity": 0,
    "neighborhood": "Queen Anne",
    "neighborhoodGroup": "Magnolia/Queen Anne",
    "units": "A2 A4"
  },
  {
    "id_str": "F200068184",
    "created_at": "7/12/2020 2:51:57 PM",
    "lat": 47.733947,
    "long": -122.312326,
    "timestamp": 1594590717000,
    "description": "Aid Response",
    "address": "1531 Ne 145th St",
    "active": false,
    "unitCount": 2,
    "severity": 0,
    "units": "A31 M17"
  },
  {
    "id_str": "F200068183",
    "created_at": "7/12/2020 2:48:42 PM",
    "lat": 47.615321,
    "long": -122.322132,
    "timestamp": 1594590522000,
    "description": "Auto Fire Alarm",
    "address": "1609 Harvard Av",
    "active": false,
    "unitCount": 2,
    "severity": 0,
    "neighborhood": "Capitol Hill",
    "neighborhoodGroup": "East",
    "units": "E25 L10"
  },
  {
    "id_str": "F200068181",
    "created_at": "7/12/2020 2:44:26 PM",
    "lat": 47.667881,
    "long": -122.273574,
    "timestamp": 1594590266000,
    "description": "Low Acuity Response",
    "address": "5410 Ivanhoe Pl Ne",
    "active": false,
    "unitCount": 1,
    "severity": 0,
    "neighborhood": "Laurelhurst/Sand Point",
    "neighborhoodGroup": "Northeast",
    "units": "E38"
  },
  {
    "id_str": "F200068180",
    "created_at": "7/12/2020 2:42:58 PM",
    "lat": 47.571853,
    "long": -122.293193,
    "timestamp": 1594590178000,
    "description": "Low Acuity Response",
    "address": "3501 Rainier Av S",
    "active": false,
    "unitCount": 1,
    "severity": 0,
    "neighborhood": "Columbia City",
    "neighborhoodGroup": "Southeast",
    "units": "E30"
  },
  {
    "id_str": "F200068178",
    "created_at": "7/12/2020 2:25:09 PM",
    "lat": 47.708602,
    "long": -122.324588,
    "timestamp": 1594589109000,
    "description": "Investigate Out Of Service",
    "address": "401 Ne Northgate Way",
    "active": false,
    "unitCount": 1,
    "severity": 0,
    "neighborhood": "Northgate/Maple Leaf",
    "neighborhoodGroup": "North",
    "units": "E16"
  },
  {
    "id_str": "F200068177",
    "created_at": "7/12/2020 2:15:45 PM",
    "lat": 47.592938,
    "long": -122.302496,
    "timestamp": 1594588545000,
    "description": "Aid Response",
    "address": "1122 23rd Ave S",
    "active": false,
    "unitCount": 2,
    "severity": 0,
    "neighborhood": "North Beacon Hill/Jefferson Park",
    "neighborhoodGroup": "Greater Duwamish",
    "units": "A5 M10"
  },
  {
    "id_str": "F200068176",
    "created_at": "7/12/2020 2:14:33 PM",
    "lat": 47.692803,
    "long": -122.378955,
    "timestamp": 1594588473000,
    "description": "Aid Response",
    "address": "8749 17th Ave Nw",
    "active": false,
    "unitCount": 1,
    "severity": 0,
    "neighborhood": "North Beach/Blue Ridge",
    "neighborhoodGroup": "Ballard",
    "units": "E35"
  },
  {
    "id_str": "F200068175",
    "created_at": "7/12/2020 2:13:12 PM",
    "lat": 47.523892,
    "long": -122.314927,
    "timestamp": 1594588392000,
    "description": "Aid Response",
    "address": "1411 S Concord St",
    "active": false,
    "unitCount": 1,
    "severity": 0,
    "neighborhood": "South Park",
    "neighborhoodGroup": "Greater Duwamish",
    "units": "E26"
  },
  {
    "id_str": "F200068173",
    "created_at": "7/12/2020 2:11:30 PM",
    "lat": 47.610006,
    "long": -122.293804,
    "timestamp": 1594588290000,
    "description": "Aid Response",
    "address": "30th Ave / E Marion St",
    "active": false,
    "unitCount": 1,
    "severity": 0,
    "neighborhood": "Central Area/Squire Park",
    "neighborhoodGroup": "Central",
    "units": "A25"
  },
  {
    "id_str": "F200068170",
    "created_at": "7/12/2020 1:58:43 PM",
    "lat": 47.665073,
    "long": -122.317402,
    "timestamp": 1594587523000,
    "description": "Low Acuity Response",
    "address": "5019 Roosevelt Way Ne",
    "active": false,
    "unitCount": 1,
    "severity": 0,
    "neighborhood": "University District",
    "neighborhoodGroup": "Northeast",
    "units": "L9"
  },
  {
    "id_str": "F200068168",
    "created_at": "7/12/2020 1:54:43 PM",
    "lat": 47.7071,
    "long": -122.339348,
    "timestamp": 1594587283000,
    "description": "4RED - 2 + 1 + 1",
    "address": "10738 Ashworth Ave N",
    "active": false,
    "unitCount": 4,
    "severity": 0,
    "neighborhood": "Haller Lake",
    "neighborhoodGroup": "Northwest",
    "units": "B6 E21 E24 L5"
  },
  {
    "id_str": "F200068167",
    "created_at": "7/12/2020 1:41:48 PM",
    "lat": 47.597372,
    "long": -122.322452,
    "timestamp": 1594586508000,
    "description": "Unk Odor",
    "address": "616 8th Av S",
    "active": false,
    "unitCount": 1,
    "severity": 0,
    "neighborhood": "Pioneer Square/International District",
    "neighborhoodGroup": "Downtown",
    "units": "E10"
  },
  {
    "id_str": "F200068166",
    "created_at": "7/12/2020 1:40:37 PM",
    "lat": 47.633914,
    "long": -122.343368,
    "timestamp": 1594586437000,
    "description": "Brush Fire Freeway",
    "address": "1660 Aurora Av N",
    "active": false,
    "unitCount": 4,
    "severity": 0,
    "neighborhood": "Queen Anne",
    "neighborhoodGroup": "Magnolia/Queen Anne",
    "units": "B2 E2 E25 E8"
  },
  {
    "id_str": "F200068165",
    "created_at": "7/12/2020 1:38:45 PM",
    "lat": 47.663288,
    "long": -122.314235,
    "timestamp": 1594586325000,
    "description": "Aid Response",
    "address": "4732 Brooklyn Av Ne",
    "active": false,
    "unitCount": 1,
    "severity": 0,
    "neighborhood": "University District",
    "neighborhoodGroup": "Northeast",
    "units": "E17"
  },
  {
    "id_str": "F200068164",
    "created_at": "7/12/2020 1:32:45 PM",
    "lat": 47.655661,
    "long": -122.361531,
    "timestamp": 1594585965000,
    "description": "Aid Response",
    "address": "3977 Leary Way Nw",
    "active": false,
    "unitCount": 1,
    "severity": 0,
    "neighborhood": "Fremont",
    "neighborhoodGroup": "Lake Union",
    "units": "E18"
  },
  {
    "id_str": "F200068163",
    "created_at": "7/12/2020 1:32:09 PM",
    "lat": 47.703839,
    "long": -122.376755,
    "timestamp": 1594585929000,
    "description": "Medic Response",
    "address": "10352 15th Ave Nw",
    "active": false,
    "unitCount": 2,
    "severity": 0,
    "neighborhood": "North Beach/Blue Ridge",
    "neighborhoodGroup": "Ballard",
    "units": "A31 M18"
  },
  {
    "id_str": "F200068157",
    "created_at": "7/12/2020 1:13:49 PM",
    "lat": 47.686777,
    "long": -122.399124,
    "timestamp": 1594584829000,
    "description": "Aid Response",
    "address": "8009 33rd Ave Nw",
    "active": false,
    "unitCount": 1,
    "severity": 0,
    "neighborhood": "Sunset Hill/Loyal Heights",
    "neighborhoodGroup": "Ballard",
    "units": "E35"
  },
  {
    "id_str": "F200068156",
    "created_at": "7/12/2020 1:11:57 PM",
    "lat": 47.605392,
    "long": -122.327499,
    "timestamp": 1594584717000,
    "description": "Medic Response",
    "address": "711 Cherry St",
    "active": false,
    "unitCount": 2,
    "severity": 0,
    "neighborhood": "First Hill",
    "neighborhoodGroup": "East",
    "units": "A10 M1"
  },
  {
    "id_str": "F200068155",
    "created_at": "7/12/2020 1:06:42 PM",
    "lat": 47.67373,
    "long": -122.333546,
    "timestamp": 1594584402000,
    "description": "Automatic Fire Alarm Resd",
    "address": "6207 Meridian Ave N",
    "active": false,
    "unitCount": 1,
    "severity": 0,
    "neighborhood": "Green Lake",
    "neighborhoodGroup": "Northwest",
    "units": "E22"
  },
  {
    "id_str": "F200068154",
    "created_at": "7/12/2020 12:53:55 PM",
    "lat": 47.53152,
    "long": -122.26999,
    "timestamp": 1594583635000,
    "description": "Aid Response",
    "address": "7910 Rainier Av S",
    "active": false,
    "unitCount": 1,
    "severity": 0,
    "neighborhood": "Rainier Beach",
    "neighborhoodGroup": "Southeast",
    "units": "E33"
  },
  {
    "id_str": "F200068153",
    "created_at": "7/12/2020 12:47:56 PM",
    "lat": 47.563567,
    "long": -122.29522,
    "timestamp": 1594583276000,
    "description": "Aid Response",
    "address": "4425 M L King Jr Way S",
    "active": false,
    "unitCount": 1,
    "severity": 0,
    "neighborhood": "North Beacon Hill/Jefferson Park",
    "neighborhoodGroup": "Greater Duwamish",
    "units": "E30"
  },
  {
    "id_str": "F200068152",
    "created_at": "7/12/2020 12:46:30 PM",
    "lat": 47.674634,
    "long": -122.334646,
    "timestamp": 1594583190000,
    "description": "Medic Response, 7 per Rule",
    "address": "N 63rd St / East Green Lake Way N",
    "active": false,
    "unitCount": 3,
    "severity": 0,
    "neighborhood": "Green Lake",
    "neighborhoodGroup": "Northwest",
    "units": "E9 L9 M17"
  },
  {
    "id_str": "F200068149",
    "created_at": "7/12/2020 12:33:45 PM",
    "lat": 47.708935,
    "long": -122.320569,
    "timestamp": 1594582425000,
    "description": "Low Acuity Response",
    "address": "11050 8th Av Ne",
    "active": false,
    "unitCount": 1,
    "severity": 0,
    "neighborhood": "Northgate/Maple Leaf",
    "neighborhoodGroup": "North",
    "units": "E16"
  },
  {
    "id_str": "F200068147",
    "created_at": "7/12/2020 12:24:15 PM",
    "lat": 47.614788,
    "long": -122.342952,
    "timestamp": 1594581855000,
    "description": "Medic Response",
    "address": "2225 4th Av",
    "active": false,
    "unitCount": 2,
    "severity": 0,
    "neighborhood": "Cascade/Eastlake",
    "neighborhoodGroup": "Lake Union",
    "units": "L4 M1"
  },
  {
    "id_str": "F200068146",
    "created_at": "7/12/2020 12:22:15 PM",
    "lat": 47.692571,
    "long": -122.353952,
    "timestamp": 1594581735000,
    "description": "Aid Response",
    "address": "8727 Phinney Av N",
    "active": false,
    "unitCount": 1,
    "severity": 0,
    "neighborhood": "Greenwood/Phinney Ridge",
    "neighborhoodGroup": "Northwest",
    "units": "E35"
  },
  {
    "id_str": "F200068144",
    "created_at": "7/12/2020 12:15:53 PM",
    "lat": 47.613936,
    "long": -122.343494,
    "timestamp": 1594581353000,
    "description": "Aid Response",
    "address": "3rd Ave / Blanchard St",
    "active": false,
    "unitCount": 1,
    "severity": 0,
    "neighborhood": "Cascade/Eastlake",
    "neighborhoodGroup": "Lake Union",
    "units": "A4"
  },
  {
    "id_str": "F200068143",
    "created_at": "7/12/2020 12:13:46 PM",
    "lat": 47.512926,
    "long": -122.255861,
    "timestamp": 1594581226000,
    "description": "Low Acuity Response",
    "address": "9850 62nd Ave S",
    "active": false,
    "unitCount": 1,
    "severity": 0,
    "neighborhood": "Rainier Beach",
    "neighborhoodGroup": "Southeast",
    "units": "E33"
  },
  {
    "id_str": "F200068142",
    "created_at": "7/12/2020 12:11:57 PM",
    "lat": 47.715984,
    "long": -122.304498,
    "timestamp": 1594581117000,
    "description": "Aid Response",
    "address": "12045 23rd Ave Ne",
    "active": false,
    "unitCount": 1,
    "severity": 0,
    "neighborhood": "Olympic Hills/Victory Heights",
    "neighborhoodGroup": "North",
    "units": "A31"
  },
  {
    "id_str": "F200068139",
    "created_at": "7/12/2020 11:55:36 AM",
    "lat": 47.674538,
    "long": -122.367325,
    "timestamp": 1594580136000,
    "description": "Medic Response",
    "address": "847 Nw 63rd St",
    "active": false,
    "unitCount": 2,
    "severity": 0,
    "neighborhood": "Whittier Heights",
    "neighborhoodGroup": "Ballard",
    "units": "E21 M31"
  },
  {
    "id_str": "F200068138",
    "created_at": "7/12/2020 11:50:56 AM",
    "lat": 47.663341,
    "long": -122.297607,
    "timestamp": 1594579856000,
    "description": "Aid Response",
    "address": "2700 NE UNIVERSITY VILLAGE ST",
    "active": false,
    "unitCount": 1,
    "severity": 0,
    "neighborhood": "Ravenna/Bryant",
    "neighborhoodGroup": "Northeast",
    "units": "E31"
  },
  {
    "id_str": "F200068137",
    "created_at": "7/12/2020 11:44:00 AM",
    "timestamp": 1594579440000,
    "description": "Advised Incident",
    "address": "12725 1ST AVE S",
    "active": false,
    "unitCount": 1,
    "severity": 0,
    "units": "E24"
  },
  {
    "id_str": "F200068136",
    "created_at": "7/12/2020 11:36:00 AM",
    "lat": 47.538889,
    "long": -122.393088,
    "timestamp": 1594578960000,
    "description": "Medic Response",
    "address": "7124 47TH AV SW",
    "active": false,
    "unitCount": 2,
    "severity": 0,
    "neighborhood": "Fauntleroy/Seaview",
    "neighborhoodGroup": "Southwest",
    "units": "E32 M32"
  },
  {
    "id_str": "F200068135",
    "created_at": "7/12/2020 11:35:25 AM",
    "lat": 47.546685,
    "long": -122.307529,
    "timestamp": 1594578925000,
    "description": "Automatic Fire Alarm Resd",
    "address": "6312 Swift Ave S",
    "active": false,
    "unitCount": 1,
    "severity": 0,
    "neighborhood": "Beacon Hill",
    "neighborhoodGroup": "Greater Duwamish",
    "units": "E27"
  },
  {
    "id_str": "F200068134",
    "created_at": "7/12/2020 11:31:02 AM",
    "lat": 47.603246,
    "long": -122.318102,
    "timestamp": 1594578662000,
    "description": "Auto Fire Alarm",
    "address": "167 11th Av",
    "active": false,
    "unitCount": 2,
    "severity": 0,
    "neighborhood": "First Hill",
    "neighborhoodGroup": "East",
    "units": "E25 L10"
  },
  {
    "id_str": "F200068133",
    "created_at": "7/12/2020 11:30:08 AM",
    "lat": 47.687224,
    "long": -122.28421,
    "timestamp": 1594578608000,
    "description": "Aid Response",
    "address": "8043 41st Ave Ne",
    "active": false,
    "unitCount": 1,
    "severity": 0,
    "neighborhood": "Wedgwood/View Ridge",
    "neighborhoodGroup": "Northeast",
    "units": "E16"
  },
  {
    "id_str": "F200068131",
    "created_at": "7/12/2020 11:22:58 AM",
    "lat": 47.680459,
    "long": -122.297539,
    "timestamp": 1594578178000,
    "description": "Medic Response",
    "address": "7200 28th Ave Ne",
    "active": false,
    "unitCount": 2,
    "severity": 0,
    "neighborhood": "Ravenna/Bryant",
    "neighborhoodGroup": "Northeast",
    "units": "E38 M17"
  },
  {
    "id_str": "F200068126",
    "created_at": "7/12/2020 11:13:12 AM",
    "lat": 47.674538,
    "long": -122.367325,
    "timestamp": 1594577592000,
    "description": "Aid Response",
    "address": "847 Nw 63rd St",
    "active": false,
    "unitCount": 1,
    "severity": 0,
    "neighborhood": "Whittier Heights",
    "neighborhoodGroup": "Ballard",
    "units": "E21"
  },
  {
    "id_str": "F200068127",
    "created_at": "7/12/2020 11:11:33 AM",
    "lat": 47.733952,
    "long": -122.312749,
    "timestamp": 1594577493000,
    "description": "Aid Response",
    "address": "Ne 145th St/15th Ave Ne",
    "active": false,
    "unitCount": 1,
    "severity": 0,
    "units": "E39"
  },
  {
    "id_str": "F200068125",
    "created_at": "7/12/2020 11:10:45 AM",
    "lat": 47.535642,
    "long": -122.379647,
    "timestamp": 1594577445000,
    "description": "Aid Response",
    "address": "3728 Sw Webster St",
    "active": false,
    "unitCount": 1,
    "severity": 0,
    "neighborhood": "Fauntleroy/Seaview",
    "neighborhoodGroup": "Southwest",
    "units": "E37"
  },
  {
    "id_str": "F200068122",
    "created_at": "7/12/2020 10:59:30 AM",
    "lat": 47.640453,
    "long": -122.346334,
    "timestamp": 1594576770000,
    "description": "Medic Response",
    "address": "1911 Aurora Av N",
    "active": false,
    "unitCount": 2,
    "severity": 0,
    "neighborhood": "Queen Anne",
    "neighborhoodGroup": "Magnolia/Queen Anne",
    "units": "E8 M18"
  },
  {
    "id_str": "F200068121",
    "created_at": "7/12/2020 10:52:06 AM",
    "lat": 47.670187,
    "long": -122.388155,
    "timestamp": 1594576326000,
    "description": "Aid Response",
    "address": "2445 Nw 57th St",
    "active": false,
    "unitCount": 1,
    "severity": 0,
    "neighborhood": "Sunset Hill/Loyal Heights",
    "neighborhoodGroup": "Ballard",
    "units": "E18"
  },
  {
    "id_str": "F200068118",
    "created_at": "7/12/2020 10:44:32 AM",
    "lat": 47.679416,
    "long": -122.289983,
    "timestamp": 1594575872000,
    "description": "Aid Response",
    "address": "3536 Ne 70th St",
    "active": false,
    "unitCount": 1,
    "severity": 0,
    "neighborhood": "Wedgwood/View Ridge",
    "neighborhoodGroup": "Northeast",
    "units": "E38"
  },
  {
    "id_str": "F200068116",
    "created_at": "7/12/2020 10:40:26 AM",
    "lat": 47.571499,
    "long": -122.290999,
    "timestamp": 1594575626000,
    "description": "Low Acuity Response",
    "address": "3610 33rd Av S",
    "active": false,
    "unitCount": 1,
    "severity": 0,
    "neighborhood": "Columbia City",
    "neighborhoodGroup": "Southeast",
    "units": "E30"
  },
  {
    "id_str": "F200068115",
    "created_at": "7/12/2020 10:39:31 AM",
    "lat": 47.52197,
    "long": -122.27139,
    "timestamp": 1594575571000,
    "description": "Aid Response Yellow",
    "address": "9127 50th Ave S",
    "active": false,
    "unitCount": 1,
    "severity": 0,
    "neighborhood": "Rainier Beach",
    "neighborhoodGroup": "Southeast",
    "units": "E33"
  },
  {
    "id_str": "F200068114",
    "created_at": "7/12/2020 10:37:50 AM",
    "lat": 47.723166,
    "long": -122.326232,
    "timestamp": 1594575470000,
    "description": "Aid Response",
    "address": "13005 3rd Ave Ne",
    "active": false,
    "unitCount": 2,
    "severity": 0,
    "neighborhood": "Haller Lake",
    "neighborhoodGroup": "Northwest",
    "units": "A31 E24"
  },
  {
    "id_str": "F200068113",
    "created_at": "7/12/2020 10:31:20 AM",
    "lat": 47.660748,
    "long": -122.347391,
    "timestamp": 1594575080000,
    "description": "Tranformer Fire",
    "address": "SB SR99 AT N ALLEN PL / N ALLEN PL",
    "active": false,
    "unitCount": 1,
    "severity": 0,
    "neighborhood": "Fremont",
    "neighborhoodGroup": "Lake Union",
    "units": "E9"
  },
  {
    "id_str": "F200068112",
    "created_at": "7/12/2020 10:30:22 AM",
    "lat": 47.606982,
    "long": -122.326056,
    "timestamp": 1594575022000,
    "description": "Aid Response",
    "address": "801 9th Av",
    "active": false,
    "unitCount": 1,
    "severity": 0,
    "neighborhood": "First Hill",
    "neighborhoodGroup": "East",
    "units": "A5"
  },
  {
    "id_str": "F200068110",
    "created_at": "7/12/2020 10:10:31 AM",
    "lat": 47.66707,
    "long": -122.301946,
    "timestamp": 1594573831000,
    "description": "Aid Response",
    "address": "5300 24th Av Ne",
    "active": false,
    "unitCount": 1,
    "severity": 0,
    "neighborhood": "Ravenna/Bryant",
    "neighborhoodGroup": "Northeast",
    "units": "E38"
  },
  {
    "id_str": "F200068107",
    "created_at": "7/12/2020 10:01:39 AM",
    "lat": 47.599999,
    "long": -122.307661,
    "timestamp": 1594573299000,
    "description": "Illegal Burn",
    "address": "1900 S Main St",
    "active": false,
    "unitCount": 1,
    "severity": 0,
    "neighborhood": "Judkins Park",
    "neighborhoodGroup": "Central",
    "units": "E6"
  },
  {
    "id_str": "F200068106",
    "created_at": "7/12/2020 9:54:54 AM",
    "lat": 47.562827,
    "long": -122.365476,
    "timestamp": 1594572894000,
    "description": "Car Fire",
    "address": "4509 26th Ave Sw",
    "active": false,
    "unitCount": 1,
    "severity": 0,
    "neighborhood": "North Delridge",
    "neighborhoodGroup": "Delridge Neighborhoods",
    "units": "E32"
  },
  {
    "id_str": "F200068105",
    "created_at": "7/12/2020 9:53:08 AM",
    "lat": 47.693931,
    "long": -122.30552,
    "timestamp": 1594572788000,
    "description": "Low Acuity Response",
    "address": "9001 LAKE CITY WAY NE",
    "active": false,
    "unitCount": 1,
    "severity": 0,
    "neighborhood": "Wedgwood/View Ridge",
    "neighborhoodGroup": "Northeast",
    "units": "E16"
  },
  {
    "id_str": "F200068103",
    "created_at": "7/12/2020 9:42:12 AM",
    "lat": 47.540654,
    "long": -122.286239,
    "timestamp": 1594572132000,
    "description": "Auto Fire Alarm",
    "address": "6900 37th Av S",
    "active": false,
    "unitCount": 2,
    "severity": 0,
    "neighborhood": "South Beacon Hill/NewHolly",
    "neighborhoodGroup": "Greater Duwamish",
    "units": "E28 L12"
  },
  {
    "id_str": "F200068102",
    "created_at": "7/12/2020 9:38:45 AM",
    "lat": 47.5212,
    "long": -122.336229,
    "timestamp": 1594571925000,
    "description": "Aid Response",
    "address": "9203 2nd Ave Sw",
    "active": false,
    "unitCount": 1,
    "severity": 0,
    "units": "E11"
  },
  {
    "id_str": "F200068100",
    "created_at": "7/12/2020 9:29:33 AM",
    "lat": 47.721355,
    "long": -122.300493,
    "timestamp": 1594571373000,
    "description": "Aid Response",
    "address": "12740 26th Ave Ne",
    "active": false,
    "unitCount": 1,
    "severity": 0,
    "neighborhood": "Olympic Hills/Victory Heights",
    "neighborhoodGroup": "North",
    "units": "L5"
  },
  {
    "id_str": "F200068099",
    "created_at": "7/12/2020 9:22:23 AM",
    "lat": 47.604413,
    "long": -122.329842,
    "timestamp": 1594570943000,
    "description": "Auto Fire Alarm",
    "address": "700 5th Av",
    "active": false,
    "unitCount": 2,
    "severity": 0,
    "neighborhood": "First Hill",
    "neighborhoodGroup": "East",
    "units": "E10 L1"
  },
  {
    "id_str": "F200068098",
    "created_at": "7/12/2020 9:21:56 AM",
    "lat": 47.584234,
    "long": -122.299024,
    "timestamp": 1594570916000,
    "description": "Auto Fire Alarm",
    "address": "2121 26th Av S",
    "active": false,
    "unitCount": 2,
    "severity": 0,
    "neighborhood": "Mt. Baker/North Rainier",
    "neighborhoodGroup": "Southeast",
    "units": "E30 L3"
  },
  {
    "id_str": "F200068095",
    "created_at": "7/12/2020 9:08:22 AM",
    "lat": 47.612716,
    "long": -122.345399,
    "timestamp": 1594570102000,
    "description": "Auto Fire Alarm",
    "address": "2215 1st Av",
    "active": false,
    "unitCount": 2,
    "severity": 0,
    "neighborhood": "Belltown",
    "neighborhoodGroup": "Downtown",
    "units": "E2 L1"
  },
  {
    "id_str": "F200068094",
    "created_at": "7/12/2020 9:05:50 AM",
    "lat": 47.712611,
    "long": -122.319289,
    "timestamp": 1594569950000,
    "description": "Aid Response Yellow",
    "address": "11545 9th Ave Ne",
    "active": false,
    "unitCount": 1,
    "severity": 0,
    "neighborhood": "Haller Lake",
    "neighborhoodGroup": "Northwest",
    "units": "E39"
  },
  {
    "id_str": "F200068093",
    "created_at": "7/12/2020 8:53:48 AM",
    "lat": 47.643417,
    "long": -122.308528,
    "timestamp": 1594569228000,
    "description": "MVI - Motor Vehicle Incident",
    "address": "Eb Sr520 At Montlake",
    "active": false,
    "unitCount": 3,
    "severity": 0,
    "neighborhood": "Montlake/Portage Bay",
    "neighborhoodGroup": "Northeast",
    "units": "A25 E17 E31"
  },
  {
    "id_str": "F200068092",
    "created_at": "7/12/2020 8:47:18 AM",
    "lat": 47.672451,
    "long": -122.28084,
    "timestamp": 1594568838000,
    "description": "Automatic Fire Alarm Resd",
    "address": "6034 44th Ave Ne",
    "active": false,
    "unitCount": 1,
    "severity": 0,
    "neighborhood": "Ravenna/Bryant",
    "neighborhoodGroup": "Northeast",
    "units": "E38"
  },
  {
    "id_str": "F200068090",
    "created_at": "7/12/2020 8:12:36 AM",
    "lat": 47.561082,
    "long": -122.380063,
    "timestamp": 1594566756000,
    "description": "Aid Response",
    "address": "4700 38th Av Sw",
    "active": false,
    "unitCount": 1,
    "severity": 0,
    "neighborhood": "West Seattle Junction/Genesee Hill",
    "neighborhoodGroup": "Southwest",
    "units": "E32"
  },
  {
    "id_str": "F200068089",
    "created_at": "7/12/2020 8:07:37 AM",
    "lat": 47.612578,
    "long": -122.341197,
    "timestamp": 1594566457000,
    "description": "Aid Response",
    "address": "2024 3rd Av",
    "active": false,
    "unitCount": 1,
    "severity": 0,
    "neighborhood": "Cascade/Eastlake",
    "neighborhoodGroup": "Lake Union",
    "units": "E2"
  },
  {
    "id_str": "F200068086",
    "created_at": "7/12/2020 7:59:20 AM",
    "lat": 47.656566,
    "long": -122.356467,
    "timestamp": 1594565960000,
    "description": "Illegal Burn",
    "address": "4116 PALATINE AVE N",
    "active": false,
    "unitCount": 1,
    "severity": 0,
    "neighborhood": "Fremont",
    "neighborhoodGroup": "Lake Union",
    "units": "E9"
  },
  {
    "id_str": "F200068085",
    "created_at": "7/12/2020 7:53:46 AM",
    "lat": 47.622394,
    "long": -122.356727,
    "timestamp": 1594565626000,
    "description": "Medic Response, 7 per Rule",
    "address": "425 Queen Anne Av N",
    "active": false,
    "unitCount": 3,
    "severity": 0,
    "neighborhood": "Queen Anne",
    "neighborhoodGroup": "Magnolia/Queen Anne",
    "units": "A2 E8 M10"
  },
  {
    "id_str": "F200068084",
    "created_at": "7/12/2020 7:44:05 AM",
    "lat": 47.712167,
    "long": -122.312433,
    "timestamp": 1594565045000,
    "description": "Aid Response",
    "address": "11501 15th Av Ne",
    "active": false,
    "unitCount": 1,
    "severity": 0,
    "neighborhood": "Olympic Hills/Victory Heights",
    "neighborhoodGroup": "North",
    "units": "E39"
  },
  {
    "id_str": "F200068082",
    "created_at": "7/12/2020 7:37:16 AM",
    "lat": 47.705096,
    "long": -122.344695,
    "timestamp": 1594564636000,
    "description": "Aid Response",
    "address": "10507 Aurora Av N",
    "active": false,
    "unitCount": 1,
    "severity": 0,
    "neighborhood": "Licton Springs",
    "neighborhoodGroup": "Northwest",
    "units": "E24"
  },
  {
    "id_str": "F200068081",
    "created_at": "7/12/2020 7:36:22 AM",
    "lat": 47.637705,
    "long": -122.388485,
    "timestamp": 1594564582000,
    "description": "Aid Response",
    "address": "2100 Thorndyke Av W",
    "active": false,
    "unitCount": 1,
    "severity": 0,
    "neighborhood": "Interbay",
    "neighborhoodGroup": "Magnolia/Queen Anne",
    "units": "E41"
  },
  {
    "id_str": "F200068079",
    "created_at": "7/12/2020 7:27:57 AM",
    "lat": 47.614115,
    "long": -122.313693,
    "timestamp": 1594564077000,
    "description": "Aid Response",
    "address": "E Pike St / E Madison St",
    "active": false,
    "unitCount": 1,
    "severity": 0,
    "neighborhood": "Capitol Hill",
    "neighborhoodGroup": "East",
    "units": "A25"
  },
  {
    "id_str": "F200068078",
    "created_at": "7/12/2020 7:14:19 AM",
    "lat": 47.66158,
    "long": -122.310854,
    "timestamp": 1594563259000,
    "description": "Aid Response",
    "address": "4536 16th Av Ne",
    "active": false,
    "unitCount": 1,
    "severity": 0,
    "neighborhood": "University District",
    "neighborhoodGroup": "Northeast",
    "units": "E17"
  },
  {
    "id_str": "F200068072",
    "created_at": "7/12/2020 6:15:31 AM",
    "lat": 47.511052,
    "long": -122.246577,
    "timestamp": 1594559731000,
    "description": "MVI - Motor Vehicle Incident",
    "address": "Rainier Ave S / Cornell Ave S",
    "active": false,
    "unitCount": 1,
    "severity": 0,
    "neighborhood": "Rainier Beach",
    "neighborhoodGroup": "Southeast",
    "units": "E33"
  },
  {
    "id_str": "F200068070",
    "created_at": "7/12/2020 6:00:53 AM",
    "lat": 47.55041,
    "long": -122.260662,
    "timestamp": 1594558853000,
    "description": "Aid Response",
    "address": "5830 Seward Park Av S",
    "active": false,
    "unitCount": 1,
    "severity": 0,
    "neighborhood": "Seward Park",
    "neighborhoodGroup": "Southeast",
    "units": "E28"
  },
  {
    "id_str": "F200068069",
    "created_at": "7/12/2020 5:57:18 AM",
    "lat": 47.667912,
    "long": -122.363813,
    "timestamp": 1594558638000,
    "description": "Aid Response",
    "address": "637 Nw 54th St",
    "active": false,
    "unitCount": 1,
    "severity": 0,
    "neighborhood": "Fremont",
    "neighborhoodGroup": "Lake Union",
    "units": "E18"
  },
  {
    "id_str": "F200068068",
    "created_at": "7/12/2020 5:49:36 AM",
    "lat": 47.699646,
    "long": -122.354052,
    "timestamp": 1594558176000,
    "description": "Aid Response",
    "address": "N 97th St / Phinney Ave N",
    "active": false,
    "unitCount": 1,
    "severity": 0,
    "neighborhood": "Greenwood/Phinney Ridge",
    "neighborhoodGroup": "Northwest",
    "units": "E21"
  },
  {
    "id_str": "F200068067",
    "created_at": "7/12/2020 5:47:07 AM",
    "lat": 47.60828,
    "long": -122.334742,
    "timestamp": 1594558027000,
    "description": "Aid Response",
    "address": "411 University St",
    "active": false,
    "unitCount": 1,
    "severity": 0,
    "neighborhood": "Downtown Commercial Core",
    "neighborhoodGroup": "Downtown",
    "units": "A10"
  },
  {
    "id_str": "F200068066",
    "created_at": "7/12/2020 5:39:16 AM",
    "lat": 47.60171,
    "long": -122.326351,
    "timestamp": 1594557556000,
    "description": "Rubbish Fire",
    "address": "6th Ave / Yesler Way",
    "active": false,
    "unitCount": 2,
    "severity": 0,
    "neighborhood": "Pioneer Square/International District",
    "neighborhoodGroup": "Downtown",
    "units": "E5 MAR5"
  },
  {
    "id_str": "F200068064",
    "created_at": "7/12/2020 5:28:50 AM",
    "lat": 47.607742,
    "long": -122.326595,
    "timestamp": 1594556930000,
    "description": "Auto Fire Alarm",
    "address": "910 Marion St",
    "active": false,
    "unitCount": 3,
    "severity": 0,
    "neighborhood": "First Hill",
    "neighborhoodGroup": "East",
    "units": "E10 L1 MAR5"
  },
  {
    "id_str": "F200068063",
    "created_at": "7/12/2020 5:25:05 AM",
    "lat": 47.614447,
    "long": -122.316841,
    "timestamp": 1594556705000,
    "description": "Aid Response",
    "address": "1530 12TH AV",
    "active": false,
    "unitCount": 1,
    "severity": 0,
    "neighborhood": "Capitol Hill",
    "neighborhoodGroup": "East",
    "units": "A25"
  },
  {
    "id_str": "F200068062",
    "created_at": "7/12/2020 5:25:00 AM",
    "lat": 47.721579,
    "long": -122.362306,
    "timestamp": 1594556700000,
    "description": "Aid Response",
    "address": "12721 4th Ave Nw",
    "active": false,
    "unitCount": 1,
    "severity": 0,
    "neighborhood": "Broadview/Bitter Lake",
    "neighborhoodGroup": "Northwest",
    "units": "E24"
  },
  {
    "id_str": "F200068060",
    "created_at": "7/12/2020 4:53:07 AM",
    "lat": 47.669446,
    "long": -122.37945,
    "timestamp": 1594554787000,
    "description": "Aid Response",
    "address": "1753 Nw 56th St",
    "active": false,
    "unitCount": 1,
    "severity": 0,
    "neighborhood": "Ballard",
    "neighborhoodGroup": "Ballard",
    "units": "E18"
  },
  {
    "id_str": "F200068059",
    "created_at": "7/12/2020 4:52:03 AM",
    "lat": 47.643546,
    "long": -122.388937,
    "timestamp": 1594554723000,
    "description": "Aid Response",
    "address": "2615 25th Ave W",
    "active": false,
    "unitCount": 1,
    "severity": 0,
    "neighborhood": "Interbay",
    "neighborhoodGroup": "Magnolia/Queen Anne",
    "units": "E41"
  },
  {
    "id_str": "F200068058",
    "created_at": "7/12/2020 4:49:49 AM",
    "lat": 47.566317,
    "long": -122.279517,
    "timestamp": 1594554589000,
    "description": "Scenes Of Violence 7",
    "address": "4021 43rd Ave S",
    "active": false,
    "unitCount": 5,
    "severity": 1,
    "neighborhood": "Columbia City",
    "neighborhoodGroup": "Southeast",
    "units": "B5 E28 L12 M28 M44"
  },
  {
    "id_str": "F200068057",
    "created_at": "7/12/2020 4:48:34 AM",
    "lat": 47.548239,
    "long": -122.380423,
    "timestamp": 1594554514000,
    "description": "Aid Response",
    "address": "6026 38th Ave Sw",
    "active": false,
    "unitCount": 1,
    "severity": 0,
    "neighborhood": "Fauntleroy/Seaview",
    "neighborhoodGroup": "Southwest",
    "units": "E32"
  },
  {
    "id_str": "F200068056",
    "created_at": "7/12/2020 4:24:47 AM",
    "lat": 47.605387,
    "long": -122.327511,
    "timestamp": 1594553087000,
    "description": "Aid Response",
    "address": "710 Cherry St",
    "active": false,
    "unitCount": 1,
    "severity": 0,
    "neighborhood": "First Hill",
    "neighborhoodGroup": "East",
    "units": "A5"
  },
  {
    "id_str": "F200068055",
    "created_at": "7/12/2020 4:21:47 AM",
    "lat": 47.616827,
    "long": -122.345996,
    "timestamp": 1594552907000,
    "description": "Alarm Bell",
    "address": "420 Wall St",
    "active": false,
    "unitCount": 2,
    "severity": 0,
    "neighborhood": "Cascade/Eastlake",
    "neighborhoodGroup": "Lake Union",
    "units": "E2 L4"
  },
  {
    "id_str": "F200068054",
    "created_at": "7/12/2020 4:15:03 AM",
    "lat": 47.600843,
    "long": -122.330271,
    "timestamp": 1594552503000,
    "description": "Medic Response, 7 per Rule",
    "address": "204 3RD AV S",
    "active": false,
    "unitCount": 3,
    "severity": 0,
    "neighborhood": "Pioneer Square/International District",
    "neighborhoodGroup": "Downtown",
    "units": "A10 E10 M1"
  },
  {
    "id_str": "F200068052",
    "created_at": "7/12/2020 4:13:08 AM",
    "lat": 47.617908,
    "long": -122.34823,
    "timestamp": 1594552388000,
    "description": "Aid Response",
    "address": "2721 4th Av",
    "active": false,
    "unitCount": 1,
    "severity": 0,
    "neighborhood": "Cascade/Eastlake",
    "neighborhoodGroup": "Lake Union",
    "units": "A2"
  },
  {
    "id_str": "F200068051",
    "created_at": "7/12/2020 4:12:42 AM",
    "lat": 47.62763,
    "long": -122.356686,
    "timestamp": 1594552362000,
    "description": "Low Acuity Response",
    "address": "915 Queen Anne Av N",
    "active": false,
    "unitCount": 1,
    "severity": 0,
    "neighborhood": "Queen Anne",
    "neighborhoodGroup": "Magnolia/Queen Anne",
    "units": "E8"
  },
  {
    "id_str": "F200068050",
    "created_at": "7/12/2020 4:11:39 AM",
    "lat": 47.659771,
    "long": -122.3472,
    "timestamp": 1594552299000,
    "description": "1RED 1 Unit",
    "address": "4320 Aurora Ave N",
    "active": false,
    "unitCount": 1,
    "severity": 0,
    "neighborhood": "Wallingford",
    "neighborhoodGroup": "Lake Union",
    "units": "E9"
  },
  {
    "id_str": "F200068049",
    "created_at": "7/12/2020 4:04:36 AM",
    "lat": 47.598331,
    "long": -122.313407,
    "timestamp": 1594551876000,
    "description": "Dumpster Fire",
    "address": "Rainier Ave S / S King St",
    "active": false,
    "unitCount": 2,
    "severity": 0,
    "neighborhood": "Judkins Park",
    "neighborhoodGroup": "Central",
    "units": "E6 MAR5"
  },
  {
    "id_str": "F200068044",
    "created_at": "7/12/2020 3:27:21 AM",
    "lat": 47.624008,
    "long": -122.293133,
    "timestamp": 1594549641000,
    "description": "Aid Response",
    "address": "527 30th Ave E",
    "active": false,
    "unitCount": 1,
    "severity": 0,
    "neighborhood": "Central Area/Squire Park",
    "neighborhoodGroup": "Central",
    "units": "E34"
  },
  {
    "id_str": "F200068042",
    "created_at": "7/12/2020 3:20:47 AM",
    "lat": 47.690184,
    "long": -122.284956,
    "timestamp": 1594549247000,
    "description": "Aid Response",
    "address": "4038 Ne 85th St",
    "active": false,
    "unitCount": 2,
    "severity": 0,
    "neighborhood": "Wedgwood/View Ridge",
    "neighborhoodGroup": "Northeast",
    "units": "E40 M31"
  },
  {
    "id_str": "F200068041",
    "created_at": "7/12/2020 3:20:41 AM",
    "lat": 47.592134,
    "long": -122.291432,
    "timestamp": 1594549241000,
    "description": "Aid Response",
    "address": "3201 S Judkins St",
    "active": false,
    "unitCount": 1,
    "severity": 0,
    "neighborhood": "Madrona/Leschi",
    "neighborhoodGroup": "Central",
    "units": "E6"
  },
  {
    "id_str": "F200068039",
    "created_at": "7/12/2020 3:18:46 AM",
    "lat": 47.60916,
    "long": -122.33264,
    "timestamp": 1594549126000,
    "description": "Aid Response",
    "address": "1301 6th Av",
    "active": false,
    "unitCount": 1,
    "severity": 0,
    "neighborhood": "First Hill",
    "neighborhoodGroup": "East",
    "units": "A5"
  },
  {
    "id_str": "F200068036",
    "created_at": "7/12/2020 3:12:50 AM",
    "lat": 47.604615,
    "long": -122.32228,
    "timestamp": 1594548770000,
    "description": "Low Acuity Response",
    "address": "1005 Terrace St",
    "active": false,
    "unitCount": 1,
    "severity": 0,
    "neighborhood": "First Hill",
    "neighborhoodGroup": "East",
    "units": "A10"
  },
  {
    "id_str": "F200068035",
    "created_at": "7/12/2020 3:02:43 AM",
    "lat": 47.635238,
    "long": -122.340447,
    "timestamp": 1594548163000,
    "description": "Aid Response",
    "address": "1818 Westlake Av N",
    "active": false,
    "unitCount": 1,
    "severity": 0,
    "neighborhood": "Queen Anne",
    "neighborhoodGroup": "Magnolia/Queen Anne",
    "units": "A2"
  },
  {
    "id_str": "F200068034",
    "created_at": "7/12/2020 2:54:06 AM",
    "lat": 47.603682,
    "long": -122.319409,
    "timestamp": 1594547646000,
    "description": "Aid Response",
    "address": "220 10th Ave",
    "active": false,
    "unitCount": 1,
    "severity": 0,
    "neighborhood": "First Hill",
    "neighborhoodGroup": "East",
    "units": "A5"
  },
  {
    "id_str": "F200068033",
    "created_at": "7/12/2020 2:52:27 AM",
    "lat": 47.727791,
    "long": -122.347725,
    "timestamp": 1594547547000,
    "description": "Aid Response",
    "address": "13530 Linden Av N",
    "active": false,
    "unitCount": 1,
    "severity": 0,
    "neighborhood": "Broadview/Bitter Lake",
    "neighborhoodGroup": "Northwest",
    "units": "E24"
  },
  {
    "id_str": "F200068032",
    "created_at": "7/12/2020 2:40:19 AM",
    "lat": 47.722975,
    "long": -122.288422,
    "timestamp": 1594546819000,
    "description": "Medic Response",
    "address": "3716 Ne 130th St",
    "active": false,
    "unitCount": 2,
    "severity": 0,
    "neighborhood": "Cedar Park/Meadowbrook",
    "neighborhoodGroup": "North",
    "units": "E39 M17"
  },
  {
    "id_str": "F200068031",
    "created_at": "7/12/2020 2:37:13 AM",
    "lat": 47.614238,
    "long": -122.326818,
    "timestamp": 1594546633000,
    "description": "Medic Response",
    "address": "1514 Bellevue Av",
    "active": false,
    "unitCount": 2,
    "severity": 0,
    "neighborhood": "Capitol Hill",
    "neighborhoodGroup": "East",
    "units": "A25 M10"
  },
  {
    "id_str": "F200068030",
    "created_at": "7/12/2020 2:29:46 AM",
    "lat": 47.690681,
    "long": -122.344523,
    "timestamp": 1594546186000,
    "description": "Aid Response",
    "address": "8517 Aurora Av N",
    "active": false,
    "unitCount": 1,
    "severity": 0,
    "neighborhood": "Licton Springs",
    "neighborhoodGroup": "Northwest",
    "units": "E21"
  },
  {
    "id_str": "F200068029",
    "created_at": "7/12/2020 2:25:17 AM",
    "lat": 47.53374,
    "long": -122.347059,
    "timestamp": 1594545917000,
    "description": "Aid Response",
    "address": "Highland Park Way Sw / Sw Holden St",
    "active": false,
    "unitCount": 1,
    "severity": 0,
    "neighborhood": "Highland Park",
    "neighborhoodGroup": "Delridge Neighborhoods",
    "units": "E11"
  },
  {
    "id_str": "F200068028",
    "created_at": "7/12/2020 2:21:00 AM",
    "lat": 47.645803,
    "long": -122.360896,
    "timestamp": 1594545660000,
    "description": "Aid Response",
    "address": "2900 3rd Av W",
    "active": false,
    "unitCount": 1,
    "severity": 0,
    "neighborhood": "Queen Anne",
    "neighborhoodGroup": "Magnolia/Queen Anne",
    "units": "E9"
  },
  {
    "id_str": "F200068027",
    "created_at": "7/12/2020 2:07:54 AM",
    "lat": 47.497416,
    "long": -122.261062,
    "timestamp": 1594544874000,
    "description": "Automatic Fire Alarm Resd",
    "address": "11803 57th Ave S",
    "active": false,
    "unitCount": 1,
    "severity": 0,
    "neighborhood": "Rainier Beach",
    "neighborhoodGroup": "Southeast",
    "units": "E33"
  },
  {
    "id_str": "F200068024",
    "created_at": "7/12/2020 1:57:28 AM",
    "lat": 47.674663,
    "long": -122.323407,
    "timestamp": 1594544248000,
    "description": "Aid Response",
    "address": "6341 5th Av Ne",
    "active": false,
    "unitCount": 1,
    "severity": 0,
    "neighborhood": "Green Lake",
    "neighborhoodGroup": "Northwest",
    "units": "E16"
  },
  {
    "id_str": "F200068023",
    "created_at": "7/12/2020 1:53:27 AM",
    "lat": 47.599968,
    "long": -122.328965,
    "timestamp": 1594544007000,
    "description": "Aid Response",
    "address": "308 4th Av S",
    "active": false,
    "unitCount": 1,
    "severity": 0,
    "neighborhood": "Pioneer Square/International District",
    "neighborhoodGroup": "Downtown",
    "units": "A10"
  },
  {
    "id_str": "F200068019",
    "created_at": "7/12/2020 1:22:22 AM",
    "lat": 47.559261,
    "long": -122.378845,
    "timestamp": 1594542142000,
    "description": "Aid Response",
    "address": "4800 37th Av Sw",
    "active": false,
    "unitCount": 1,
    "severity": 0,
    "neighborhood": "West Seattle Junction/Genesee Hill",
    "neighborhoodGroup": "Southwest",
    "units": "E32"
  },
  {
    "id_str": "F200068017",
    "created_at": "7/12/2020 1:08:58 AM",
    "lat": 47.52079,
    "long": -122.376771,
    "timestamp": 1594541338000,
    "description": "Aid Response",
    "address": "9231 35th Av Sw",
    "active": false,
    "unitCount": 1,
    "severity": 0,
    "neighborhood": "Roxhill/Westwood",
    "neighborhoodGroup": "Delridge Neighborhoods",
    "units": "L13"
  },
  {
    "id_str": "F200068015",
    "created_at": "7/12/2020 12:53:17 AM",
    "lat": 47.608051,
    "long": -122.339309,
    "timestamp": 1594540397000,
    "description": "Aid Response",
    "address": "1423 1st Av",
    "active": false,
    "unitCount": 1,
    "severity": 0,
    "neighborhood": "Downtown Commercial Core",
    "neighborhoodGroup": "Downtown",
    "units": "E5"
  },
  {
    "id_str": "F200068014",
    "created_at": "7/12/2020 12:51:09 AM",
    "lat": 47.614317,
    "long": -122.316839,
    "timestamp": 1594540269000,
    "description": "Aid Response",
    "address": "1519 12th Av",
    "active": false,
    "unitCount": 1,
    "severity": 0,
    "neighborhood": "Capitol Hill",
    "neighborhoodGroup": "East",
    "units": "A25"
  },
  {
    "id_str": "F200068013",
    "created_at": "7/12/2020 12:48:43 AM",
    "lat": 47.539605,
    "long": -122.387273,
    "timestamp": 1594540123000,
    "description": "Aid Response",
    "address": "7130 California Av Sw",
    "active": false,
    "unitCount": 1,
    "severity": 0,
    "neighborhood": "Fauntleroy/Seaview",
    "neighborhoodGroup": "Southwest",
    "units": "E37"
  },
  {
    "id_str": "F200068012",
    "created_at": "7/12/2020 12:47:18 AM",
    "lat": 47.661285,
    "long": -122.315442,
    "timestamp": 1594540038000,
    "description": "Aid Response",
    "address": "4501 12th Av Ne",
    "active": false,
    "unitCount": 1,
    "severity": 0,
    "neighborhood": "University District",
    "neighborhoodGroup": "Northeast",
    "units": "E31"
  },
  {
    "id_str": "F200068011",
    "created_at": "7/12/2020 12:43:59 AM",
    "lat": 47.560119,
    "long": -122.385486,
    "timestamp": 1594539839000,
    "description": "Aid Response",
    "address": "4754 42nd Av Sw",
    "active": false,
    "unitCount": 1,
    "severity": 0,
    "neighborhood": "West Seattle Junction/Genesee Hill",
    "neighborhoodGroup": "Southwest",
    "units": "E32"
  },
  {
    "id_str": "F200068010",
    "created_at": "7/12/2020 12:42:33 AM",
    "lat": 47.69429,
    "long": -122.35534,
    "timestamp": 1594539753000,
    "description": "Auto Fire Alarm",
    "address": "9009 Greenwood Av N",
    "active": false,
    "unitCount": 2,
    "severity": 0,
    "neighborhood": "Greenwood/Phinney Ridge",
    "neighborhoodGroup": "Northwest",
    "units": "E24 L8"
  },
  {
    "id_str": "F200068006",
    "created_at": "7/12/2020 12:32:35 AM",
    "lat": 47.657811,
    "long": -122.38594,
    "timestamp": 1594539155000,
    "description": "Brush Fire",
    "address": "4221 23rd Av W",
    "active": false,
    "unitCount": 1,
    "severity": 0,
    "neighborhood": "Interbay",
    "neighborhoodGroup": "Magnolia/Queen Anne",
    "units": "E20"
  },
  {
    "id_str": "F200068003",
    "created_at": "7/12/2020 12:25:11 AM",
    "lat": 47.691874,
    "long": -122.371401,
    "timestamp": 1594538711000,
    "description": "Aid Response",
    "address": "8717 12th Ave Nw",
    "active": false,
    "unitCount": 1,
    "severity": 0,
    "neighborhood": "Greenwood/Phinney Ridge",
    "neighborhoodGroup": "Northwest",
    "units": "E21"
  },
  {
    "id_str": "F200068000",
    "created_at": "7/12/2020 12:12:10 AM",
    "lat": 47.544424,
    "long": -122.354892,
    "timestamp": 1594537930000,
    "description": "2RED - 1 + 1",
    "address": "6532 16th Ave Sw",
    "active": false,
    "unitCount": 19,
    "severity": 2,
    "neighborhood": "Riverview",
    "neighborhoodGroup": "Delridge Neighborhoods",
    "units": "A14 AIR10 B5 B7 DEP1 E11 E29 E32 E36 E37 L11 L13 M32 M44 MAR5 R1 REHAB1 SAFT2 STAF10"
  },
  {
    "id_str": "F200067999",
    "created_at": "7/12/2020 12:10:38 AM",
    "lat": 47.616385,
    "long": -122.335736,
    "timestamp": 1594537838000,
    "description": "Aid Response",
    "address": "9th Ave / Virginia St",
    "active": false,
    "unitCount": 1,
    "severity": 0,
    "neighborhood": "Cascade/Eastlake",
    "neighborhoodGroup": "Lake Union",
    "units": "A2"
  },
  {
    "id_str": "F200067998",
    "created_at": "7/12/2020 12:00:50 AM",
    "lat": 47.602683,
    "long": -122.314886,
    "timestamp": 1594537250000,
    "description": "Auto Fire Alarm",
    "address": "1305 E Fir St",
    "active": false,
    "unitCount": 2,
    "severity": 0,
    "neighborhood": "First Hill",
    "neighborhoodGroup": "East",
    "units": "E6 L3"
  },
  {
    "id_str": "F200067997",
    "created_at": "7/11/2020 11:47:09 PM",
    "lat": 47.706507,
    "long": -122.374088,
    "timestamp": 1594536429000,
    "description": "Medic Response",
    "address": "10556 14th Ave Nw",
    "active": false,
    "unitCount": 2,
    "severity": 0,
    "neighborhood": "North Beach/Blue Ridge",
    "neighborhoodGroup": "Ballard",
    "units": "E35 M18"
  },
  {
    "id_str": "F200067995",
    "created_at": "7/11/2020 11:45:58 PM",
    "lat": 47.690203,
    "long": -122.290714,
    "timestamp": 1594536358000,
    "description": "MVI - Motor Vehicle Incident",
    "address": "35th Ave Ne / Ne 85th St",
    "active": false,
    "unitCount": 1,
    "severity": 0,
    "neighborhood": "Wedgwood/View Ridge",
    "neighborhoodGroup": "Northeast",
    "units": "E40"
  },
  {
    "id_str": "F200067993",
    "created_at": "7/11/2020 11:30:27 PM",
    "lat": 47.615877,
    "long": -122.35052,
    "timestamp": 1594535427000,
    "description": "Aid Response",
    "address": "111 Cedar St",
    "active": false,
    "unitCount": 1,
    "severity": 0,
    "neighborhood": "Belltown",
    "neighborhoodGroup": "Downtown",
    "units": "A2"
  },
  {
    "id_str": "F200067990",
    "created_at": "7/11/2020 11:11:03 PM",
    "lat": 47.712305,
    "long": -122.339596,
    "timestamp": 1594534263000,
    "description": "Medic Response",
    "address": "1550 N 115th St",
    "active": false,
    "unitCount": 3,
    "severity": 0,
    "neighborhood": "Haller Lake",
    "neighborhoodGroup": "Northwest",
    "units": "E24 M18 M31"
  },
  {
    "id_str": "F200067989",
    "created_at": "7/11/2020 11:01:05 PM",
    "lat": 47.538591,
    "long": -122.322567,
    "timestamp": 1594533665000,
    "description": "Illegal Burn",
    "address": "7135 8th Av S",
    "active": false,
    "unitCount": 1,
    "severity": 0,
    "neighborhood": "Georgetown",
    "neighborhoodGroup": "Greater Duwamish",
    "units": "E27"
  },
  {
    "id_str": "F200067988",
    "created_at": "7/11/2020 10:50:51 PM",
    "lat": 47.652146,
    "long": -122.388793,
    "timestamp": 1594533051000,
    "description": "1RED 1 Unit",
    "address": "3600 26th Pl W",
    "active": false,
    "unitCount": 1,
    "severity": 0,
    "neighborhood": "Interbay",
    "neighborhoodGroup": "Magnolia/Queen Anne",
    "units": "E20"
  },
  {
    "id_str": "F200067987",
    "created_at": "7/11/2020 10:38:49 PM",
    "lat": 47.732151,
    "long": -122.315418,
    "timestamp": 1594532329000,
    "description": "Aid Response",
    "address": "1200 Ne 143rd St",
    "active": false,
    "unitCount": 1,
    "severity": 0,
    "neighborhood": "Olympic Hills/Victory Heights",
    "neighborhoodGroup": "North",
    "units": "L5"
  },
  {
    "id_str": "F200067986",
    "created_at": "7/11/2020 10:31:56 PM",
    "lat": 47.706872,
    "long": -122.339021,
    "timestamp": 1594531916000,
    "description": "Medic Response",
    "address": "1535 N 107th St",
    "active": false,
    "unitCount": 2,
    "severity": 0,
    "neighborhood": "Haller Lake",
    "neighborhoodGroup": "Northwest",
    "units": "E24 M17"
  },
  {
    "id_str": "F200067985",
    "created_at": "7/11/2020 10:24:05 PM",
    "lat": 47.62763,
    "long": -122.356686,
    "timestamp": 1594531445000,
    "description": "Low Acuity Response",
    "address": "915 Queen Anne Av N",
    "active": false,
    "unitCount": 1,
    "severity": 0,
    "neighborhood": "Queen Anne",
    "neighborhoodGroup": "Magnolia/Queen Anne",
    "units": "E8"
  },
  {
    "id_str": "F200067984",
    "created_at": "7/11/2020 10:14:20 PM",
    "lat": 47.623414,
    "long": -122.323054,
    "timestamp": 1594530860000,
    "description": "Medic Response",
    "address": "525 Boylston Ave E",
    "active": false,
    "unitCount": 2,
    "severity": 0,
    "neighborhood": "Capitol Hill",
    "neighborhoodGroup": "East",
    "units": "A25 M1"
  },
  {
    "id_str": "F200067983",
    "created_at": "7/11/2020 10:14:06 PM",
    "lat": 47.541854,
    "long": -122.29349,
    "timestamp": 1594530846000,
    "description": "Medic Response",
    "address": "3011 S Holly Pl",
    "active": false,
    "unitCount": 3,
    "severity": 0,
    "neighborhood": "South Beacon Hill/NewHolly",
    "neighborhoodGroup": "Greater Duwamish",
    "units": "L12 M26 M28"
  },
  {
    "id_str": "F200067981",
    "created_at": "7/11/2020 10:03:19 PM",
    "lat": 47.500392,
    "long": -122.267345,
    "timestamp": 1594530199000,
    "description": "Medic Response",
    "address": "11151 Beacon Ave S",
    "active": false,
    "unitCount": 2,
    "severity": 0,
    "neighborhood": "Rainier Beach",
    "neighborhoodGroup": "Southeast",
    "units": "E33 M28"
  },
  {
    "id_str": "F200067979",
    "created_at": "7/11/2020 9:51:24 PM",
    "lat": 47.733359,
    "long": -122.350496,
    "timestamp": 1594529484000,
    "description": "Automatic Fire Alarm Resd",
    "address": "14316 Fremont Ave N",
    "active": false,
    "unitCount": 1,
    "severity": 0,
    "neighborhood": "Broadview/Bitter Lake",
    "neighborhoodGroup": "Northwest",
    "units": "L5"
  },
  {
    "id_str": "F200067978",
    "created_at": "7/11/2020 9:46:30 PM",
    "lat": 47.706119,
    "long": -122.332607,
    "timestamp": 1594529190000,
    "description": "Medic Response, 7 per Rule",
    "address": "10621 Bagley Av N",
    "active": false,
    "unitCount": 3,
    "severity": 0,
    "neighborhood": "Northgate/Maple Leaf",
    "neighborhoodGroup": "North",
    "units": "E16 E39 M31"
  },
  {
    "id_str": "F200067977",
    "created_at": "7/11/2020 9:40:32 PM",
    "lat": 47.572919,
    "long": -122.294006,
    "timestamp": 1594528832000,
    "description": "Aid Response",
    "address": "S Walden St / Rainier Ave S",
    "active": false,
    "unitCount": 1,
    "severity": 0,
    "neighborhood": "Columbia City",
    "neighborhoodGroup": "Southeast",
    "units": "E30"
  },
  {
    "id_str": "F200067976",
    "created_at": "7/11/2020 9:39:54 PM",
    "lat": 47.533932,
    "long": -122.269985,
    "timestamp": 1594528794000,
    "description": "Aid Response",
    "address": "7630 Rainier Av S",
    "active": false,
    "unitCount": 1,
    "severity": 0,
    "neighborhood": "Seward Park",
    "neighborhoodGroup": "Southeast",
    "units": "E28"
  },
  {
    "id_str": "F200067975",
    "created_at": "7/11/2020 9:31:36 PM",
    "lat": 47.614747,
    "long": -122.340899,
    "timestamp": 1594528296000,
    "description": "Aid Response",
    "address": "2133 5th Av",
    "active": false,
    "unitCount": 1,
    "severity": 0,
    "neighborhood": "Cascade/Eastlake",
    "neighborhoodGroup": "Lake Union",
    "units": "A2"
  },
  {
    "id_str": "F200067973",
    "created_at": "7/11/2020 9:14:39 PM",
    "lat": 47.731129,
    "long": -122.345064,
    "timestamp": 1594527279000,
    "description": "Medic Response, 7 per Rule",
    "address": "14115 Aurora Av N",
    "active": false,
    "unitCount": 4,
    "severity": 0,
    "neighborhood": "Haller Lake",
    "neighborhoodGroup": "Northwest",
    "units": "CHAP5 E24 E39 M17"
  },
  {
    "id_str": "F200067970",
    "created_at": "7/11/2020 8:58:10 PM",
    "lat": 47.698223,
    "long": -122.355381,
    "timestamp": 1594526290000,
    "description": "Medic Response",
    "address": "9543 Greenwood Av N",
    "active": false,
    "unitCount": 3,
    "severity": 0,
    "neighborhood": "Greenwood/Phinney Ridge",
    "neighborhoodGroup": "Northwest",
    "units": "E21 E24 M18"
  },
  {
    "id_str": "F200067969",
    "created_at": "7/11/2020 8:57:25 PM",
    "lat": 47.600044,
    "long": -122.334219,
    "timestamp": 1594526245000,
    "description": "Aid Response",
    "address": "97 S Main St",
    "active": false,
    "unitCount": 1,
    "severity": 0,
    "neighborhood": "Pioneer Square/International District",
    "neighborhoodGroup": "Downtown",
    "units": "A5"
  },
  {
    "id_str": "F200067967",
    "created_at": "7/11/2020 8:46:50 PM",
    "lat": 47.666697,
    "long": -122.383538,
    "timestamp": 1594525610000,
    "description": "Aid Response",
    "address": "5323 Ballard Av Nw",
    "active": false,
    "unitCount": 1,
    "severity": 0,
    "neighborhood": "Ballard",
    "neighborhoodGroup": "Ballard",
    "units": "E18"
  },
  {
    "id_str": "F200067965",
    "created_at": "7/11/2020 8:37:34 PM",
    "lat": 47.598322,
    "long": -122.3134,
    "timestamp": 1594525054000,
    "description": "Aid Response",
    "address": "501 Rainier Av S",
    "active": false,
    "unitCount": 1,
    "severity": 0,
    "neighborhood": "Judkins Park",
    "neighborhoodGroup": "Central",
    "units": "E6"
  },
  {
    "id_str": "F200067964",
    "created_at": "7/11/2020 8:37:22 PM",
    "lat": 47.62607,
    "long": -122.31258,
    "timestamp": 1594525042000,
    "description": "Aid Response",
    "address": "15th Ave E / E Valley St",
    "active": false,
    "unitCount": 1,
    "severity": 0,
    "neighborhood": "Miller Park",
    "neighborhoodGroup": "East",
    "units": "A25"
  },
  {
    "id_str": "F200067963",
    "created_at": "7/11/2020 8:33:23 PM",
    "lat": 47.580917,
    "long": -122.385184,
    "timestamp": 1594524803000,
    "description": "Aid Response",
    "address": "2614 42nd Av Sw",
    "active": false,
    "unitCount": 1,
    "severity": 0,
    "neighborhood": "West Seattle Junction/Genesee Hill",
    "neighborhoodGroup": "Southwest",
    "units": "E36"
  },
  {
    "id_str": "F200067962",
    "created_at": "7/11/2020 8:32:13 PM",
    "lat": 47.537437,
    "long": -122.378369,
    "timestamp": 1594524733000,
    "description": "Medic Response, 7 per Rule",
    "address": "7247 36th Ave Sw",
    "active": false,
    "unitCount": 3,
    "severity": 0,
    "neighborhood": "Roxhill/Westwood",
    "neighborhoodGroup": "Delridge Neighborhoods",
    "units": "E37 L13 M32"
  },
  {
    "id_str": "F200067961",
    "created_at": "7/11/2020 8:32:05 PM",
    "lat": 47.616619,
    "long": -122.300076,
    "timestamp": 1594524725000,
    "description": "Automatic Fire Alarm Resd",
    "address": "1713 25th Ave",
    "active": false,
    "unitCount": 1,
    "severity": 0,
    "neighborhood": "Central Area/Squire Park",
    "neighborhoodGroup": "Central",
    "units": "E25"
  },
  {
    "id_str": "F200067960",
    "created_at": "7/11/2020 8:26:57 PM",
    "lat": 47.603237,
    "long": -122.337944,
    "timestamp": 1594524417000,
    "description": "Aid Response",
    "address": "925 Alaskan Way",
    "active": false,
    "unitCount": 1,
    "severity": 0,
    "neighborhood": "Downtown Commercial Core",
    "neighborhoodGroup": "Downtown",
    "units": "FIREBOAT"
  },
  {
    "id_str": "F200067959",
    "created_at": "7/11/2020 8:24:12 PM",
    "lat": 47.66881,
    "long": -122.382129,
    "timestamp": 1594524252000,
    "description": "Aid Response",
    "address": "5518 20th Av Nw",
    "active": false,
    "unitCount": 1,
    "severity": 0,
    "neighborhood": "Ballard",
    "neighborhoodGroup": "Ballard",
    "units": "L8"
  },
  {
    "id_str": "F200067957",
    "created_at": "7/11/2020 8:21:43 PM",
    "lat": 47.580042,
    "long": -122.381264,
    "timestamp": 1594524103000,
    "description": "Aid Response",
    "address": "2662 39th Ave Sw",
    "active": false,
    "unitCount": 1,
    "severity": 0,
    "neighborhood": "West Seattle Junction/Genesee Hill",
    "neighborhoodGroup": "Southwest",
    "units": "E29"
  },
  {
    "id_str": "F200067956",
    "created_at": "7/11/2020 8:17:16 PM",
    "lat": 47.698573,
    "long": -122.368724,
    "timestamp": 1594523836000,
    "description": "Medic Response",
    "address": "9542 9th Av Nw",
    "active": false,
    "unitCount": 2,
    "severity": 0,
    "neighborhood": "North Beach/Blue Ridge",
    "neighborhoodGroup": "Ballard",
    "units": "E35 M31"
  },
  {
    "id_str": "F200067955",
    "created_at": "7/11/2020 8:15:25 PM",
    "lat": 47.525631,
    "long": -122.328094,
    "timestamp": 1594523725000,
    "description": "Aid Response",
    "address": "509 S Donovan St",
    "active": false,
    "unitCount": 1,
    "severity": 0,
    "neighborhood": "South Park",
    "neighborhoodGroup": "Greater Duwamish",
    "units": "E26"
  },
  {
    "id_str": "F200067953",
    "created_at": "7/11/2020 8:14:16 PM",
    "lat": 47.635955,
    "long": -122.365218,
    "timestamp": 1594523656000,
    "description": "Automatic Fire Alarm Resd",
    "address": "617 W Howe St",
    "active": false,
    "unitCount": 1,
    "severity": 0,
    "neighborhood": "Queen Anne",
    "neighborhoodGroup": "Magnolia/Queen Anne",
    "units": "E8"
  },
  {
    "id_str": "F200067950",
    "created_at": "7/11/2020 8:03:10 PM",
    "lat": 47.513395,
    "long": -122.381823,
    "timestamp": 1594522990000,
    "description": "Aid Response",
    "address": "10041 39th Ave Sw",
    "active": false,
    "unitCount": 1,
    "severity": 0,
    "neighborhood": "Arbor Heights",
    "neighborhoodGroup": "Southwest",
    "units": "E37"
  },
  {
    "id_str": "F200067949",
    "created_at": "7/11/2020 7:53:22 PM",
    "lat": 47.687912,
    "long": -122.402668,
    "timestamp": 1594522402000,
    "description": "Aid Response",
    "address": "Seaview Av Nw / Seaview Pl Nw",
    "active": false,
    "unitCount": 2,
    "severity": 0,
    "neighborhood": "Sunset Hill/Loyal Heights",
    "neighborhoodGroup": "Ballard",
    "units": "B4 E18"
  },
  {
    "id_str": "F200067945",
    "created_at": "7/11/2020 7:40:56 PM",
    "lat": 47.595983,
    "long": -122.287762,
    "timestamp": 1594521656000,
    "description": "Aid Response",
    "address": "714 Lakeside Av S",
    "active": false,
    "unitCount": 1,
    "severity": 0,
    "neighborhood": "Madrona/Leschi",
    "neighborhoodGroup": "Central",
    "units": "E6"
  },
  {
    "id_str": "F200067943",
    "created_at": "7/11/2020 7:36:18 PM",
    "lat": 47.7284,
    "long": -122.312674,
    "timestamp": 1594521378000,
    "description": "Illegal Burn",
    "address": "13739 15th Ave Ne",
    "active": false,
    "unitCount": 1,
    "severity": 0,
    "neighborhood": "Olympic Hills/Victory Heights",
    "neighborhoodGroup": "North",
    "units": "E39"
  },
  {
    "id_str": "F200067940",
    "created_at": "7/11/2020 7:31:46 PM",
    "lat": 47.547952,
    "long": -122.29034,
    "timestamp": 1594521106000,
    "description": "1RED 1 Unit",
    "address": "33rd Ave S / S Raymond St",
    "active": false,
    "unitCount": 1,
    "severity": 0,
    "neighborhood": "Beacon Hill",
    "neighborhoodGroup": "Greater Duwamish",
    "units": "E28"
  },
  {
    "id_str": "F200067939",
    "created_at": "7/11/2020 7:27:08 PM",
    "lat": 47.640973,
    "long": -122.398319,
    "timestamp": 1594520828000,
    "description": "Auto Fire Alarm",
    "address": "2535 32nd Av W",
    "active": false,
    "unitCount": 2,
    "severity": 0,
    "neighborhood": "Magnolia",
    "neighborhoodGroup": "Magnolia/Queen Anne",
    "units": "E41 L8"
  },
  {
    "id_str": "F200067937",
    "created_at": "7/11/2020 7:08:02 PM",
    "lat": 47.663288,
    "long": -122.314235,
    "timestamp": 1594519682000,
    "description": "Scenes Of Violence Aid",
    "address": "4732 Brooklyn Av Ne",
    "active": false,
    "unitCount": 2,
    "severity": 0,
    "neighborhood": "University District",
    "neighborhoodGroup": "Northeast",
    "units": "B6 E17"
  },
  {
    "id_str": "F200067935",
    "created_at": "7/11/2020 7:00:01 PM",
    "lat": 47.59919,
    "long": -122.320841,
    "timestamp": 1594519201000,
    "description": "Low Acuity Response",
    "address": "913 S Jackson St",
    "active": false,
    "unitCount": 1,
    "severity": 0,
    "neighborhood": "Pioneer Square/International District",
    "neighborhoodGroup": "Downtown",
    "units": "A10"
  },
  {
    "id_str": "F200067936",
    "created_at": "7/11/2020 6:59:19 PM",
    "lat": 47.659445,
    "long": -122.39136,
    "timestamp": 1594519159000,
    "description": "Activated CO Detector",
    "address": "2717 W Jameson St",
    "active": false,
    "unitCount": 1,
    "severity": 0,
    "neighborhood": "Interbay",
    "neighborhoodGroup": "Magnolia/Queen Anne",
    "units": "L8"
  },
  {
    "id_str": "F200067934",
    "created_at": "7/11/2020 6:54:33 PM",
    "lat": 47.66005,
    "long": -122.312025,
    "timestamp": 1594518873000,
    "description": "Auto Fire Alarm",
    "address": "4337 15th Av Ne",
    "active": false,
    "unitCount": 2,
    "severity": 0,
    "neighborhood": "University District",
    "neighborhoodGroup": "Northeast",
    "units": "E17 L9"
  },
  {
    "id_str": "F200067933",
    "created_at": "7/11/2020 6:53:36 PM",
    "lat": 47.573903,
    "long": -122.311344,
    "timestamp": 1594518816000,
    "description": "Medic Response, 6 per Rule",
    "address": "3315 17th Ave S",
    "active": false,
    "unitCount": 3,
    "severity": 0,
    "neighborhood": "North Beacon Hill/Jefferson Park",
    "neighborhoodGroup": "Greater Duwamish",
    "units": "A14 E13 M28"
  },
  {
    "id_str": "F200067932",
    "created_at": "7/11/2020 6:50:28 PM",
    "lat": 47.612643,
    "long": -122.343292,
    "timestamp": 1594518628000,
    "description": "Medic Response",
    "address": "2119 2nd Av",
    "active": false,
    "unitCount": 2,
    "severity": 0,
    "neighborhood": "Belltown",
    "neighborhoodGroup": "Downtown",
    "units": "E2 M10"
  },
  {
    "id_str": "F200067931",
    "created_at": "7/11/2020 6:48:04 PM",
    "lat": 47.626322,
    "long": -122.348863,
    "timestamp": 1594518484000,
    "description": "Aid Response",
    "address": "805 4th Av N",
    "active": false,
    "unitCount": 1,
    "severity": 0,
    "neighborhood": "Queen Anne",
    "neighborhoodGroup": "Magnolia/Queen Anne",
    "units": "A2"
  },
  {
    "id_str": "F200067930",
    "created_at": "7/11/2020 6:44:07 PM",
    "lat": 47.719601,
    "long": -122.355539,
    "timestamp": 1594518247000,
    "description": "Rescue Lock In/Out",
    "address": "N 125th St / Greenwood Ave N",
    "active": false,
    "unitCount": 1,
    "severity": 0,
    "neighborhood": "Broadview/Bitter Lake",
    "neighborhoodGroup": "Northwest",
    "units": "E24"
  },
  {
    "id_str": "F200067927",
    "created_at": "7/11/2020 6:34:18 PM",
    "lat": 47.609756,
    "long": -122.334496,
    "timestamp": 1594517658000,
    "description": "Alarm Bell",
    "address": "515 Union St",
    "active": false,
    "unitCount": 1,
    "severity": 0,
    "neighborhood": "First Hill",
    "neighborhoodGroup": "East",
    "units": "E5"
  },
  {
    "id_str": "F200067925",
    "created_at": "7/11/2020 6:26:37 PM",
    "lat": 47.521039,
    "long": -122.369855,
    "timestamp": 1594517197000,
    "description": "Aid Response",
    "address": "2890 Sw Barton St",
    "active": false,
    "unitCount": 1,
    "severity": 0,
    "neighborhood": "Roxhill/Westwood",
    "neighborhoodGroup": "Delridge Neighborhoods",
    "units": "E37"
  },
  {
    "id_str": "F200067926",
    "created_at": "7/11/2020 6:26:37 PM",
    "lat": 47.600593,
    "long": -122.335915,
    "timestamp": 1594517197000,
    "description": "Medic Response, 7 per Rule",
    "address": "210 Alaskan Way S",
    "active": false,
    "unitCount": 3,
    "severity": 0,
    "neighborhood": "Pioneer Square/International District",
    "neighborhoodGroup": "Downtown",
    "units": "A10 E10 M10"
  },
  {
    "id_str": "F200067924",
    "created_at": "7/11/2020 6:26:15 PM",
    "lat": 47.600885,
    "long": -122.334925,
    "timestamp": 1594517175000,
    "description": "Medic Response, 7 per Rule",
    "address": "77 S Washington St",
    "active": false,
    "unitCount": 4,
    "severity": 0,
    "neighborhood": "Pioneer Square/International District",
    "neighborhoodGroup": "Downtown",
    "units": "A5 E10 E5 M1"
  },
  {
    "id_str": "F200067920",
    "created_at": "7/11/2020 5:50:55 PM",
    "lat": 47.612577,
    "long": -122.342956,
    "timestamp": 1594515055000,
    "description": "Auto Fire Alarm",
    "address": "211 Lenora St",
    "active": false,
    "unitCount": 2,
    "severity": 0,
    "neighborhood": "Belltown",
    "neighborhoodGroup": "Downtown",
    "units": "E2 L4"
  },
  {
    "id_str": "F200067919",
    "created_at": "7/11/2020 5:37:06 PM",
    "lat": 47.562758,
    "long": -122.398878,
    "timestamp": 1594514226000,
    "description": "Aid Response",
    "address": "4509 52nd Ave Sw",
    "active": false,
    "unitCount": 2,
    "severity": 0,
    "neighborhood": "Alki/Admiral",
    "neighborhoodGroup": "Southwest",
    "units": "E32 L11"
  },
  {
    "id_str": "F200067913",
    "created_at": "7/11/2020 5:15:34 PM",
    "lat": 47.619937,
    "long": -122.316928,
    "timestamp": 1594512934000,
    "description": "Aid Response",
    "address": "12th Ave E / E John St",
    "active": false,
    "unitCount": 1,
    "severity": 0,
    "neighborhood": "Capitol Hill",
    "neighborhoodGroup": "East",
    "units": "A25"
  },
  {
    "id_str": "F200067911",
    "created_at": "7/11/2020 5:04:50 PM",
    "lat": 47.675775,
    "long": -122.302579,
    "timestamp": 1594512290000,
    "description": "Auto Fire Alarm",
    "address": "2315 Ne 65th St",
    "active": false,
    "unitCount": 2,
    "severity": 0,
    "neighborhood": "Ravenna/Bryant",
    "neighborhoodGroup": "Northeast",
    "units": "E16 L9"
  },
  {
    "id_str": "F200067910",
    "created_at": "7/11/2020 5:00:57 PM",
    "lat": 47.618693,
    "long": -122.334256,
    "timestamp": 1594512057000,
    "description": "Aid Response",
    "address": "116 Fairview Av N",
    "active": false,
    "unitCount": 1,
    "severity": 0,
    "neighborhood": "Cascade/Eastlake",
    "neighborhoodGroup": "Lake Union",
    "units": "A2"
  }
]