[
  {
    "id_str": "F200127467",
    "created_at": "12/30/2020 3:51:52 PM",
    "timestamp": 1609372312000,
    "description": "Aid Response",
    "address": "1200 University St",
    "active": false,
    "unitCount": 1,
    "severity": 0,
    "lat": 47.611943,
    "long": -122.325987,
    "neighborhood": "First Hill",
    "neighborhoodGroup": "East",
    "units": "E25"
  },
  {
    "id_str": "F200127466",
    "created_at": "12/30/2020 3:51:25 PM",
    "timestamp": 1609372285000,
    "description": "Aid Response",
    "address": "7901 16th Ave Sw",
    "active": false,
    "unitCount": 2,
    "severity": 0,
    "lat": 47.531859,
    "long": -122.355045,
    "neighborhood": "Highland Park",
    "neighborhoodGroup": "Delridge Neighborhoods",
    "units": "E11 E37"
  },
  {
    "id_str": "F200127464",
    "created_at": "12/30/2020 3:48:47 PM",
    "timestamp": 1609372127000,
    "description": "Aid Response",
    "address": "1921 41st Ave Sw",
    "active": false,
    "unitCount": 2,
    "severity": 0,
    "lat": 47.586639,
    "long": -122.383691,
    "neighborhood": "Alki/Admiral",
    "neighborhoodGroup": "Southwest",
    "units": "E29 M32"
  },
  {
    "id_str": "F200127463",
    "created_at": "12/30/2020 3:37:03 PM",
    "timestamp": 1609371423000,
    "description": "Aid Response",
    "address": "548 15th Av",
    "active": false,
    "unitCount": 2,
    "severity": 0,
    "lat": 47.606628,
    "long": -122.312857,
    "neighborhood": "First Hill",
    "neighborhoodGroup": "East",
    "units": "A25 L10"
  },
  {
    "id_str": "F200127462",
    "created_at": "12/30/2020 3:32:08 PM",
    "timestamp": 1609371128000,
    "description": "Illegal Burn",
    "address": "Brooklyn Ave Ne / Ne 45th St",
    "active": false,
    "unitCount": 1,
    "severity": 0,
    "lat": 47.661277,
    "long": -122.314286,
    "neighborhood": "University District",
    "neighborhoodGroup": "Northeast",
    "units": "E31"
  },
  {
    "id_str": "F200127461",
    "created_at": "12/30/2020 3:31:55 PM",
    "timestamp": 1609371115000,
    "description": "Aid Response",
    "address": "306 Blanchard St",
    "active": false,
    "unitCount": 1,
    "severity": 0,
    "lat": 47.613977,
    "long": -122.343441,
    "neighborhood": "Cascade/Eastlake",
    "neighborhoodGroup": "Lake Union",
    "units": "A4"
  },
  {
    "id_str": "F200127460",
    "created_at": "12/30/2020 3:24:02 PM",
    "timestamp": 1609370642000,
    "description": "Aid Response",
    "address": "9008 25th Ave Sw",
    "active": false,
    "unitCount": 1,
    "severity": 0,
    "lat": 47.522779,
    "long": -122.364537,
    "neighborhood": "Roxhill/Westwood",
    "neighborhoodGroup": "Delridge Neighborhoods",
    "units": "E11"
  },
  {
    "id_str": "F200127458",
    "created_at": "12/30/2020 3:20:01 PM",
    "timestamp": 1609370401000,
    "description": "Auto Fire Alarm",
    "address": "1221 Madison St",
    "active": false,
    "unitCount": 2,
    "severity": 0,
    "lat": 47.609902,
    "long": -122.323791,
    "neighborhood": "Capitol Hill",
    "neighborhoodGroup": "East",
    "units": "E25 L10"
  },
  {
    "id_str": "F200127457",
    "created_at": "12/30/2020 3:17:44 PM",
    "timestamp": 1609370264000,
    "description": "Aid Response Freeway",
    "address": "Aurora Ave N / Aloha St",
    "active": false,
    "unitCount": 3,
    "severity": 0,
    "lat": 47.627137,
    "long": -122.343616,
    "neighborhood": "Queen Anne",
    "neighborhoodGroup": "Magnolia/Queen Anne",
    "units": "A2 E2 E8"
  },
  {
    "id_str": "F200127455",
    "created_at": "12/30/2020 3:15:44 PM",
    "timestamp": 1609370144000,
    "description": "Medic Response",
    "address": "7357 Alonzo Ave Nw",
    "active": false,
    "unitCount": 2,
    "severity": 0,
    "lat": 47.682465,
    "long": -122.374667,
    "neighborhood": "Whittier Heights",
    "neighborhoodGroup": "Ballard",
    "units": "E18 M18"
  },
  {
    "id_str": "F200127454",
    "created_at": "12/30/2020 3:13:20 PM",
    "timestamp": 1609370000000,
    "description": "Medic Response",
    "address": "7522 16th Ave Nw",
    "active": false,
    "unitCount": 2,
    "severity": 0,
    "lat": 47.683421,
    "long": -122.377858,
    "neighborhood": "Whittier Heights",
    "neighborhoodGroup": "Ballard",
    "units": "E35 M31"
  },
  {
    "id_str": "F200127453",
    "created_at": "12/30/2020 3:08:35 PM",
    "timestamp": 1609369715000,
    "description": "Aid Response",
    "address": "4322 4th Ave Ne",
    "active": false,
    "unitCount": 1,
    "severity": 0,
    "lat": 47.659212,
    "long": -122.324067,
    "neighborhood": "Wallingford",
    "neighborhoodGroup": "Lake Union",
    "units": "E17"
  },
  {
    "id_str": "F200127452",
    "created_at": "12/30/2020 3:08:28 PM",
    "timestamp": 1609369708000,
    "description": "Aid Response",
    "address": "2221 4th Av S",
    "active": false,
    "unitCount": 1,
    "severity": 0,
    "lat": 47.583756,
    "long": -122.329054,
    "neighborhood": "Duwamish/SODO",
    "neighborhoodGroup": "Greater Duwamish",
    "units": "A14"
  },
  {
    "id_str": "F200127451",
    "created_at": "12/30/2020 3:06:43 PM",
    "timestamp": 1609369603000,
    "description": "Aid Response",
    "address": "1616 Summit Av",
    "active": false,
    "unitCount": 1,
    "severity": 0,
    "lat": 47.615391,
    "long": -122.325531,
    "neighborhood": "Capitol Hill",
    "neighborhoodGroup": "East",
    "units": "A25"
  },
  {
    "id_str": "F200127450",
    "created_at": "12/30/2020 3:02:04 PM",
    "timestamp": 1609369324000,
    "description": "Aid Response",
    "address": "2519 1st Av",
    "active": false,
    "unitCount": 1,
    "severity": 0,
    "lat": 47.614798,
    "long": -122.348918,
    "neighborhood": "Belltown",
    "neighborhoodGroup": "Downtown",
    "units": "A4"
  },
  {
    "id_str": "F200127448",
    "created_at": "12/30/2020 2:46:55 PM",
    "timestamp": 1609368415000,
    "description": "Medic Response",
    "address": "1st Ave / Yesler Way",
    "active": false,
    "unitCount": 2,
    "severity": 0,
    "lat": 47.601722,
    "long": -122.334179,
    "neighborhood": "Downtown Commercial Core",
    "neighborhoodGroup": "Downtown",
    "units": "A10 M10"
  },
  {
    "id_str": "F200127447",
    "created_at": "12/30/2020 2:45:31 PM",
    "timestamp": 1609368331000,
    "description": "Aid Response",
    "address": "4700 Sw Admiral Way",
    "active": false,
    "unitCount": 1,
    "severity": 0,
    "lat": 47.581214,
    "long": -122.391903,
    "neighborhood": "West Seattle Junction/Genesee Hill",
    "neighborhoodGroup": "Southwest",
    "units": "E29"
  },
  {
    "id_str": "F200127446",
    "created_at": "12/30/2020 2:39:25 PM",
    "timestamp": 1609367965000,
    "description": "Aid Response",
    "address": "509 3rd Av",
    "active": false,
    "unitCount": 2,
    "severity": 0,
    "lat": 47.602114,
    "long": -122.330809,
    "neighborhood": "Downtown Commercial Core",
    "neighborhoodGroup": "Downtown",
    "units": "A5 E10"
  },
  {
    "id_str": "F200127445",
    "created_at": "12/30/2020 2:39:12 PM",
    "timestamp": 1609367952000,
    "description": "Aid Response",
    "address": "8424 16th Av Sw",
    "active": false,
    "unitCount": 1,
    "severity": 0,
    "lat": 47.528082,
    "long": -122.355064,
    "neighborhood": "Highland Park",
    "neighborhoodGroup": "Delridge Neighborhoods",
    "units": "E11"
  },
  {
    "id_str": "F200127444",
    "created_at": "12/30/2020 2:21:01 PM",
    "timestamp": 1609366861000,
    "description": "Natural Gas Odor",
    "address": "4745 35th Ave Sw",
    "active": false,
    "unitCount": 1,
    "severity": 0,
    "lat": 47.560245,
    "long": -122.376223,
    "neighborhood": "North Delridge",
    "neighborhoodGroup": "Delridge Neighborhoods",
    "units": "L11"
  },
  {
    "id_str": "F200127443",
    "created_at": "12/30/2020 2:13:18 PM",
    "timestamp": 1609366398000,
    "description": "Medic Response",
    "address": "Fauntleroy Way Sw / Sw Oregon St",
    "active": false,
    "unitCount": 3,
    "severity": 0,
    "lat": 47.562872,
    "long": -122.379285,
    "neighborhood": "West Seattle Junction/Genesee Hill",
    "neighborhoodGroup": "Southwest",
    "units": "E32 L11 M32"
  },
  {
    "id_str": "F200127442",
    "created_at": "12/30/2020 2:11:44 PM",
    "timestamp": 1609366304000,
    "description": "Aid Response",
    "address": "10049 COLLEGE WAY N",
    "active": false,
    "unitCount": 1,
    "severity": 0,
    "lat": 47.701742,
    "long": -122.335029,
    "neighborhood": "Licton Springs",
    "neighborhoodGroup": "Northwest",
    "units": "A31"
  },
  {
    "id_str": "B200127440",
    "created_at": "12/30/2020 2:06:46 PM",
    "timestamp": 1609366006000,
    "description": "Mutual Aid, Ladder",
    "address": "18050 Meridian Ave N",
    "active": false,
    "unitCount": 2,
    "severity": 0,
    "lat": 47.759413,
    "long": -122.334934,
    "units": "B6 L5"
  },
  {
    "id_str": "F200127438",
    "created_at": "12/30/2020 1:47:01 PM",
    "timestamp": 1609364821000,
    "description": "Low Acuity Response",
    "address": "519 W Roy St",
    "active": false,
    "unitCount": 1,
    "severity": 0,
    "lat": 47.62586,
    "long": -122.363471,
    "neighborhood": "Queen Anne",
    "neighborhoodGroup": "Magnolia/Queen Anne",
    "units": "E8"
  },
  {
    "id_str": "F200127436",
    "created_at": "12/30/2020 1:44:06 PM",
    "timestamp": 1609364646000,
    "description": "MVI - Motor Vehicle Incident",
    "address": "Sw Oregon St / Fauntleroy Way Sw",
    "active": false,
    "unitCount": 1,
    "severity": 0,
    "lat": 47.562872,
    "long": -122.379285,
    "neighborhood": "West Seattle Junction/Genesee Hill",
    "neighborhoodGroup": "Southwest",
    "units": "L11"
  },
  {
    "id_str": "F200127437",
    "created_at": "12/30/2020 1:43:52 PM",
    "timestamp": 1609364632000,
    "description": "MVI - Motor Vehicle Incident",
    "address": "Fauntleroy Way Sw / Sw Oregon St",
    "active": false,
    "unitCount": 1,
    "severity": 0,
    "lat": 47.562872,
    "long": -122.379285,
    "neighborhood": "West Seattle Junction/Genesee Hill",
    "neighborhoodGroup": "Southwest",
    "units": "E29"
  },
  {
    "id_str": "F200127435",
    "created_at": "12/30/2020 1:37:44 PM",
    "timestamp": 1609364264000,
    "description": "MVI - Motor Vehicle Incident",
    "address": "SB I5 AT 50",
    "active": false,
    "unitCount": 3,
    "severity": 0,
    "lat": 47.661199,
    "long": -122.322412,
    "neighborhood": "Wallingford",
    "neighborhoodGroup": "Lake Union",
    "units": "A31 E16 E31"
  },
  {
    "id_str": "F200127434",
    "created_at": "12/30/2020 1:26:18 PM",
    "timestamp": 1609363578000,
    "description": "Rescue Elevator",
    "address": "2015 2nd Av",
    "active": false,
    "unitCount": 1,
    "severity": 0,
    "lat": 47.611843,
    "long": -122.341939,
    "neighborhood": "Belltown",
    "neighborhoodGroup": "Downtown",
    "units": "L4"
  },
  {
    "id_str": "F200127433",
    "created_at": "12/30/2020 1:24:09 PM",
    "timestamp": 1609363449000,
    "description": "Aid Response",
    "address": "2200 Nw 59th St",
    "active": false,
    "unitCount": 1,
    "severity": 0,
    "lat": 47.67164,
    "long": -122.384742,
    "neighborhood": "Ballard",
    "neighborhoodGroup": "Ballard",
    "units": "E18"
  },
  {
    "id_str": "F200127432",
    "created_at": "12/30/2020 1:18:17 PM",
    "timestamp": 1609363097000,
    "description": "Aid Response",
    "address": "5980 East Marginal Way S",
    "active": false,
    "unitCount": 1,
    "severity": 0,
    "lat": 47.548609,
    "long": -122.334486,
    "neighborhood": "Georgetown",
    "neighborhoodGroup": "Greater Duwamish",
    "units": "E27"
  },
  {
    "id_str": "F200127431",
    "created_at": "12/30/2020 1:16:00 PM",
    "timestamp": 1609362960000,
    "description": "Aid Response",
    "address": "1227 Ne 143rd St",
    "active": false,
    "unitCount": 1,
    "severity": 0,
    "lat": 47.732149,
    "long": -122.315174,
    "neighborhood": "Olympic Hills/Victory Heights",
    "neighborhoodGroup": "North",
    "units": "E39"
  },
  {
    "id_str": "F200127429",
    "created_at": "12/30/2020 1:14:45 PM",
    "timestamp": 1609362885000,
    "description": "Automatic Fire Alarm False",
    "address": "13305 1st Av Ne",
    "active": false,
    "unitCount": 2,
    "severity": 0,
    "lat": 47.725147,
    "long": -122.328892,
    "neighborhood": "Haller Lake",
    "neighborhoodGroup": "Northwest",
    "units": "E24 L5"
  },
  {
    "id_str": "F200127427",
    "created_at": "12/30/2020 1:03:38 PM",
    "timestamp": 1609362218000,
    "description": "Rescue Elevator",
    "address": "2203 E Union St",
    "active": false,
    "unitCount": 1,
    "severity": 0,
    "lat": 47.612933,
    "long": -122.303607,
    "neighborhood": "Central Area/Squire Park",
    "neighborhoodGroup": "Central",
    "units": "L1"
  },
  {
    "id_str": "F200127426",
    "created_at": "12/30/2020 1:03:27 PM",
    "timestamp": 1609362207000,
    "description": "Aid Response",
    "address": "1519 Ne 88th St",
    "active": false,
    "unitCount": 1,
    "severity": 0,
    "lat": 47.692158,
    "long": -122.311936,
    "neighborhood": "Northgate/Maple Leaf",
    "neighborhoodGroup": "North",
    "units": "E16"
  },
  {
    "id_str": "F200127424",
    "created_at": "12/30/2020 1:00:27 PM",
    "timestamp": 1609362027000,
    "description": "Aid Response",
    "address": "2215 1st Av",
    "active": false,
    "unitCount": 1,
    "severity": 0,
    "lat": 47.612716,
    "long": -122.345399,
    "neighborhood": "Belltown",
    "neighborhoodGroup": "Downtown",
    "units": "A2"
  },
  {
    "id_str": "F200127425",
    "created_at": "12/30/2020 12:59:38 PM",
    "timestamp": 1609361978000,
    "description": "Aid Response",
    "address": "12020 Aurora Ave N",
    "active": false,
    "unitCount": 1,
    "severity": 0,
    "lat": 47.716696,
    "long": -122.344888,
    "neighborhood": "Broadview/Bitter Lake",
    "neighborhoodGroup": "Northwest",
    "units": "A31"
  },
  {
    "id_str": "F200127423",
    "created_at": "12/30/2020 12:55:09 PM",
    "timestamp": 1609361709000,
    "description": "Aid Response",
    "address": "620 TERRY AVE",
    "active": false,
    "unitCount": 1,
    "severity": 0,
    "lat": 47.606157,
    "long": -122.323768,
    "neighborhood": "First Hill",
    "neighborhoodGroup": "East",
    "units": "E6"
  },
  {
    "id_str": "F200127422",
    "created_at": "12/30/2020 12:54:25 PM",
    "timestamp": 1609361665000,
    "description": "Medic Response",
    "address": "4416 S Brandon St",
    "active": false,
    "unitCount": 2,
    "severity": 0,
    "lat": 47.553402,
    "long": -122.279146,
    "neighborhood": "Columbia City",
    "neighborhoodGroup": "Southeast",
    "units": "E28 M28"
  },
  {
    "id_str": "F200127420",
    "created_at": "12/30/2020 12:41:39 PM",
    "timestamp": 1609360899000,
    "description": "Aid Response",
    "address": "2602 4th Av",
    "active": false,
    "unitCount": 1,
    "severity": 0,
    "lat": 47.617249,
    "long": -122.347115,
    "neighborhood": "Cascade/Eastlake",
    "neighborhoodGroup": "Lake Union",
    "units": "A4"
  },
  {
    "id_str": "F200127418",
    "created_at": "12/30/2020 12:35:38 PM",
    "timestamp": 1609360538000,
    "description": "Water Job Minor",
    "address": "1400 Hubbell Pl",
    "active": false,
    "unitCount": 1,
    "severity": 0,
    "lat": 47.611543,
    "long": -122.330225,
    "neighborhood": "First Hill",
    "neighborhoodGroup": "East",
    "units": "L4"
  },
  {
    "id_str": "F200127417",
    "created_at": "12/30/2020 12:29:28 PM",
    "timestamp": 1609360168000,
    "description": "Low Acuity Response",
    "address": "13000 Linden Av N",
    "active": false,
    "unitCount": 1,
    "severity": 0,
    "lat": 47.723218,
    "long": -122.348195,
    "neighborhood": "Broadview/Bitter Lake",
    "neighborhoodGroup": "Northwest",
    "units": "A31"
  },
  {
    "id_str": "F200127415",
    "created_at": "12/30/2020 12:24:20 PM",
    "timestamp": 1609359860000,
    "description": "Aid Response",
    "address": "4609 S Holly St",
    "active": false,
    "unitCount": 1,
    "severity": 0,
    "lat": 47.542465,
    "long": -122.275257,
    "neighborhood": "Columbia City",
    "neighborhoodGroup": "Southeast",
    "units": "E28"
  },
  {
    "id_str": "F200127416",
    "created_at": "12/30/2020 12:24:19 PM",
    "timestamp": 1609359859000,
    "description": "Rescue Elevator",
    "address": "2500 Canterbury Ln E",
    "active": false,
    "unitCount": 1,
    "severity": 0,
    "lat": 47.64123,
    "long": -122.281361,
    "neighborhood": "Madison Park",
    "neighborhoodGroup": "East",
    "units": "L3"
  },
  {
    "id_str": "F200127414",
    "created_at": "12/30/2020 12:23:58 PM",
    "timestamp": 1609359838000,
    "description": "MVI - Motor Vehicle Incident",
    "address": "Sb I5 At Convention Center",
    "active": false,
    "unitCount": 3,
    "severity": 0,
    "lat": 47.607412,
    "long": -122.330402,
    "neighborhood": "First Hill",
    "neighborhoodGroup": "East",
    "units": "A2 E2 E25"
  },
  {
    "id_str": "F200127413",
    "created_at": "12/30/2020 12:18:25 PM",
    "timestamp": 1609359505000,
    "description": "Aid Response",
    "address": "8060 22nd Ave Nw",
    "active": false,
    "unitCount": 1,
    "severity": 0,
    "lat": 47.6872,
    "long": -122.38433,
    "neighborhood": "Sunset Hill/Loyal Heights",
    "neighborhoodGroup": "Ballard",
    "units": "E35"
  },
  {
    "id_str": "F200127411",
    "created_at": "12/30/2020 12:04:10 PM",
    "timestamp": 1609358650000,
    "description": "Medic Response",
    "address": "5626 48th Ave Sw",
    "active": false,
    "unitCount": 2,
    "severity": 0,
    "lat": 47.552024,
    "long": -122.393706,
    "neighborhood": "Fauntleroy/Seaview",
    "neighborhoodGroup": "Southwest",
    "units": "E37 M32"
  },
  {
    "id_str": "F200127408",
    "created_at": "12/30/2020 11:47:28 AM",
    "timestamp": 1609357648000,
    "description": "Aid Response",
    "address": "434 N 35th St",
    "active": false,
    "unitCount": 1,
    "severity": 0,
    "lat": 47.651288,
    "long": -122.353934,
    "neighborhood": "Fremont",
    "neighborhoodGroup": "Lake Union",
    "units": "E9"
  },
  {
    "id_str": "F200127407",
    "created_at": "12/30/2020 11:43:32 AM",
    "timestamp": 1609357412000,
    "description": "AFA4 - Auto Alarm 2 + 1 + 1",
    "address": "13201 Aurora Av N",
    "active": false,
    "unitCount": 4,
    "severity": 0,
    "lat": 47.724677,
    "long": -122.344993,
    "neighborhood": "Haller Lake",
    "neighborhoodGroup": "Northwest",
    "units": "B6 E16 E39 L5"
  },
  {
    "id_str": "F200127406",
    "created_at": "12/30/2020 11:43:14 AM",
    "timestamp": 1609357394000,
    "description": "Aid Response",
    "address": "1118 5th Av",
    "active": false,
    "unitCount": 1,
    "severity": 0,
    "lat": 47.60739,
    "long": -122.332564,
    "neighborhood": "Downtown Commercial Core",
    "neighborhoodGroup": "Downtown",
    "units": "A10"
  },
  {
    "id_str": "F200127405",
    "created_at": "12/30/2020 11:41:22 AM",
    "timestamp": 1609357282000,
    "description": "Aid Response",
    "address": "9009 Greenwood Av N",
    "active": false,
    "unitCount": 2,
    "severity": 0,
    "lat": 47.69429,
    "long": -122.35534,
    "neighborhood": "Greenwood/Phinney Ridge",
    "neighborhoodGroup": "Northwest",
    "units": "A31 E35"
  },
  {
    "id_str": "F200127404",
    "created_at": "12/30/2020 11:36:42 AM",
    "timestamp": 1609357002000,
    "description": "Illegal Burn",
    "address": "13205 Bitter Pl N",
    "active": false,
    "unitCount": 1,
    "severity": 0,
    "lat": 47.725066,
    "long": -122.352521,
    "neighborhood": "Broadview/Bitter Lake",
    "neighborhoodGroup": "Northwest",
    "units": "E24"
  },
  {
    "id_str": "F200127402",
    "created_at": "12/30/2020 11:32:35 AM",
    "timestamp": 1609356755000,
    "description": "Automatic Fire Alarm False",
    "address": "906 E John St",
    "active": false,
    "unitCount": 1,
    "severity": 0,
    "lat": 47.619909,
    "long": -122.320791,
    "neighborhood": "Capitol Hill",
    "neighborhoodGroup": "East",
    "units": "E25"
  },
  {
    "id_str": "F200127401",
    "created_at": "12/30/2020 11:28:32 AM",
    "timestamp": 1609356512000,
    "description": "Medic Response",
    "address": "904 7th Av",
    "active": false,
    "unitCount": 2,
    "severity": 0,
    "lat": 47.6069,
    "long": -122.329051,
    "neighborhood": "First Hill",
    "neighborhoodGroup": "East",
    "units": "A5 M1"
  },
  {
    "id_str": "F200127399",
    "created_at": "12/30/2020 11:25:36 AM",
    "timestamp": 1609356336000,
    "description": "Aid Response",
    "address": "1915 4th Av S",
    "active": false,
    "unitCount": 1,
    "severity": 0,
    "lat": 47.58606,
    "long": -122.329062,
    "neighborhood": "Duwamish/SODO",
    "neighborhoodGroup": "Greater Duwamish",
    "units": "A14"
  },
  {
    "id_str": "F200127397",
    "created_at": "12/30/2020 11:25:28 AM",
    "timestamp": 1609356328000,
    "description": "Aid Response",
    "address": "2121 7th Av",
    "active": false,
    "unitCount": 1,
    "severity": 0,
    "lat": 47.615982,
    "long": -122.339019,
    "neighborhood": "Cascade/Eastlake",
    "neighborhoodGroup": "Lake Union",
    "units": "A4"
  },
  {
    "id_str": "F200127395",
    "created_at": "12/30/2020 11:12:53 AM",
    "timestamp": 1609355573000,
    "description": "Aid Response",
    "address": "2463 E Madison St",
    "active": false,
    "unitCount": 1,
    "severity": 0,
    "lat": 47.620688,
    "long": -122.300318,
    "neighborhood": "Central Area/Squire Park",
    "neighborhoodGroup": "Central",
    "units": "E34"
  },
  {
    "id_str": "F200127394",
    "created_at": "12/30/2020 11:11:34 AM",
    "timestamp": 1609355494000,
    "description": "Low Acuity Response",
    "address": "607 3rd Av",
    "active": false,
    "unitCount": 1,
    "severity": 0,
    "lat": 47.602813,
    "long": -122.331449,
    "neighborhood": "Downtown Commercial Core",
    "neighborhoodGroup": "Downtown",
    "units": "A10"
  },
  {
    "id_str": "F200127392",
    "created_at": "12/30/2020 10:44:51 AM",
    "timestamp": 1609353891000,
    "description": "Low Acuity Response",
    "address": "3252 45th Ave Sw",
    "active": false,
    "unitCount": 1,
    "severity": 0,
    "lat": 47.575179,
    "long": -122.389411,
    "neighborhood": "West Seattle Junction/Genesee Hill",
    "neighborhoodGroup": "Southwest",
    "units": "E29"
  },
  {
    "id_str": "F200127391",
    "created_at": "12/30/2020 10:44:19 AM",
    "timestamp": 1609353859000,
    "description": "Auto Fire Alarm",
    "address": "3300 6th Av S",
    "active": false,
    "unitCount": 2,
    "severity": 0,
    "lat": 47.574384,
    "long": -122.32598,
    "neighborhood": "Duwamish/SODO",
    "neighborhoodGroup": "Greater Duwamish",
    "units": "E10 R1"
  },
  {
    "id_str": "F200127390",
    "created_at": "12/30/2020 10:41:38 AM",
    "timestamp": 1609353698000,
    "description": "Aid Response",
    "address": "1311 S Massachusetts St",
    "active": false,
    "unitCount": 1,
    "severity": 0,
    "lat": 47.588437,
    "long": -122.315855,
    "neighborhood": "North Beacon Hill/Jefferson Park",
    "neighborhoodGroup": "Greater Duwamish",
    "units": "E13"
  },
  {
    "id_str": "F200127389",
    "created_at": "12/30/2020 10:38:19 AM",
    "timestamp": 1609353499000,
    "description": "Aid Response",
    "address": "5034 37th Ave S",
    "active": false,
    "unitCount": 1,
    "severity": 0,
    "lat": 47.556777,
    "long": -122.286143,
    "neighborhood": "Columbia City",
    "neighborhoodGroup": "Southeast",
    "units": "E28"
  },
  {
    "id_str": "F200127388",
    "created_at": "12/30/2020 10:37:43 AM",
    "timestamp": 1609353463000,
    "description": "Aid Response",
    "address": "701 5th Av",
    "active": false,
    "unitCount": 2,
    "severity": 0,
    "lat": 47.604413,
    "long": -122.329842,
    "neighborhood": "First Hill",
    "neighborhoodGroup": "East",
    "units": "A10 E10"
  },
  {
    "id_str": "F200127387",
    "created_at": "12/30/2020 10:36:29 AM",
    "timestamp": 1609353389000,
    "description": "Aid Response",
    "address": "910 Marion St",
    "active": false,
    "unitCount": 1,
    "severity": 0,
    "lat": 47.607742,
    "long": -122.326595,
    "neighborhood": "First Hill",
    "neighborhoodGroup": "East",
    "units": "A25"
  },
  {
    "id_str": "F200127386",
    "created_at": "12/30/2020 10:35:04 AM",
    "timestamp": 1609353304000,
    "description": "Aid Response",
    "address": "216 James St",
    "active": false,
    "unitCount": 1,
    "severity": 0,
    "lat": 47.602382,
    "long": -122.332338,
    "neighborhood": "Downtown Commercial Core",
    "neighborhoodGroup": "Downtown",
    "units": "A5"
  },
  {
    "id_str": "F200127384",
    "created_at": "12/30/2020 10:32:23 AM",
    "timestamp": 1609353143000,
    "description": "Medic Response",
    "address": "11045 30th Ave Ne",
    "active": false,
    "unitCount": 2,
    "severity": 0,
    "lat": 47.708667,
    "long": -122.29622,
    "neighborhood": "Cedar Park/Meadowbrook",
    "neighborhoodGroup": "North",
    "units": "E40 M17"
  },
  {
    "id_str": "F200127383",
    "created_at": "12/30/2020 10:29:23 AM",
    "timestamp": 1609352963000,
    "description": "Low Acuity Response",
    "address": "747 N 135th St",
    "active": false,
    "unitCount": 1,
    "severity": 0,
    "lat": 47.726803,
    "long": -122.347793,
    "neighborhood": "Broadview/Bitter Lake",
    "neighborhoodGroup": "Northwest",
    "units": "A31"
  },
  {
    "id_str": "F200127382",
    "created_at": "12/30/2020 10:25:15 AM",
    "timestamp": 1609352715000,
    "description": "Automatic Fire Alarm False",
    "address": "920 N 137th St",
    "active": false,
    "unitCount": 1,
    "severity": 0,
    "lat": 47.728679,
    "long": -122.347463,
    "neighborhood": "Broadview/Bitter Lake",
    "neighborhoodGroup": "Northwest",
    "units": "E24"
  },
  {
    "id_str": "F200127381",
    "created_at": "12/30/2020 9:56:47 AM",
    "timestamp": 1609351007000,
    "description": "1RED 1 Unit",
    "address": "6th Ave / Columbia St",
    "active": false,
    "unitCount": 1,
    "severity": 0,
    "lat": 47.605589,
    "long": -122.329386,
    "neighborhood": "First Hill",
    "neighborhoodGroup": "East",
    "units": "E10"
  },
  {
    "id_str": "F200127380",
    "created_at": "12/30/2020 9:56:10 AM",
    "timestamp": 1609350970000,
    "description": "Aid Response",
    "address": "2600 Sw Barton St",
    "active": false,
    "unitCount": 1,
    "severity": 0,
    "lat": 47.521022,
    "long": -122.365894,
    "neighborhood": "Roxhill/Westwood",
    "neighborhoodGroup": "Delridge Neighborhoods",
    "units": "L13"
  },
  {
    "id_str": "F200127379",
    "created_at": "12/30/2020 9:52:51 AM",
    "timestamp": 1609350771000,
    "description": "Aid Response",
    "address": "12714 Greenwood Av N",
    "active": false,
    "unitCount": 1,
    "severity": 0,
    "lat": 47.721497,
    "long": -122.355543,
    "neighborhood": "Broadview/Bitter Lake",
    "neighborhoodGroup": "Northwest",
    "units": "A31"
  },
  {
    "id_str": "F200127378",
    "created_at": "12/30/2020 9:52:40 AM",
    "timestamp": 1609350760000,
    "description": "Aid Response",
    "address": "2408 2nd Av",
    "active": false,
    "unitCount": 1,
    "severity": 0,
    "lat": 47.614848,
    "long": -122.347021,
    "neighborhood": "Belltown",
    "neighborhoodGroup": "Downtown",
    "units": "A4"
  },
  {
    "id_str": "F200127377",
    "created_at": "12/30/2020 9:37:35 AM",
    "timestamp": 1609349855000,
    "description": "Automatic Fire Alarm False",
    "address": "2121 26th Av S",
    "active": false,
    "unitCount": 1,
    "severity": 0,
    "lat": 47.584234,
    "long": -122.299024,
    "neighborhood": "Mt. Baker/North Rainier",
    "neighborhoodGroup": "Southeast",
    "units": "E30"
  },
  {
    "id_str": "F200127375",
    "created_at": "12/30/2020 9:21:59 AM",
    "timestamp": 1609348919000,
    "description": "Medic Response",
    "address": "6900 37th Av S",
    "active": false,
    "unitCount": 2,
    "severity": 0,
    "lat": 47.540654,
    "long": -122.286239,
    "neighborhood": "South Beacon Hill/NewHolly",
    "neighborhoodGroup": "Greater Duwamish",
    "units": "E28 M28"
  },
  {
    "id_str": "F200127374",
    "created_at": "12/30/2020 9:19:57 AM",
    "timestamp": 1609348797000,
    "description": "Aid Response",
    "address": "12745 30th Av Ne",
    "active": false,
    "unitCount": 1,
    "severity": 0,
    "lat": 47.721359,
    "long": -122.296339,
    "neighborhood": "Cedar Park/Meadowbrook",
    "neighborhoodGroup": "North",
    "units": "L6"
  },
  {
    "id_str": "F200127373",
    "created_at": "12/30/2020 9:18:00 AM",
    "timestamp": 1609348680000,
    "description": "Aid Response",
    "address": "1707 Nw 59th St",
    "active": false,
    "unitCount": 1,
    "severity": 0,
    "lat": 47.671633,
    "long": -122.378947,
    "neighborhood": "Ballard",
    "neighborhoodGroup": "Ballard",
    "units": "E18"
  },
  {
    "id_str": "F200127371",
    "created_at": "12/30/2020 9:10:13 AM",
    "timestamp": 1609348213000,
    "description": "Medic Response",
    "address": "1421 Minor Av",
    "active": false,
    "unitCount": 2,
    "severity": 0,
    "lat": 47.613146,
    "long": -122.327096,
    "neighborhood": "Capitol Hill",
    "neighborhoodGroup": "East",
    "units": "A25 M10"
  },
  {
    "id_str": "F200127368",
    "created_at": "12/30/2020 8:55:10 AM",
    "timestamp": 1609347310000,
    "description": "Medic Response",
    "address": "2615 Sw Trenton St",
    "active": false,
    "unitCount": 2,
    "severity": 0,
    "lat": 47.52468,
    "long": -122.366071,
    "neighborhood": "Roxhill/Westwood",
    "neighborhoodGroup": "Delridge Neighborhoods",
    "units": "E37 M32"
  },
  {
    "id_str": "F200127367",
    "created_at": "12/30/2020 8:53:55 AM",
    "timestamp": 1609347235000,
    "description": "Water Job Minor",
    "address": "1121 S Dawson St",
    "active": false,
    "unitCount": 1,
    "severity": 0,
    "lat": 47.555624,
    "long": -122.318467,
    "neighborhood": "Duwamish/SODO",
    "neighborhoodGroup": "Greater Duwamish",
    "units": "L12"
  },
  {
    "id_str": "F200127365",
    "created_at": "12/30/2020 8:30:52 AM",
    "timestamp": 1609345852000,
    "description": "Auto Fire Alarm",
    "address": "200 2nd Av N",
    "active": false,
    "unitCount": 2,
    "severity": 0,
    "lat": 47.619759,
    "long": -122.35283,
    "neighborhood": "Queen Anne",
    "neighborhoodGroup": "Magnolia/Queen Anne",
    "units": "E2 L4"
  },
  {
    "id_str": "F200127364",
    "created_at": "12/30/2020 8:19:19 AM",
    "timestamp": 1609345159000,
    "description": "Auto Fire Alarm",
    "address": "719 2nd Av",
    "active": false,
    "unitCount": 2,
    "severity": 0,
    "lat": 47.60315,
    "long": -122.333292,
    "neighborhood": "Downtown Commercial Core",
    "neighborhoodGroup": "Downtown",
    "units": "E10 L1"
  },
  {
    "id_str": "F200127363",
    "created_at": "12/30/2020 8:17:47 AM",
    "timestamp": 1609345067000,
    "description": "Alarm Bell",
    "address": "803 E Denny Way",
    "active": false,
    "unitCount": 3,
    "severity": 0,
    "lat": 47.618733,
    "long": -122.322146,
    "neighborhood": "Capitol Hill",
    "neighborhoodGroup": "East",
    "units": "E25 L10 L4"
  },
  {
    "id_str": "F200127362",
    "created_at": "12/30/2020 8:14:03 AM",
    "timestamp": 1609344843000,
    "description": "Aid Response",
    "address": "111 Cedar St",
    "active": false,
    "unitCount": 1,
    "severity": 0,
    "lat": 47.615877,
    "long": -122.35052,
    "neighborhood": "Belltown",
    "neighborhoodGroup": "Downtown",
    "units": "A2"
  },
  {
    "id_str": "F200127359",
    "created_at": "12/30/2020 7:56:39 AM",
    "timestamp": 1609343799000,
    "description": "Medic Response",
    "address": "2432 S Spencer St",
    "active": false,
    "unitCount": 2,
    "severity": 0,
    "lat": 47.547777,
    "long": -122.300495,
    "neighborhood": "Beacon Hill",
    "neighborhoodGroup": "Greater Duwamish",
    "units": "E13 M26"
  },
  {
    "id_str": "F200127358",
    "created_at": "12/30/2020 7:50:47 AM",
    "timestamp": 1609343447000,
    "description": "Medic Response",
    "address": "5137 S Juneau St",
    "active": false,
    "unitCount": 2,
    "severity": 0,
    "lat": 47.549713,
    "long": -122.268906,
    "neighborhood": "Seward Park",
    "neighborhoodGroup": "Southeast",
    "units": "E28 M28"
  },
  {
    "id_str": "F200127352",
    "created_at": "12/30/2020 7:35:36 AM",
    "timestamp": 1609342536000,
    "description": "1RED 1 Unit",
    "address": "14000 Lake City Way Ne",
    "active": false,
    "unitCount": 1,
    "severity": 0,
    "lat": 47.730114,
    "long": -122.292311,
    "neighborhood": "Cedar Park/Meadowbrook",
    "neighborhoodGroup": "North",
    "units": "E39"
  },
  {
    "id_str": "F200127351",
    "created_at": "12/30/2020 7:27:02 AM",
    "timestamp": 1609342022000,
    "description": "Aid Response",
    "address": "BROADWAY / MADISON ST",
    "active": false,
    "unitCount": 2,
    "severity": 0,
    "lat": 47.622969,
    "long": -122.29694,
    "neighborhood": "Central Area/Squire Park",
    "neighborhoodGroup": "Central",
    "units": "A25 E34"
  },
  {
    "id_str": "F200127350",
    "created_at": "12/30/2020 7:12:52 AM",
    "timestamp": 1609341172000,
    "description": "Auto Fire Alarm",
    "address": "12360 Lake City Way Ne",
    "active": false,
    "unitCount": 2,
    "severity": 0,
    "lat": 47.718989,
    "long": -122.295405,
    "neighborhood": "Olympic Hills/Victory Heights",
    "neighborhoodGroup": "North",
    "units": "E39 L5"
  },
  {
    "id_str": "F200127348",
    "created_at": "12/30/2020 7:09:17 AM",
    "timestamp": 1609340957000,
    "description": "Auto Fire Alarm",
    "address": "9009 Greenwood Av N",
    "active": false,
    "unitCount": 2,
    "severity": 0,
    "lat": 47.69429,
    "long": -122.35534,
    "neighborhood": "Greenwood/Phinney Ridge",
    "neighborhoodGroup": "Northwest",
    "units": "E21 L8"
  },
  {
    "id_str": "F200127347",
    "created_at": "12/30/2020 7:08:44 AM",
    "timestamp": 1609340924000,
    "description": "Medic Response",
    "address": "14100 LINDEN AV N",
    "active": false,
    "unitCount": 2,
    "severity": 0,
    "lat": 47.73104,
    "long": -122.347764,
    "neighborhood": "Broadview/Bitter Lake",
    "neighborhoodGroup": "Northwest",
    "units": "E24 M31"
  },
  {
    "id_str": "F200127345",
    "created_at": "12/30/2020 6:51:20 AM",
    "timestamp": 1609339880000,
    "description": "4RED - 2 + 1 + 1",
    "address": "803 E Denny Way",
    "active": false,
    "unitCount": 5,
    "severity": 1,
    "lat": 47.618733,
    "long": -122.322146,
    "neighborhood": "Capitol Hill",
    "neighborhoodGroup": "East",
    "units": "B2 E10 E25 L10 L4"
  },
  {
    "id_str": "F200127344",
    "created_at": "12/30/2020 6:41:54 AM",
    "timestamp": 1609339314000,
    "description": "Alarm Bell",
    "address": "2100 S Hill St",
    "active": false,
    "unitCount": 2,
    "severity": 0,
    "lat": 47.584517,
    "long": -122.30555,
    "neighborhood": "North Beacon Hill/Jefferson Park",
    "neighborhoodGroup": "Greater Duwamish",
    "units": "E13 L1"
  },
  {
    "id_str": "F200127342",
    "created_at": "12/30/2020 6:40:16 AM",
    "timestamp": 1609339216000,
    "description": "Auto Fire Alarm",
    "address": "588 Bell St",
    "active": false,
    "unitCount": 2,
    "severity": 0,
    "lat": 47.61663,
    "long": -122.342302,
    "neighborhood": "Cascade/Eastlake",
    "neighborhoodGroup": "Lake Union",
    "units": "E2 L4"
  },
  {
    "id_str": "F200127341",
    "created_at": "12/30/2020 6:30:53 AM",
    "timestamp": 1609338653000,
    "description": "AFA4 - Auto Alarm 2 + 1 + 1",
    "address": "2121 26th Av S",
    "active": false,
    "unitCount": 5,
    "severity": 1,
    "lat": 47.584234,
    "long": -122.299024,
    "neighborhood": "Mt. Baker/North Rainier",
    "neighborhoodGroup": "Southeast",
    "units": "B5 E30 E6 L3 MAR5"
  },
  {
    "id_str": "F200127340",
    "created_at": "12/30/2020 6:20:07 AM",
    "timestamp": 1609338007000,
    "description": "Aid Response",
    "address": "Brooklyn Ave Ne / Ne 41st St",
    "active": false,
    "unitCount": 1,
    "severity": 0,
    "lat": 47.656848,
    "long": -122.314402,
    "neighborhood": "University District",
    "neighborhoodGroup": "Northeast",
    "units": "E17"
  },
  {
    "id_str": "F200127336",
    "created_at": "12/30/2020 6:06:02 AM",
    "timestamp": 1609337162000,
    "description": "Aid Response",
    "address": "310 Ne 51st St",
    "active": false,
    "unitCount": 1,
    "severity": 0,
    "lat": 47.665714,
    "long": -122.325459,
    "neighborhood": "Wallingford",
    "neighborhoodGroup": "Lake Union",
    "units": "E31"
  },
  {
    "id_str": "F200127335",
    "created_at": "12/30/2020 6:01:57 AM",
    "timestamp": 1609336917000,
    "description": "Aid Response",
    "address": "101 Broadway E",
    "active": false,
    "unitCount": 1,
    "severity": 0,
    "lat": 47.61874,
    "long": -122.320854,
    "neighborhood": "Capitol Hill",
    "neighborhoodGroup": "East",
    "units": "L10"
  },
  {
    "id_str": "F200127333",
    "created_at": "12/30/2020 5:59:41 AM",
    "timestamp": 1609336781000,
    "description": "Aid Response",
    "address": "202 19th Av E",
    "active": false,
    "unitCount": 1,
    "severity": 0,
    "lat": 47.619673,
    "long": -122.307364,
    "neighborhood": "Miller Park",
    "neighborhoodGroup": "East",
    "units": "E25"
  },
  {
    "id_str": "F200127332",
    "created_at": "12/30/2020 5:59:19 AM",
    "timestamp": 1609336759000,
    "description": "Low Acuity Response",
    "address": "424 Minor Av N",
    "active": false,
    "unitCount": 1,
    "severity": 0,
    "lat": 47.622242,
    "long": -122.332995,
    "neighborhood": "Cascade/Eastlake",
    "neighborhoodGroup": "Lake Union",
    "units": "A2"
  },
  {
    "id_str": "F200127331",
    "created_at": "12/30/2020 5:57:19 AM",
    "timestamp": 1609336639000,
    "description": "Medic Response",
    "address": "5924 32nd Ave Sw",
    "active": false,
    "unitCount": 2,
    "severity": 0,
    "lat": 47.548755,
    "long": -122.373681,
    "neighborhood": "High Point",
    "neighborhoodGroup": "Delridge Neighborhoods",
    "units": "E37 M32"
  },
  {
    "id_str": "F200127330",
    "created_at": "12/30/2020 5:56:00 AM",
    "timestamp": 1609336560000,
    "description": "Aid Response",
    "address": "1101 Madison St",
    "active": false,
    "unitCount": 1,
    "severity": 0,
    "lat": 47.609343,
    "long": -122.325128,
    "neighborhood": "First Hill",
    "neighborhoodGroup": "East",
    "units": "A25"
  },
  {
    "id_str": "F200127329",
    "created_at": "12/30/2020 5:55:11 AM",
    "timestamp": 1609336511000,
    "description": "Rescue Lock In/Out",
    "address": "1600 2nd Ave",
    "active": false,
    "unitCount": 1,
    "severity": 0,
    "lat": 47.610278,
    "long": -122.339812,
    "neighborhood": "Downtown Commercial Core",
    "neighborhoodGroup": "Downtown",
    "units": "E2"
  },
  {
    "id_str": "F200127327",
    "created_at": "12/30/2020 5:30:15 AM",
    "timestamp": 1609335015000,
    "description": "Auto Fire Alarm",
    "address": "4902 Rainier Av S",
    "active": false,
    "unitCount": 2,
    "severity": 0,
    "lat": 47.557833,
    "long": -122.285034,
    "neighborhood": "Columbia City",
    "neighborhoodGroup": "Southeast",
    "units": "E28 L12"
  },
  {
    "id_str": "F200127325",
    "created_at": "12/30/2020 5:26:41 AM",
    "timestamp": 1609334801000,
    "description": "Medic Response",
    "address": "5350 Tallman Av Nw",
    "active": false,
    "unitCount": 2,
    "severity": 0,
    "lat": 47.667604,
    "long": -122.380468,
    "neighborhood": "Ballard",
    "neighborhoodGroup": "Ballard",
    "units": "E18 M18"
  },
  {
    "id_str": "F200127324",
    "created_at": "12/30/2020 5:11:15 AM",
    "timestamp": 1609333875000,
    "description": "Aid Response",
    "address": "2718 14th Av S",
    "active": false,
    "unitCount": 1,
    "severity": 0,
    "lat": 47.579323,
    "long": -122.314678,
    "neighborhood": "North Beacon Hill/Jefferson Park",
    "neighborhoodGroup": "Greater Duwamish",
    "units": "E13"
  },
  {
    "id_str": "F200127323",
    "created_at": "12/30/2020 5:00:08 AM",
    "timestamp": 1609333208000,
    "description": "Low Acuity Response",
    "address": "13716 Lake City Way Ne",
    "active": false,
    "unitCount": 1,
    "severity": 0,
    "lat": 47.72838,
    "long": -122.292253,
    "neighborhood": "Cedar Park/Meadowbrook",
    "neighborhoodGroup": "North",
    "units": "E39"
  },
  {
    "id_str": "F200127322",
    "created_at": "12/30/2020 4:44:44 AM",
    "timestamp": 1609332284000,
    "description": "Aid Response",
    "address": "3624 Phinney Av N",
    "active": false,
    "unitCount": 1,
    "severity": 0,
    "lat": 47.652393,
    "long": -122.354474,
    "neighborhood": "Fremont",
    "neighborhoodGroup": "Lake Union",
    "units": "E9"
  },
  {
    "id_str": "F200127320",
    "created_at": "12/30/2020 4:39:48 AM",
    "timestamp": 1609331988000,
    "description": "Aid Response",
    "address": "2307 E Fir St",
    "active": false,
    "unitCount": 1,
    "severity": 0,
    "lat": 47.602668,
    "long": -122.302338,
    "neighborhood": "Central Area/Squire Park",
    "neighborhoodGroup": "Central",
    "units": "E6"
  },
  {
    "id_str": "F200127318",
    "created_at": "12/30/2020 4:36:43 AM",
    "timestamp": 1609331803000,
    "description": "Aid Response",
    "address": "10557 Stone Av N",
    "active": false,
    "unitCount": 1,
    "severity": 0,
    "lat": 47.705568,
    "long": -122.342012,
    "neighborhood": "Licton Springs",
    "neighborhoodGroup": "Northwest",
    "units": "E24"
  },
  {
    "id_str": "F200127317",
    "created_at": "12/30/2020 4:33:41 AM",
    "timestamp": 1609331621000,
    "description": "Aid Response",
    "address": "7124 47th Av Sw",
    "active": false,
    "unitCount": 1,
    "severity": 0,
    "lat": 47.538889,
    "long": -122.393088,
    "neighborhood": "Fauntleroy/Seaview",
    "neighborhoodGroup": "Southwest",
    "units": "E37"
  },
  {
    "id_str": "F200127315",
    "created_at": "12/30/2020 4:27:52 AM",
    "timestamp": 1609331272000,
    "description": "Aid Response",
    "address": "1808 E Harrison St",
    "active": false,
    "unitCount": 1,
    "severity": 0,
    "lat": 47.622071,
    "long": -122.3086,
    "neighborhood": "Miller Park",
    "neighborhoodGroup": "East",
    "units": "A25"
  },
  {
    "id_str": "F200127314",
    "created_at": "12/30/2020 4:08:28 AM",
    "timestamp": 1609330108000,
    "description": "Auto Fire Alarm",
    "address": "5268 16th Ave Ne",
    "active": false,
    "unitCount": 2,
    "severity": 0,
    "lat": 47.666899,
    "long": -122.310771,
    "neighborhood": "University District",
    "neighborhoodGroup": "Northeast",
    "units": "E17 L9"
  },
  {
    "id_str": "F200127313",
    "created_at": "12/30/2020 4:06:11 AM",
    "timestamp": 1609329971000,
    "description": "Aid Response",
    "address": "3200 Nw 54th St",
    "active": false,
    "unitCount": 1,
    "severity": 0,
    "lat": 47.66754,
    "long": -122.398314,
    "neighborhood": "Sunset Hill/Loyal Heights",
    "neighborhoodGroup": "Ballard",
    "units": "E18"
  },
  {
    "id_str": "F200127312",
    "created_at": "12/30/2020 4:01:15 AM",
    "timestamp": 1609329675000,
    "description": "Aid Response",
    "address": "9201 Rainier Av S",
    "active": false,
    "unitCount": 1,
    "severity": 0,
    "lat": 47.52101,
    "long": -122.269997,
    "neighborhood": "Rainier Beach",
    "neighborhoodGroup": "Southeast",
    "units": "E33"
  },
  {
    "id_str": "F200127311",
    "created_at": "12/30/2020 3:56:12 AM",
    "timestamp": 1609329372000,
    "description": "Aid Response",
    "address": "478 Ne Thornton Pl",
    "active": false,
    "unitCount": 1,
    "severity": 0,
    "lat": 47.703017,
    "long": -122.324915,
    "neighborhood": "Northgate/Maple Leaf",
    "neighborhoodGroup": "North",
    "units": "E16"
  },
  {
    "id_str": "F200127310",
    "created_at": "12/30/2020 3:51:26 AM",
    "timestamp": 1609329086000,
    "description": "Auto Fire Alarm",
    "address": "2208 15th Av W",
    "active": false,
    "unitCount": 2,
    "severity": 0,
    "lat": 47.638695,
    "long": -122.376149,
    "neighborhood": "Interbay",
    "neighborhoodGroup": "Magnolia/Queen Anne",
    "units": "E20 L8"
  },
  {
    "id_str": "F200127309",
    "created_at": "12/30/2020 3:49:23 AM",
    "timestamp": 1609328963000,
    "description": "Medic Response",
    "address": "1342 12th Av S",
    "active": false,
    "unitCount": 2,
    "severity": 0,
    "lat": 47.591211,
    "long": -122.317281,
    "neighborhood": "Duwamish/SODO",
    "neighborhoodGroup": "Greater Duwamish",
    "units": "E13 M10"
  },
  {
    "id_str": "F200127308",
    "created_at": "12/30/2020 3:39:15 AM",
    "timestamp": 1609328355000,
    "description": "Aid Response",
    "address": "509 3rd Av",
    "active": false,
    "unitCount": 1,
    "severity": 0,
    "lat": 47.602114,
    "long": -122.330809,
    "neighborhood": "Downtown Commercial Core",
    "neighborhoodGroup": "Downtown",
    "units": "A5"
  },
  {
    "id_str": "F200127307",
    "created_at": "12/30/2020 3:34:12 AM",
    "timestamp": 1609328052000,
    "description": "Aid Response",
    "address": "6420 California Av Sw",
    "active": false,
    "unitCount": 1,
    "severity": 0,
    "lat": 47.545436,
    "long": -122.387209,
    "neighborhood": "Fauntleroy/Seaview",
    "neighborhoodGroup": "Southwest",
    "units": "E32"
  },
  {
    "id_str": "F200127305",
    "created_at": "12/30/2020 3:17:48 AM",
    "timestamp": 1609327068000,
    "description": "Low Acuity Response",
    "address": "328 N 104th St",
    "active": false,
    "unitCount": 1,
    "severity": 0,
    "lat": 47.704358,
    "long": -122.355065,
    "neighborhood": "Greenwood/Phinney Ridge",
    "neighborhoodGroup": "Northwest",
    "units": "E35"
  },
  {
    "id_str": "F200127304",
    "created_at": "12/30/2020 3:13:07 AM",
    "timestamp": 1609326787000,
    "description": "Aid Response",
    "address": "M L King Jr Way S / S Norfolk St",
    "active": false,
    "unitCount": 1,
    "severity": 0,
    "lat": 47.513425,
    "long": -122.278933,
    "neighborhood": "South Beacon Hill/NewHolly",
    "neighborhoodGroup": "Greater Duwamish",
    "units": "E33"
  },
  {
    "id_str": "F200127302",
    "created_at": "12/30/2020 3:02:42 AM",
    "timestamp": 1609326162000,
    "description": "Aid Response",
    "address": "906 Dexter Av N",
    "active": false,
    "unitCount": 1,
    "severity": 0,
    "lat": 47.627181,
    "long": -122.342327,
    "neighborhood": "Queen Anne",
    "neighborhoodGroup": "Magnolia/Queen Anne",
    "units": "A2"
  },
  {
    "id_str": "F200127301",
    "created_at": "12/30/2020 2:59:37 AM",
    "timestamp": 1609325977000,
    "description": "Dumpster Fire",
    "address": "100 Melrose Av E",
    "active": false,
    "unitCount": 1,
    "severity": 0,
    "lat": 47.618497,
    "long": -122.327854,
    "neighborhood": "Capitol Hill",
    "neighborhoodGroup": "East",
    "units": "E25"
  },
  {
    "id_str": "F200127299",
    "created_at": "12/30/2020 2:50:48 AM",
    "timestamp": 1609325448000,
    "description": "Medic Response",
    "address": "3616 34th Ave S",
    "active": false,
    "unitCount": 2,
    "severity": 0,
    "lat": 47.571435,
    "long": -122.289925,
    "neighborhood": "Columbia City",
    "neighborhoodGroup": "Southeast",
    "units": "E30 M28"
  },
  {
    "id_str": "F200127298",
    "created_at": "12/30/2020 2:39:10 AM",
    "timestamp": 1609324750000,
    "description": "Medic Response Freeway",
    "address": "Nb Sr99 At N 49th St",
    "active": false,
    "unitCount": 4,
    "severity": 0,
    "lat": 47.66428,
    "long": -122.34718,
    "neighborhood": "Wallingford",
    "neighborhoodGroup": "Lake Union",
    "units": "A2 E31 E9 M17"
  },
  {
    "id_str": "F200127297",
    "created_at": "12/30/2020 2:37:18 AM",
    "timestamp": 1609324638000,
    "description": "Aid Response",
    "address": "9262 Rainier Av S",
    "active": false,
    "unitCount": 1,
    "severity": 0,
    "lat": 47.519853,
    "long": -122.268364,
    "neighborhood": "Rainier Beach",
    "neighborhoodGroup": "Southeast",
    "units": "E28"
  },
  {
    "id_str": "F200127296",
    "created_at": "12/30/2020 2:30:27 AM",
    "timestamp": 1609324227000,
    "description": "Aid Response",
    "address": "5351 S Wallace St",
    "active": false,
    "unitCount": 1,
    "severity": 0,
    "lat": 47.497468,
    "long": -122.266889,
    "neighborhood": "Rainier Beach",
    "neighborhoodGroup": "Southeast",
    "units": "E33"
  },
  {
    "id_str": "F200127295",
    "created_at": "12/30/2020 2:22:02 AM",
    "timestamp": 1609323722000,
    "description": "Hang-Up, Aid",
    "address": "206 Summit Av E",
    "active": false,
    "unitCount": 1,
    "severity": 0,
    "lat": 47.619711,
    "long": -122.325294,
    "neighborhood": "Capitol Hill",
    "neighborhoodGroup": "East",
    "units": "A25"
  },
  {
    "id_str": "F200127292",
    "created_at": "12/30/2020 1:57:31 AM",
    "timestamp": 1609322251000,
    "description": "Medic Response",
    "address": "7515 35th Av Sw",
    "active": false,
    "unitCount": 2,
    "severity": 0,
    "lat": 47.535391,
    "long": -122.376606,
    "neighborhood": "Roxhill/Westwood",
    "neighborhoodGroup": "Delridge Neighborhoods",
    "units": "E37 M32"
  },
  {
    "id_str": "F200127291",
    "created_at": "12/30/2020 1:53:37 AM",
    "timestamp": 1609322017000,
    "description": "Aid Response",
    "address": "2720 3rd Av",
    "active": false,
    "unitCount": 1,
    "severity": 0,
    "lat": 47.617238,
    "long": -122.349079,
    "neighborhood": "Cascade/Eastlake",
    "neighborhoodGroup": "Lake Union",
    "units": "A2"
  },
  {
    "id_str": "F200127288",
    "created_at": "12/30/2020 1:32:41 AM",
    "timestamp": 1609320761000,
    "description": "Aid Response",
    "address": "1700 Bellevue Av",
    "active": false,
    "unitCount": 1,
    "severity": 0,
    "lat": 47.616635,
    "long": -122.326801,
    "neighborhood": "Capitol Hill",
    "neighborhoodGroup": "East",
    "units": "A25"
  },
  {
    "id_str": "F200127287",
    "created_at": "12/30/2020 1:27:20 AM",
    "timestamp": 1609320440000,
    "description": "Aid Response",
    "address": "1005 Terrace St",
    "active": false,
    "unitCount": 1,
    "severity": 0,
    "lat": 47.604615,
    "long": -122.32228,
    "neighborhood": "First Hill",
    "neighborhoodGroup": "East",
    "units": "A5"
  },
  {
    "id_str": "F200127286",
    "created_at": "12/30/2020 1:20:36 AM",
    "timestamp": 1609320036000,
    "description": "Automatic Fire Alarm Resd",
    "address": "4710 17th Av Ne",
    "active": false,
    "unitCount": 1,
    "severity": 0,
    "lat": 47.663124,
    "long": -122.309502,
    "neighborhood": "University District",
    "neighborhoodGroup": "Northeast",
    "units": "E17"
  },
  {
    "id_str": "F200127284",
    "created_at": "12/30/2020 12:52:03 AM",
    "timestamp": 1609318323000,
    "description": "Medic Response",
    "address": "714 M L King Jr Way S",
    "active": false,
    "unitCount": 2,
    "severity": 0,
    "lat": 47.596547,
    "long": -122.297494,
    "neighborhood": "Madrona/Leschi",
    "neighborhoodGroup": "Central",
    "units": "E6 M1"
  },
  {
    "id_str": "F200127282",
    "created_at": "12/30/2020 12:39:28 AM",
    "timestamp": 1609317568000,
    "description": "Aid Response",
    "address": "7535 Seward Park Ave S",
    "active": false,
    "unitCount": 1,
    "severity": 0,
    "lat": 47.534317,
    "long": -122.267057,
    "neighborhood": "Seward Park",
    "neighborhoodGroup": "Southeast",
    "units": "E28"
  },
  {
    "id_str": "F200127281",
    "created_at": "12/30/2020 12:37:00 AM",
    "timestamp": 1609317420000,
    "description": "Aid Response",
    "address": "6810 31st Ave Ne",
    "active": false,
    "unitCount": 3,
    "severity": 0,
    "lat": 47.677764,
    "long": -122.294093,
    "neighborhood": "Ravenna/Bryant",
    "neighborhoodGroup": "Northeast",
    "units": "E16 E38 M17"
  },
  {
    "id_str": "F200127279",
    "created_at": "12/30/2020 12:25:06 AM",
    "timestamp": 1609316706000,
    "description": "Aid Response",
    "address": "2418 Nw 56th St",
    "active": false,
    "unitCount": 1,
    "severity": 0,
    "lat": 47.669458,
    "long": -122.387807,
    "neighborhood": "Sunset Hill/Loyal Heights",
    "neighborhoodGroup": "Ballard",
    "units": "E18"
  },
  {
    "id_str": "F200127278",
    "created_at": "12/30/2020 12:15:37 AM",
    "timestamp": 1609316137000,
    "description": "Aid Response",
    "address": "5th Ave S / S Weller St",
    "active": false,
    "unitCount": 1,
    "severity": 0,
    "lat": 47.597517,
    "long": -122.327675,
    "neighborhood": "Pioneer Square/International District",
    "neighborhoodGroup": "Downtown",
    "units": "A10"
  },
  {
    "id_str": "F200127277",
    "created_at": "12/30/2020 12:15:12 AM",
    "timestamp": 1609316112000,
    "description": "Aid Response",
    "address": "4246 Williams Ave W",
    "active": false,
    "unitCount": 1,
    "severity": 0,
    "lat": 47.658094,
    "long": -122.39225,
    "neighborhood": "Interbay",
    "neighborhoodGroup": "Magnolia/Queen Anne",
    "units": "E20"
  },
  {
    "id_str": "F200127276",
    "created_at": "12/30/2020 12:12:51 AM",
    "timestamp": 1609315971000,
    "description": "Aid Response",
    "address": "935 E Barbara Bailey Way",
    "active": false,
    "unitCount": 1,
    "severity": 0,
    "lat": 47.618744,
    "long": -122.320284,
    "neighborhood": "Capitol Hill",
    "neighborhoodGroup": "East",
    "units": "A25"
  },
  {
    "id_str": "F200127274",
    "created_at": "12/30/2020 12:08:37 AM",
    "timestamp": 1609315717000,
    "description": "Medic Response",
    "address": "1900 25TH AV S",
    "active": false,
    "unitCount": 2,
    "severity": 0,
    "lat": 47.585484,
    "long": -122.300319,
    "neighborhood": "Mt. Baker/North Rainier",
    "neighborhoodGroup": "Southeast",
    "units": "E30 M10"
  },
  {
    "id_str": "F200127275",
    "created_at": "12/30/2020 12:08:01 AM",
    "timestamp": 1609315681000,
    "description": "Aid Response",
    "address": "5300 24th Av Ne",
    "active": false,
    "unitCount": 1,
    "severity": 0,
    "lat": 47.66707,
    "long": -122.301946,
    "neighborhood": "Ravenna/Bryant",
    "neighborhoodGroup": "Northeast",
    "units": "E38"
  },
  {
    "id_str": "F200127272",
    "created_at": "12/30/2020 12:01:09 AM",
    "timestamp": 1609315269000,
    "description": "AFA4 - Auto Alarm 2 + 1 + 1",
    "address": "12513 Lake City Way Ne",
    "active": false,
    "unitCount": 5,
    "severity": 1,
    "lat": 47.719389,
    "long": -122.295168,
    "neighborhood": "Cedar Park/Meadowbrook",
    "neighborhoodGroup": "North",
    "units": "B2 B6 E16 E39 L5"
  },
  {
    "id_str": "F200127271",
    "created_at": "12/29/2020 11:51:54 PM",
    "timestamp": 1609314714000,
    "description": "Aid Response",
    "address": "2140 N Northgate Way",
    "active": false,
    "unitCount": 1,
    "severity": 0,
    "lat": 47.708656,
    "long": -122.3329,
    "neighborhood": "Northgate/Maple Leaf",
    "neighborhoodGroup": "North",
    "units": "E24"
  },
  {
    "id_str": "F200127269",
    "created_at": "12/29/2020 11:45:24 PM",
    "timestamp": 1609314324000,
    "description": "Wires Down",
    "address": "3244 Ne 92nd St",
    "active": false,
    "unitCount": 1,
    "severity": 0,
    "lat": 47.695661,
    "long": -122.292916,
    "neighborhood": "Wedgwood/View Ridge",
    "neighborhoodGroup": "Northeast",
    "units": "E38"
  },
  {
    "id_str": "F200127267",
    "created_at": "12/29/2020 11:33:25 PM",
    "timestamp": 1609313605000,
    "description": "Investigate Out Of Service",
    "address": "30th Ave Ne / Ne 127th St",
    "active": false,
    "unitCount": 1,
    "severity": 0,
    "units": "E39"
  },
  {
    "id_str": "F200127266",
    "created_at": "12/29/2020 11:19:18 PM",
    "timestamp": 1609312758000,
    "description": "Aid Response",
    "address": "13508 36th Ave Ne",
    "active": false,
    "unitCount": 1,
    "severity": 0,
    "lat": 47.726515,
    "long": -122.289561,
    "neighborhood": "Cedar Park/Meadowbrook",
    "neighborhoodGroup": "North",
    "units": "E39"
  },
  {
    "id_str": "F200127264",
    "created_at": "12/29/2020 11:04:51 PM",
    "timestamp": 1609311891000,
    "description": "Low Acuity Response",
    "address": "8614 34th Ave Sw",
    "active": false,
    "unitCount": 1,
    "severity": 0,
    "lat": 47.526343,
    "long": -122.375288,
    "neighborhood": "Roxhill/Westwood",
    "neighborhoodGroup": "Delridge Neighborhoods",
    "units": "E37"
  },
  {
    "id_str": "F200127263",
    "created_at": "12/29/2020 10:55:02 PM",
    "timestamp": 1609311302000,
    "description": "Aid Response",
    "address": "2208 15th Av W",
    "active": false,
    "unitCount": 1,
    "severity": 0,
    "lat": 47.638695,
    "long": -122.376149,
    "neighborhood": "Interbay",
    "neighborhoodGroup": "Magnolia/Queen Anne",
    "units": "E20"
  },
  {
    "id_str": "F200127262",
    "created_at": "12/29/2020 10:48:56 PM",
    "timestamp": 1609310936000,
    "description": "Medic Response",
    "address": "1959 NE PACIFIC ST",
    "active": false,
    "unitCount": 2,
    "severity": 0,
    "lat": 47.650743,
    "long": -122.308014,
    "neighborhood": "University District",
    "neighborhoodGroup": "Northeast",
    "units": "E31 M17"
  },
  {
    "id_str": "F200127257",
    "created_at": "12/29/2020 10:22:12 PM",
    "timestamp": 1609309332000,
    "description": "Aid Response",
    "address": "810 Virginia St",
    "active": false,
    "unitCount": 1,
    "severity": 0,
    "lat": 47.615789,
    "long": -122.336507,
    "neighborhood": "Cascade/Eastlake",
    "neighborhoodGroup": "Lake Union",
    "units": "A2"
  },
  {
    "id_str": "F200127255",
    "created_at": "12/29/2020 10:10:36 PM",
    "timestamp": 1609308636000,
    "description": "Aid Response",
    "address": "9455 27th Av Sw",
    "active": false,
    "unitCount": 1,
    "severity": 0,
    "lat": 47.518178,
    "long": -122.367277,
    "neighborhood": "Roxhill/Westwood",
    "neighborhoodGroup": "Delridge Neighborhoods",
    "units": "E37"
  },
  {
    "id_str": "F200127254",
    "created_at": "12/29/2020 10:07:26 PM",
    "timestamp": 1609308446000,
    "description": "Aid Response",
    "address": "4238 S Kenyon St",
    "active": false,
    "unitCount": 1,
    "severity": 0,
    "lat": 47.531543,
    "long": -122.280155,
    "neighborhood": "South Beacon Hill/NewHolly",
    "neighborhoodGroup": "Greater Duwamish",
    "units": "E33"
  },
  {
    "id_str": "F200127253",
    "created_at": "12/29/2020 10:05:55 PM",
    "timestamp": 1609308355000,
    "description": "Aid Response",
    "address": "914 James St",
    "active": false,
    "unitCount": 1,
    "severity": 0,
    "lat": 47.605621,
    "long": -122.324591,
    "neighborhood": "First Hill",
    "neighborhoodGroup": "East",
    "units": "A5"
  },
  {
    "id_str": "F200127252",
    "created_at": "12/29/2020 9:56:28 PM",
    "timestamp": 1609307788000,
    "description": "Aid Response",
    "address": "7169 38th Ave S",
    "active": false,
    "unitCount": 1,
    "severity": 0,
    "lat": 47.538238,
    "long": -122.284731,
    "neighborhood": "South Beacon Hill/NewHolly",
    "neighborhoodGroup": "Greater Duwamish",
    "units": "E28"
  },
  {
    "id_str": "F200127251",
    "created_at": "12/29/2020 9:52:34 PM",
    "timestamp": 1609307554000,
    "description": "Aid Response",
    "address": "10501 8th Av Ne",
    "active": false,
    "unitCount": 1,
    "severity": 0,
    "lat": 47.704938,
    "long": -122.320485,
    "neighborhood": "Northgate/Maple Leaf",
    "neighborhoodGroup": "North",
    "units": "E16"
  },
  {
    "id_str": "F200127249",
    "created_at": "12/29/2020 9:42:42 PM",
    "timestamp": 1609306962000,
    "description": "Aid Response",
    "address": "301 Mercer St",
    "active": false,
    "unitCount": 2,
    "severity": 0,
    "lat": 47.62457,
    "long": -122.351461,
    "neighborhood": "Cascade/Eastlake",
    "neighborhoodGroup": "Lake Union",
    "units": "A2 E2"
  },
  {
    "id_str": "F200127247",
    "created_at": "12/29/2020 9:27:08 PM",
    "timestamp": 1609306028000,
    "description": "Medic Response",
    "address": "3rd Ave / James St",
    "active": false,
    "unitCount": 2,
    "severity": 0,
    "lat": 47.602769,
    "long": -122.331409,
    "neighborhood": "Downtown Commercial Core",
    "neighborhoodGroup": "Downtown",
    "units": "A10 M1"
  },
  {
    "id_str": "F200127246",
    "created_at": "12/29/2020 9:26:36 PM",
    "timestamp": 1609305996000,
    "description": "Medic Response",
    "address": "12333 33rd Av Ne",
    "active": false,
    "unitCount": 3,
    "severity": 0,
    "lat": 47.717653,
    "long": -122.292772,
    "neighborhood": "Olympic Hills/Victory Heights",
    "neighborhoodGroup": "North",
    "units": "E39 L5 M17"
  },
  {
    "id_str": "F200127245",
    "created_at": "12/29/2020 9:15:41 PM",
    "timestamp": 1609305341000,
    "description": "Aid Response",
    "address": "100 Crockett St",
    "active": false,
    "unitCount": 1,
    "severity": 0,
    "lat": 47.637416,
    "long": -122.355598,
    "neighborhood": "Queen Anne",
    "neighborhoodGroup": "Magnolia/Queen Anne",
    "units": "E8"
  },
  {
    "id_str": "F200127244",
    "created_at": "12/29/2020 9:13:56 PM",
    "timestamp": 1609305236000,
    "description": "Aid Response",
    "address": "3501 Rainier Av S",
    "active": false,
    "unitCount": 1,
    "severity": 0,
    "lat": 47.571853,
    "long": -122.293193,
    "neighborhood": "Columbia City",
    "neighborhoodGroup": "Southeast",
    "units": "E30"
  },
  {
    "id_str": "F200127242",
    "created_at": "12/29/2020 9:09:19 PM",
    "timestamp": 1609304959000,
    "description": "Aid Response",
    "address": "2729 2nd Av",
    "active": false,
    "unitCount": 1,
    "severity": 0,
    "lat": 47.616625,
    "long": -122.350024,
    "neighborhood": "Belltown",
    "neighborhoodGroup": "Downtown",
    "units": "E2"
  },
  {
    "id_str": "F200127241",
    "created_at": "12/29/2020 9:07:54 PM",
    "timestamp": 1609304874000,
    "description": "Medic Response",
    "address": "721 Pine St",
    "active": false,
    "unitCount": 2,
    "severity": 0,
    "lat": 47.612701,
    "long": -122.334021,
    "neighborhood": "First Hill",
    "neighborhoodGroup": "East",
    "units": "A25 M10"
  },
  {
    "id_str": "F200127240",
    "created_at": "12/29/2020 9:06:35 PM",
    "timestamp": 1609304795000,
    "description": "Aid Response",
    "address": "1820 Minor Av",
    "active": false,
    "unitCount": 1,
    "severity": 0,
    "lat": 47.616989,
    "long": -122.330811,
    "neighborhood": "Cascade/Eastlake",
    "neighborhoodGroup": "Lake Union",
    "units": "A2"
  },
  {
    "id_str": "F200127235",
    "created_at": "12/29/2020 8:33:21 PM",
    "timestamp": 1609302801000,
    "description": "Aid Response",
    "address": "3rd Ave / Columbia St",
    "active": false,
    "unitCount": 1,
    "severity": 0,
    "lat": 47.604197,
    "long": -122.332714,
    "neighborhood": "Downtown Commercial Core",
    "neighborhoodGroup": "Downtown",
    "units": "A5"
  },
  {
    "id_str": "F200127233",
    "created_at": "12/29/2020 8:25:20 PM",
    "timestamp": 1609302320000,
    "description": "Aid Response",
    "address": "6900 37th Av S",
    "active": false,
    "unitCount": 1,
    "severity": 0,
    "lat": 47.540654,
    "long": -122.286239,
    "neighborhood": "South Beacon Hill/NewHolly",
    "neighborhoodGroup": "Greater Duwamish",
    "units": "E28"
  },
  {
    "id_str": "F200127232",
    "created_at": "12/29/2020 8:24:56 PM",
    "timestamp": 1609302296000,
    "description": "Medic Response",
    "address": "6551 48th Ave Ne",
    "active": false,
    "unitCount": 2,
    "severity": 0,
    "lat": 47.676084,
    "long": -122.276886,
    "neighborhood": "Wedgwood/View Ridge",
    "neighborhoodGroup": "Northeast",
    "units": "E38 M17"
  },
  {
    "id_str": "F200127234",
    "created_at": "12/29/2020 8:24:05 PM",
    "timestamp": 1609302245000,
    "description": "Rescue Lock In/Out",
    "address": "3012 Ne 127th St",
    "active": false,
    "unitCount": 1,
    "severity": 0,
    "lat": 47.721092,
    "long": -122.29607,
    "neighborhood": "Cedar Park/Meadowbrook",
    "neighborhoodGroup": "North",
    "units": "L5"
  },
  {
    "id_str": "F200127231",
    "created_at": "12/29/2020 8:22:32 PM",
    "timestamp": 1609302152000,
    "description": "Aid Response",
    "address": "1431 Minor Av",
    "active": false,
    "unitCount": 1,
    "severity": 0,
    "lat": 47.613247,
    "long": -122.327187,
    "neighborhood": "Capitol Hill",
    "neighborhoodGroup": "East",
    "units": "A25"
  },
  {
    "id_str": "F200127229",
    "created_at": "12/29/2020 8:18:38 PM",
    "timestamp": 1609301918000,
    "description": "Aid Response",
    "address": "1302 E Yesler Way",
    "active": false,
    "unitCount": 1,
    "severity": 0,
    "lat": 47.601688,
    "long": -122.314914,
    "neighborhood": "Judkins Park",
    "neighborhoodGroup": "Central",
    "units": "A10"
  },
  {
    "id_str": "F200127228",
    "created_at": "12/29/2020 8:13:23 PM",
    "timestamp": 1609301603000,
    "description": "Aid Response",
    "address": "2400 11th Av Sw",
    "active": false,
    "unitCount": 1,
    "severity": 0,
    "lat": 47.584283,
    "long": -122.350759,
    "neighborhood": "North Delridge",
    "neighborhoodGroup": "Delridge Neighborhoods",
    "units": "E36"
  },
  {
    "id_str": "F200127227",
    "created_at": "12/29/2020 8:10:30 PM",
    "timestamp": 1609301430000,
    "description": "Aid Response",
    "address": "2309 S Lane St",
    "active": false,
    "unitCount": 1,
    "severity": 0,
    "lat": 47.596477,
    "long": -122.302129,
    "neighborhood": "Madrona/Leschi",
    "neighborhoodGroup": "Central",
    "units": "E6"
  },
  {
    "id_str": "F200127226",
    "created_at": "12/29/2020 8:08:35 PM",
    "timestamp": 1609301315000,
    "description": "Auto Fire Alarm",
    "address": "1505 11th Av",
    "active": false,
    "unitCount": 2,
    "severity": 0,
    "lat": 47.614141,
    "long": -122.318142,
    "neighborhood": "Capitol Hill",
    "neighborhoodGroup": "East",
    "units": "E25 L10"
  },
  {
    "id_str": "F200127224",
    "created_at": "12/29/2020 7:59:12 PM",
    "timestamp": 1609300752000,
    "description": "Medic Response",
    "address": "1530 NW 57TH ST",
    "active": false,
    "unitCount": 2,
    "severity": 0,
    "lat": 47.670172,
    "long": -122.376604,
    "neighborhood": "Ballard",
    "neighborhoodGroup": "Ballard",
    "units": "E18 M18"
  },
  {
    "id_str": "F200127222",
    "created_at": "12/29/2020 7:53:13 PM",
    "timestamp": 1609300393000,
    "description": "Auto Fire Alarm",
    "address": "1215 Seneca St",
    "active": false,
    "unitCount": 2,
    "severity": 0,
    "lat": 47.611301,
    "long": -122.325164,
    "neighborhood": "Capitol Hill",
    "neighborhoodGroup": "East",
    "units": "E25 L10"
  },
  {
    "id_str": "F200127221",
    "created_at": "12/29/2020 7:45:09 PM",
    "timestamp": 1609299909000,
    "description": "Low Acuity Response",
    "address": "8324 Wabash Ave S",
    "active": false,
    "unitCount": 1,
    "severity": 0,
    "lat": 47.528933,
    "long": -122.26919,
    "neighborhood": "Rainier Beach",
    "neighborhoodGroup": "Southeast",
    "units": "E33"
  },
  {
    "id_str": "F200127220",
    "created_at": "12/29/2020 7:41:41 PM",
    "timestamp": 1609299701000,
    "description": "Auto Fire Alarm",
    "address": "1000 Minor Ave",
    "active": false,
    "unitCount": 3,
    "severity": 0,
    "lat": 47.609802,
    "long": -122.324029,
    "neighborhood": "First Hill",
    "neighborhoodGroup": "East",
    "units": "E25 L1 L10"
  },
  {
    "id_str": "F200127219",
    "created_at": "12/29/2020 7:28:52 PM",
    "timestamp": 1609298932000,
    "description": "Aid Response",
    "address": "1100 N 115th St",
    "active": false,
    "unitCount": 1,
    "severity": 0,
    "lat": 47.712319,
    "long": -122.344814,
    "neighborhood": "Broadview/Bitter Lake",
    "neighborhoodGroup": "Northwest",
    "units": "A31"
  },
  {
    "id_str": "F200127217",
    "created_at": "12/29/2020 7:20:24 PM",
    "timestamp": 1609298424000,
    "description": "Aid Response",
    "address": "1451 Nw 46th St",
    "active": false,
    "unitCount": 1,
    "severity": 0,
    "lat": 47.662204,
    "long": -122.374877,
    "neighborhood": "Ballard",
    "neighborhoodGroup": "Ballard",
    "units": "E18"
  },
  {
    "id_str": "F200127215",
    "created_at": "12/29/2020 7:14:45 PM",
    "timestamp": 1609298085000,
    "description": "Medic Response",
    "address": "1431 Minor Av",
    "active": false,
    "unitCount": 2,
    "severity": 0,
    "lat": 47.613247,
    "long": -122.327187,
    "neighborhood": "Capitol Hill",
    "neighborhoodGroup": "East",
    "units": "L10 M1"
  },
  {
    "id_str": "F200127214",
    "created_at": "12/29/2020 7:09:28 PM",
    "timestamp": 1609297768000,
    "description": "Aid Response",
    "address": "4908 Rainier Av S",
    "active": false,
    "unitCount": 1,
    "severity": 0,
    "lat": 47.557783,
    "long": -122.285009,
    "neighborhood": "Columbia City",
    "neighborhoodGroup": "Southeast",
    "units": "E28"
  },
  {
    "id_str": "F200127210",
    "created_at": "12/29/2020 6:56:04 PM",
    "timestamp": 1609296964000,
    "description": "Low Acuity Response",
    "address": "9850 62nd Ave S",
    "active": false,
    "unitCount": 1,
    "severity": 0,
    "lat": 47.512926,
    "long": -122.255861,
    "neighborhood": "Rainier Beach",
    "neighborhoodGroup": "Southeast",
    "units": "E33"
  },
  {
    "id_str": "F200127209",
    "created_at": "12/29/2020 6:55:03 PM",
    "timestamp": 1609296903000,
    "description": "Aid Response",
    "address": "1414 E Yesler Way",
    "active": false,
    "unitCount": 1,
    "severity": 0,
    "lat": 47.601687,
    "long": -122.31398,
    "neighborhood": "First Hill",
    "neighborhoodGroup": "East",
    "units": "A5"
  },
  {
    "id_str": "F200127208",
    "created_at": "12/29/2020 6:54:35 PM",
    "timestamp": 1609296875000,
    "description": "Aid Response",
    "address": "Harrison St / Fairview Ave N",
    "active": false,
    "unitCount": 1,
    "severity": 0,
    "lat": 47.622,
    "long": -122.334274,
    "neighborhood": "Cascade/Eastlake",
    "neighborhoodGroup": "Lake Union",
    "units": "A2"
  },
  {
    "id_str": "F200127207",
    "created_at": "12/29/2020 6:48:07 PM",
    "timestamp": 1609296487000,
    "description": "Aid Response",
    "address": "8529 Dibble Ave Nw",
    "active": false,
    "unitCount": 1,
    "severity": 0,
    "lat": 47.690852,
    "long": -122.367268,
    "neighborhood": "Greenwood/Phinney Ridge",
    "neighborhoodGroup": "Northwest",
    "units": "E35"
  },
  {
    "id_str": "F200127206",
    "created_at": "12/29/2020 6:44:05 PM",
    "timestamp": 1609296245000,
    "description": "MVI - Motor Vehicle Incident",
    "address": "M L King Jr Way S / S Henderson St",
    "active": false,
    "unitCount": 1,
    "severity": 0,
    "lat": 47.523246,
    "long": -122.279209,
    "neighborhood": "South Beacon Hill/NewHolly",
    "neighborhoodGroup": "Greater Duwamish",
    "units": "E33"
  },
  {
    "id_str": "F200127205",
    "created_at": "12/29/2020 6:44:02 PM",
    "timestamp": 1609296242000,
    "description": "Aid Response",
    "address": "Ne Blakeley St / 30th Ave Ne",
    "active": false,
    "unitCount": 1,
    "severity": 0,
    "lat": 47.665141,
    "long": -122.295622,
    "neighborhood": "Ravenna/Bryant",
    "neighborhoodGroup": "Northeast",
    "units": "E31"
  },
  {
    "id_str": "F200127204",
    "created_at": "12/29/2020 6:42:10 PM",
    "timestamp": 1609296130000,
    "description": "Medic Response",
    "address": "1421 Minor Av",
    "active": false,
    "unitCount": 2,
    "severity": 0,
    "lat": 47.613146,
    "long": -122.327096,
    "neighborhood": "Capitol Hill",
    "neighborhoodGroup": "East",
    "units": "E25 M10"
  },
  {
    "id_str": "F200127203",
    "created_at": "12/29/2020 6:41:15 PM",
    "timestamp": 1609296075000,
    "description": "Aid Response",
    "address": "Roosevelt Way Ne / Ne Ravenna Blvd",
    "active": false,
    "unitCount": 1,
    "severity": 0,
    "lat": 47.672015,
    "long": -122.317363,
    "neighborhood": "University District",
    "neighborhoodGroup": "Northeast",
    "units": "E16"
  },
  {
    "id_str": "F200127202",
    "created_at": "12/29/2020 6:39:07 PM",
    "timestamp": 1609295947000,
    "description": "Aid Response",
    "address": "2302 E Denny Way",
    "active": false,
    "unitCount": 1,
    "severity": 0,
    "lat": 47.618934,
    "long": -122.302471,
    "neighborhood": "Central Area/Squire Park",
    "neighborhoodGroup": "Central",
    "units": "A25"
  },
  {
    "id_str": "F200127201",
    "created_at": "12/29/2020 6:36:35 PM",
    "timestamp": 1609295795000,
    "description": "Aid Response",
    "address": "4436 Rainier Av S",
    "active": false,
    "unitCount": 1,
    "severity": 0,
    "lat": 47.563626,
    "long": -122.288057,
    "neighborhood": "Columbia City",
    "neighborhoodGroup": "Southeast",
    "units": "E30"
  },
  {
    "id_str": "F200127200",
    "created_at": "12/29/2020 6:34:08 PM",
    "timestamp": 1609295648000,
    "description": "1RED 1 Unit",
    "address": "12531 28th Av Ne",
    "active": false,
    "unitCount": 1,
    "severity": 0,
    "lat": 47.719542,
    "long": -122.297705,
    "neighborhood": "Olympic Hills/Victory Heights",
    "neighborhoodGroup": "North",
    "units": "E39"
  },
  {
    "id_str": "F200127199",
    "created_at": "12/29/2020 6:32:35 PM",
    "timestamp": 1609295555000,
    "description": "Aid Response",
    "address": "937 N 96th St",
    "active": false,
    "unitCount": 1,
    "severity": 0,
    "lat": 47.698721,
    "long": -122.34681,
    "neighborhood": "Licton Springs",
    "neighborhoodGroup": "Northwest",
    "units": "E21"
  },
  {
    "id_str": "F200127198",
    "created_at": "12/29/2020 6:30:29 PM",
    "timestamp": 1609295429000,
    "description": "Aid Response",
    "address": "1100 Eastlake Av E",
    "active": false,
    "unitCount": 1,
    "severity": 0,
    "lat": 47.628647,
    "long": -122.329256,
    "neighborhood": "Cascade/Eastlake",
    "neighborhoodGroup": "Lake Union",
    "units": "A4"
  },
  {
    "id_str": "F200127195",
    "created_at": "12/29/2020 6:21:57 PM",
    "timestamp": 1609294917000,
    "description": "Medic Response",
    "address": "4628 S Holly St",
    "active": false,
    "unitCount": 2,
    "severity": 0,
    "lat": 47.542466,
    "long": -122.275011,
    "neighborhood": "Columbia City",
    "neighborhoodGroup": "Southeast",
    "units": "E28 M28"
  },
  {
    "id_str": "F200127194",
    "created_at": "12/29/2020 6:10:24 PM",
    "timestamp": 1609294224000,
    "description": "Medic Response, 6 per Rule",
    "address": "2109 N 115th St",
    "active": false,
    "unitCount": 3,
    "severity": 0,
    "lat": 47.71229,
    "long": -122.333935,
    "neighborhood": "Haller Lake",
    "neighborhoodGroup": "Northwest",
    "units": "A31 E24 M17"
  },
  {
    "id_str": "F200127191",
    "created_at": "12/29/2020 5:50:03 PM",
    "timestamp": 1609293003000,
    "description": "AFA4 - Auto Alarm 2 + 1 + 1",
    "address": "1521 2nd Av",
    "active": false,
    "unitCount": 4,
    "severity": 0,
    "lat": 47.609488,
    "long": -122.339089,
    "neighborhood": "Downtown Commercial Core",
    "neighborhoodGroup": "Downtown",
    "units": "B2 E2 E5 L4"
  },
  {
    "id_str": "F200127190",
    "created_at": "12/29/2020 5:42:58 PM",
    "timestamp": 1609292578000,
    "description": "Aid Response",
    "address": "821 20th Ave S",
    "active": false,
    "unitCount": 1,
    "severity": 0,
    "lat": 47.595592,
    "long": -122.306189,
    "neighborhood": "Judkins Park",
    "neighborhoodGroup": "Central",
    "units": "E6"
  },
  {
    "id_str": "F200127189",
    "created_at": "12/29/2020 5:27:48 PM",
    "timestamp": 1609291668000,
    "description": "Aid Response",
    "address": "801 9th Av",
    "active": false,
    "unitCount": 1,
    "severity": 0,
    "lat": 47.606982,
    "long": -122.326056,
    "neighborhood": "First Hill",
    "neighborhoodGroup": "East",
    "units": "A10"
  },
  {
    "id_str": "F200127188",
    "created_at": "12/29/2020 5:27:16 PM",
    "timestamp": 1609291636000,
    "description": "Aid Response",
    "address": "3737 Brooklyn Av Ne",
    "active": false,
    "unitCount": 1,
    "severity": 0,
    "lat": 47.652467,
    "long": -122.314518,
    "neighborhood": "University District",
    "neighborhoodGroup": "Northeast",
    "units": "E17"
  },
  {
    "id_str": "F200127187",
    "created_at": "12/29/2020 5:26:12 PM",
    "timestamp": 1609291572000,
    "description": "Low Acuity Response",
    "address": "2615 Sw Barton St",
    "active": false,
    "unitCount": 1,
    "severity": 0,
    "lat": 47.521023,
    "long": -122.366095,
    "neighborhood": "Roxhill/Westwood",
    "neighborhoodGroup": "Delridge Neighborhoods",
    "units": "E11"
  },
  {
    "id_str": "F200127185",
    "created_at": "12/29/2020 5:21:16 PM",
    "timestamp": 1609291276000,
    "description": "Auto Fire Alarm",
    "address": "3300 6th Av S",
    "active": false,
    "unitCount": 2,
    "severity": 0,
    "lat": 47.574384,
    "long": -122.32598,
    "neighborhood": "Duwamish/SODO",
    "neighborhoodGroup": "Greater Duwamish",
    "units": "E13 R1"
  },
  {
    "id_str": "F200127184",
    "created_at": "12/29/2020 5:18:39 PM",
    "timestamp": 1609291119000,
    "description": "Aid Response",
    "address": "Bellevue Ave / E Pike St",
    "active": false,
    "unitCount": 1,
    "severity": 0,
    "lat": 47.614088,
    "long": -122.32682,
    "neighborhood": "Capitol Hill",
    "neighborhoodGroup": "East",
    "units": "A25"
  },
  {
    "id_str": "F200127183",
    "created_at": "12/29/2020 5:16:42 PM",
    "timestamp": 1609291002000,
    "description": "Aid Response",
    "address": "1423 1st Av",
    "active": false,
    "unitCount": 1,
    "severity": 0,
    "lat": 47.608051,
    "long": -122.339309,
    "neighborhood": "Downtown Commercial Core",
    "neighborhoodGroup": "Downtown",
    "units": "E5"
  },
  {
    "id_str": "F200127180",
    "created_at": "12/29/2020 5:00:10 PM",
    "timestamp": 1609290010000,
    "description": "Aid Response",
    "address": "1114 W Emerson St",
    "active": false,
    "unitCount": 1,
    "severity": 0,
    "lat": 47.653653,
    "long": -122.371638,
    "neighborhood": "Queen Anne",
    "neighborhoodGroup": "Magnolia/Queen Anne",
    "units": "E20"
  },
  {
    "id_str": "F200127179",
    "created_at": "12/29/2020 4:56:32 PM",
    "timestamp": 1609289792000,
    "description": "Medic Response",
    "address": "4515 41st Av Sw",
    "active": false,
    "unitCount": 2,
    "severity": 0,
    "lat": 47.562739,
    "long": -122.384135,
    "neighborhood": "West Seattle Junction/Genesee Hill",
    "neighborhoodGroup": "Southwest",
    "units": "E32 M32"
  },
  {
    "id_str": "F200127178",
    "created_at": "12/29/2020 4:55:06 PM",
    "timestamp": 1609289706000,
    "description": "Aid Response",
    "address": "2302 E Denny Way",
    "active": false,
    "unitCount": 1,
    "severity": 0,
    "lat": 47.618934,
    "long": -122.302471,
    "neighborhood": "Central Area/Squire Park",
    "neighborhoodGroup": "Central",
    "units": "A25"
  },
  {
    "id_str": "F200127177",
    "created_at": "12/29/2020 4:52:43 PM",
    "timestamp": 1609289563000,
    "description": "Illegal Burn",
    "address": "6th Ave N / Thomas St",
    "active": false,
    "unitCount": 1,
    "severity": 0,
    "lat": 47.620898,
    "long": -122.345008,
    "neighborhood": "Cascade/Eastlake",
    "neighborhoodGroup": "Lake Union",
    "units": "E2"
  },
  {
    "id_str": "F200127176",
    "created_at": "12/29/2020 4:51:23 PM",
    "timestamp": 1609289483000,
    "description": "Aid Response",
    "address": "2519 1st Av",
    "active": false,
    "unitCount": 1,
    "severity": 0,
    "lat": 47.614798,
    "long": -122.348918,
    "neighborhood": "Belltown",
    "neighborhoodGroup": "Downtown",
    "units": "A2"
  },
  {
    "id_str": "F200127175",
    "created_at": "12/29/2020 4:51:14 PM",
    "timestamp": 1609289474000,
    "description": "Auto Fire Alarm",
    "address": "305 Lakeside Ave S",
    "active": false,
    "unitCount": 2,
    "severity": 0,
    "lat": 47.600031,
    "long": -122.285952,
    "neighborhood": "Madrona/Leschi",
    "neighborhoodGroup": "Central",
    "units": "E6 L3"
  },
  {
    "id_str": "F200127174",
    "created_at": "12/29/2020 4:39:39 PM",
    "timestamp": 1609288779000,
    "description": "Medic Response",
    "address": "8th Ave Ne / Ne 45th St",
    "active": false,
    "unitCount": 2,
    "severity": 0,
    "lat": 47.661311,
    "long": -122.319567,
    "neighborhood": "Wallingford",
    "neighborhoodGroup": "Lake Union",
    "units": "E31 M17"
  },
  {
    "id_str": "F200127173",
    "created_at": "12/29/2020 4:35:11 PM",
    "timestamp": 1609288511000,
    "description": "Aid Response",
    "address": "1932 2nd Av",
    "active": false,
    "unitCount": 1,
    "severity": 0,
    "lat": 47.611207,
    "long": -122.340864,
    "neighborhood": "Belltown",
    "neighborhoodGroup": "Downtown",
    "units": "E2"
  },
  {
    "id_str": "F200127172",
    "created_at": "12/29/2020 4:29:41 PM",
    "timestamp": 1609288181000,
    "description": "Aid Response",
    "address": "201 Yesler Way",
    "active": false,
    "unitCount": 1,
    "severity": 0,
    "lat": 47.601719,
    "long": -122.331966,
    "neighborhood": "Downtown Commercial Core",
    "neighborhoodGroup": "Downtown",
    "units": "A5"
  },
  {
    "id_str": "F200127171",
    "created_at": "12/29/2020 4:27:09 PM",
    "timestamp": 1609288029000,
    "description": "Aid Response",
    "address": "223 W Galer St",
    "active": false,
    "unitCount": 1,
    "severity": 0,
    "lat": 47.632321,
    "long": -122.359809,
    "neighborhood": "Queen Anne",
    "neighborhoodGroup": "Magnolia/Queen Anne",
    "units": "E8"
  },
  {
    "id_str": "F200127170",
    "created_at": "12/29/2020 4:27:03 PM",
    "timestamp": 1609288023000,
    "description": "Aid Response",
    "address": "3613 Ne 84th St",
    "active": false,
    "unitCount": 1,
    "severity": 0,
    "lat": 47.689501,
    "long": -122.289321,
    "neighborhood": "Wedgwood/View Ridge",
    "neighborhoodGroup": "Northeast",
    "units": "E40"
  },
  {
    "id_str": "F200127169",
    "created_at": "12/29/2020 4:24:43 PM",
    "timestamp": 1609287883000,
    "description": "Medic Response",
    "address": "1st Ave N / Mercer St",
    "active": false,
    "unitCount": 2,
    "severity": 0,
    "lat": 47.624578,
    "long": -122.355404,
    "neighborhood": "Queen Anne",
    "neighborhoodGroup": "Magnolia/Queen Anne",
    "units": "A2 M1"
  },
  {
    "id_str": "F200127165",
    "created_at": "12/29/2020 4:14:05 PM",
    "timestamp": 1609287245000,
    "description": "Aid Response",
    "address": "802 Denny Way",
    "active": false,
    "unitCount": 1,
    "severity": 0,
    "lat": 47.618548,
    "long": -122.341658,
    "neighborhood": "Cascade/Eastlake",
    "neighborhoodGroup": "Lake Union",
    "units": "A4"
  },
  {
    "id_str": "F200127164",
    "created_at": "12/29/2020 4:12:49 PM",
    "timestamp": 1609287169000,
    "description": "Aid Response",
    "address": "6727 26th Ave Nw",
    "active": false,
    "unitCount": 1,
    "severity": 0,
    "lat": 47.677829,
    "long": -122.389726,
    "neighborhood": "Sunset Hill/Loyal Heights",
    "neighborhoodGroup": "Ballard",
    "units": "E18"
  },
  {
    "id_str": "F200127162",
    "created_at": "12/29/2020 4:02:25 PM",
    "timestamp": 1609286545000,
    "description": "Aid Response",
    "address": "7345 Delridge Way Sw",
    "active": false,
    "unitCount": 1,
    "severity": 0,
    "lat": 47.536381,
    "long": -122.361331,
    "neighborhood": "High Point",
    "neighborhoodGroup": "Delridge Neighborhoods",
    "units": "E11"
  },
  {
    "id_str": "F200127161",
    "created_at": "12/29/2020 4:01:38 PM",
    "timestamp": 1609286498000,
    "description": "1RED 1 Unit",
    "address": "9817 55TH AV S",
    "active": false,
    "unitCount": 2,
    "severity": 0,
    "lat": 47.508238,
    "long": -122.26308,
    "neighborhood": "Rainier Beach",
    "neighborhoodGroup": "Southeast",
    "units": "E33 MAR5"
  }
]