[
  {
    "id_str": "F200065459",
    "created_at": "7/4/2020 8:27:07 PM",
    "derived": {
      "lat": 47.684754,
      "long": -122.33936,
      "timestamp": 1593919627000,
      "description": "Advised Incident",
      "address": "N 77th St / West Green Lake Dr N",
      "active": false,
      "unitCount": 1,
      "severity": 0,
      "neighborhood": "Green Lake",
      "neighborhoodGroup": "Northwest",
      "units": "E21"
    }
  },
  {
    "id_str": "F200065458",
    "created_at": "7/4/2020 8:26:31 PM",
    "derived": {
      "lat": 47.680293,
      "long": -122.325826,
      "timestamp": 1593919591000,
      "description": "Medic Response, 7 per Rule",
      "address": "7900 EAST GREEN LAKE DR N",
      "active": true,
      "unitCount": 3,
      "severity": 0,
      "neighborhood": "Green Lake",
      "neighborhoodGroup": "Northwest",
      "units": "E16 E31 M17"
    }
  },
  {
    "id_str": "F200065456",
    "created_at": "7/4/2020 8:14:17 PM",
    "derived": {
      "lat": 47.542265,
      "long": -122.280838,
      "timestamp": 1593918857000,
      "description": "Brush Fire",
      "address": "6719 42nd Ave S",
      "active": false,
      "unitCount": 1,
      "severity": 0,
      "neighborhood": "Columbia City",
      "neighborhoodGroup": "Southeast",
      "units": "E28"
    }
  },
  {
    "id_str": "F200065455",
    "created_at": "7/4/2020 8:12:28 PM",
    "derived": {
      "lat": 47.674551,
      "long": -122.379339,
      "timestamp": 1593918748000,
      "description": "Automatic Fire Alarm Resd",
      "address": "1743 Nw 63rd St",
      "active": false,
      "unitCount": 1,
      "severity": 0,
      "neighborhood": "Whittier Heights",
      "neighborhoodGroup": "Ballard",
      "units": "E18"
    }
  },
  {
    "id_str": "F200065454",
    "created_at": "7/4/2020 8:00:05 PM",
    "derived": {
      "lat": 47.579298,
      "long": -122.391961,
      "timestamp": 1593918005000,
      "description": "Aid Response",
      "address": "2709 47th Ave Sw",
      "active": true,
      "unitCount": 1,
      "severity": 0,
      "neighborhood": "West Seattle Junction/Genesee Hill",
      "neighborhoodGroup": "Southwest",
      "units": "E29"
    }
  },
  {
    "id_str": "F200065453",
    "created_at": "7/4/2020 7:58:50 PM",
    "derived": {
      "lat": 47.537299,
      "long": -122.286862,
      "timestamp": 1593917930000,
      "description": "1RED 1 Unit",
      "address": "Holly Park Dr S / S Myrtle Pl",
      "active": false,
      "unitCount": 1,
      "severity": 0,
      "neighborhood": "South Beacon Hill/NewHolly",
      "neighborhoodGroup": "Greater Duwamish",
      "units": "E28"
    }
  },
  {
    "id_str": "F200065450",
    "created_at": "7/4/2020 7:53:38 PM",
    "derived": {
      "lat": 47.54337,
      "long": -122.273431,
      "timestamp": 1593917618000,
      "description": "Aid Response",
      "address": "6600 Rainier Av S",
      "active": false,
      "unitCount": 1,
      "severity": 0,
      "neighborhood": "Seward Park",
      "neighborhoodGroup": "Southeast",
      "units": "E28"
    }
  },
  {
    "id_str": "F200065442",
    "created_at": "7/4/2020 7:33:50 PM",
    "derived": {
      "lat": 47.560188,
      "long": -122.317134,
      "timestamp": 1593916430000,
      "description": "Brush Fire",
      "address": "Corson Ave S / S Angeline St",
      "active": false,
      "unitCount": 2,
      "severity": 0,
      "neighborhood": "Beacon Hill",
      "neighborhoodGroup": "Greater Duwamish",
      "units": "E27 SQ40"
    }
  },
  {
    "id_str": "F200065438",
    "created_at": "7/4/2020 7:20:25 PM",
    "derived": {
      "lat": 47.557232,
      "long": -122.384129,
      "timestamp": 1593915625000,
      "description": "Aid Response",
      "address": "5027 41st Ave Sw",
      "active": false,
      "unitCount": 1,
      "severity": 0,
      "neighborhood": "West Seattle Junction/Genesee Hill",
      "neighborhoodGroup": "Southwest",
      "units": "E13"
    }
  },
  {
    "id_str": "F200065437",
    "created_at": "7/4/2020 7:16:25 PM",
    "derived": {
      "lat": 47.615007,
      "long": -122.337781,
      "timestamp": 1593915385000,
      "description": "Aid Response",
      "address": "2008 Westlake Av",
      "active": false,
      "unitCount": 1,
      "severity": 0,
      "neighborhood": "Cascade/Eastlake",
      "neighborhoodGroup": "Lake Union",
      "units": "A4"
    }
  },
  {
    "id_str": "F200065435",
    "created_at": "7/4/2020 7:12:03 PM",
    "derived": {
      "lat": 47.613001,
      "long": -122.330025,
      "timestamp": 1593915123000,
      "description": "Low Acuity Response",
      "address": "Hubbell Pl / Pike St",
      "active": false,
      "unitCount": 1,
      "severity": 0,
      "neighborhood": "First Hill",
      "neighborhoodGroup": "East",
      "units": "L4"
    }
  },
  {
    "id_str": "F200065433",
    "created_at": "7/4/2020 7:03:42 PM",
    "derived": {
      "lat": 47.728338,
      "long": -122.297803,
      "timestamp": 1593914622000,
      "description": "Automatic Fire Alarm Resd",
      "address": "13744 28th Ave Ne",
      "active": false,
      "unitCount": 2,
      "severity": 0,
      "neighborhood": "Olympic Hills/Victory Heights",
      "neighborhoodGroup": "North",
      "units": "E39 L5"
    }
  },
  {
    "id_str": "F200065430",
    "created_at": "7/4/2020 7:01:52 PM",
    "derived": {
      "lat": 47.643158,
      "long": -122.303055,
      "timestamp": 1593914512000,
      "description": "Aid Response",
      "address": "E Roanoke St / East Montlake Pl E",
      "active": false,
      "unitCount": 1,
      "severity": 0,
      "neighborhood": "Montlake/Portage Bay",
      "neighborhoodGroup": "Northeast",
      "units": "E22"
    }
  },
  {
    "id_str": "F200065429",
    "created_at": "7/4/2020 7:01:34 PM",
    "derived": {
      "lat": 47.661486,
      "long": -122.357789,
      "timestamp": 1593914494000,
      "description": "Aid Response",
      "address": "4500 1st Av Nw",
      "active": false,
      "unitCount": 1,
      "severity": 0,
      "neighborhood": "Fremont",
      "neighborhoodGroup": "Lake Union",
      "units": "E9"
    }
  },
  {
    "id_str": "F200065428",
    "created_at": "7/4/2020 6:59:15 PM",
    "derived": {
      "lat": 47.600843,
      "long": -122.330271,
      "timestamp": 1593914355000,
      "description": "Aid Response",
      "address": "204 3rd Av S",
      "active": false,
      "unitCount": 1,
      "severity": 0,
      "neighborhood": "Pioneer Square/International District",
      "neighborhoodGroup": "Downtown",
      "units": "A10"
    }
  },
  {
    "id_str": "F200065426",
    "created_at": "7/4/2020 6:56:13 PM",
    "derived": {
      "lat": 47.610972,
      "long": -122.340465,
      "timestamp": 1593914173000,
      "description": "Auto Fire Alarm",
      "address": "1902 2nd Av",
      "active": false,
      "unitCount": 2,
      "severity": 0,
      "neighborhood": "Belltown",
      "neighborhoodGroup": "Downtown",
      "units": "E2 L4"
    }
  },
  {
    "id_str": "F200065419",
    "created_at": "7/4/2020 6:51:07 PM",
    "derived": {
      "lat": 47.722899,
      "long": -122.293194,
      "timestamp": 1593913867000,
      "description": "Low Acuity Response",
      "address": "13000 Lake City Way Ne",
      "active": false,
      "unitCount": 1,
      "severity": 0,
      "neighborhood": "Cedar Park/Meadowbrook",
      "neighborhoodGroup": "North",
      "units": "E39"
    }
  },
  {
    "id_str": "F200065418",
    "created_at": "7/4/2020 6:47:15 PM",
    "derived": {
      "lat": 47.625933,
      "long": -122.301024,
      "timestamp": 1593913635000,
      "description": "Aid Response",
      "address": "2409 E Valley St",
      "active": false,
      "unitCount": 1,
      "severity": 0,
      "neighborhood": "Miller Park",
      "neighborhoodGroup": "East",
      "units": "E34"
    }
  },
  {
    "id_str": "F200065416",
    "created_at": "7/4/2020 6:43:09 PM",
    "derived": {
      "lat": 47.610396,
      "long": -122.327328,
      "timestamp": 1593913389000,
      "description": "Aid Response",
      "address": "1020 Seneca St",
      "active": false,
      "unitCount": 1,
      "severity": 0,
      "neighborhood": "First Hill",
      "neighborhoodGroup": "East",
      "units": "A25"
    }
  },
  {
    "id_str": "F200065415",
    "created_at": "7/4/2020 6:40:48 PM",
    "derived": {
      "lat": 47.690203,
      "long": -122.290714,
      "timestamp": 1593913248000,
      "description": "Aid Response",
      "address": "Ne 85th St / 35th Ave Ne",
      "active": false,
      "unitCount": 1,
      "severity": 0,
      "neighborhood": "Wedgwood/View Ridge",
      "neighborhoodGroup": "Northeast",
      "units": "E40"
    }
  },
  {
    "id_str": "F200065414",
    "created_at": "7/4/2020 6:39:47 PM",
    "derived": {
      "lat": 47.531589,
      "long": -122.266026,
      "timestamp": 1593913187000,
      "description": "Investigate Out Of Service",
      "address": "5320 S Kenyon St",
      "active": false,
      "unitCount": 1,
      "severity": 0,
      "neighborhood": "Rainier Beach",
      "neighborhoodGroup": "Southeast",
      "units": "E33"
    }
  },
  {
    "id_str": "F200065413",
    "created_at": "7/4/2020 6:38:45 PM",
    "derived": {
      "lat": 47.61001,
      "long": -122.296048,
      "timestamp": 1593913125000,
      "description": "Illegal Burn",
      "address": "2814 E Marion St",
      "active": false,
      "unitCount": 1,
      "severity": 0,
      "neighborhood": "Central Area/Squire Park",
      "neighborhoodGroup": "Central",
      "units": "E25"
    }
  },
  {
    "id_str": "F200065412",
    "created_at": "7/4/2020 6:37:33 PM",
    "derived": {
      "lat": 47.538889,
      "long": -122.393088,
      "timestamp": 1593913053000,
      "description": "Aid Response",
      "address": "7124 47th Av Sw",
      "active": false,
      "unitCount": 1,
      "severity": 0,
      "neighborhood": "Fauntleroy/Seaview",
      "neighborhoodGroup": "Southwest",
      "units": "E26"
    }
  },
  {
    "id_str": "F200065411",
    "created_at": "7/4/2020 6:37:31 PM",
    "derived": {
      "lat": 47.703014,
      "long": -122.355431,
      "timestamp": 1593913051000,
      "description": "Aid Response",
      "address": "10215 Greenwood Av N",
      "active": false,
      "unitCount": 1,
      "severity": 0,
      "neighborhood": "Greenwood/Phinney Ridge",
      "neighborhoodGroup": "Northwest",
      "units": "E35"
    }
  },
  {
    "id_str": "F200065409",
    "created_at": "7/4/2020 6:15:34 PM",
    "derived": {
      "lat": 47.531589,
      "long": -122.266026,
      "timestamp": 1593911734000,
      "description": "Investigate Out Of Service",
      "address": "5320 S Kenyon St",
      "active": false,
      "unitCount": 1,
      "severity": 0,
      "neighborhood": "Rainier Beach",
      "neighborhoodGroup": "Southeast",
      "units": "E33"
    }
  },
  {
    "id_str": "F200065407",
    "created_at": "7/4/2020 6:12:04 PM",
    "derived": {
      "lat": 47.540318,
      "long": -122.282693,
      "timestamp": 1593911524000,
      "description": "Auto Fire Alarm",
      "address": "6940 M L King Jr Way S",
      "active": false,
      "unitCount": 2,
      "severity": 0,
      "neighborhood": "South Beacon Hill/NewHolly",
      "neighborhoodGroup": "Greater Duwamish",
      "units": "E28 L12"
    }
  },
  {
    "id_str": "F200065406",
    "created_at": "7/4/2020 6:10:48 PM",
    "derived": {
      "lat": 47.701687,
      "long": -122.335676,
      "timestamp": 1593911448000,
      "description": "Aid Response",
      "address": "10047 Wallingford Ave N",
      "active": false,
      "unitCount": 1,
      "severity": 0,
      "neighborhood": "Licton Springs",
      "neighborhoodGroup": "Northwest",
      "units": "A31"
    }
  },
  {
    "id_str": "F200065401",
    "created_at": "7/4/2020 6:01:10 PM",
    "derived": {
      "lat": 47.631855,
      "long": -122.315219,
      "timestamp": 1593910870000,
      "description": "Aid Response",
      "address": "1400 E Galer St",
      "active": false,
      "unitCount": 1,
      "severity": 0,
      "neighborhood": "North Capitol Hill",
      "neighborhoodGroup": "East",
      "units": "E22"
    }
  },
  {
    "id_str": "F200065400",
    "created_at": "7/4/2020 6:00:12 PM",
    "derived": {
      "lat": 47.656871,
      "long": -122.335046,
      "timestamp": 1593910812000,
      "description": "Aid Response",
      "address": "4106 Burke Ave N",
      "active": false,
      "unitCount": 1,
      "severity": 0,
      "neighborhood": "Wallingford",
      "neighborhoodGroup": "Lake Union",
      "units": "E9"
    }
  },
  {
    "id_str": "F200065396",
    "created_at": "7/4/2020 5:58:49 PM",
    "derived": {
      "lat": 47.7024,
      "long": -122.360743,
      "timestamp": 1593910729000,
      "description": "Aid Response",
      "address": "3rd Ave Nw / Holman Rd Nw",
      "active": false,
      "unitCount": 1,
      "severity": 0,
      "neighborhood": "North Beach/Blue Ridge",
      "neighborhoodGroup": "Ballard",
      "units": "E35"
    }
  },
  {
    "id_str": "F200065391",
    "created_at": "7/4/2020 5:56:14 PM",
    "derived": {
      "lat": 47.539922,
      "long": -122.387269,
      "timestamp": 1593910574000,
      "description": "Fire in Building",
      "address": "7100 CALIFORNIA AV SW",
      "active": true,
      "unitCount": 19,
      "severity": 2,
      "neighborhood": "Fauntleroy/Seaview",
      "neighborhoodGroup": "Southwest",
      "units": "A14 AIR10 B5 B7 DEP1 E11 E13 E32 E36 E37 L11 L13 M26 M44 MAR5 R1 REHAB1 SAFT2 STAF10"
    }
  },
  {
    "id_str": "F200065390",
    "created_at": "7/4/2020 5:56:11 PM",
    "derived": {
      "lat": 47.661343,
      "long": -122.313129,
      "timestamp": 1593910571000,
      "description": "Rubbish Fire",
      "address": "4509 University Way Ne",
      "active": false,
      "unitCount": 1,
      "severity": 0,
      "neighborhood": "University District",
      "neighborhoodGroup": "Northeast",
      "units": "E17"
    }
  },
  {
    "id_str": "F200065389",
    "created_at": "7/4/2020 5:55:05 PM",
    "derived": {
      "lat": 47.610278,
      "long": -122.339812,
      "timestamp": 1593910505000,
      "description": "Aid Response",
      "address": "1600 2nd Ave",
      "active": false,
      "unitCount": 1,
      "severity": 0,
      "neighborhood": "Downtown Commercial Core",
      "neighborhoodGroup": "Downtown",
      "units": "A4"
    }
  },
  {
    "id_str": "F200065387",
    "created_at": "7/4/2020 5:50:54 PM",
    "derived": {
      "lat": 47.675775,
      "long": -122.302579,
      "timestamp": 1593910254000,
      "description": "Aid Response",
      "address": "2315 Ne 65th St",
      "active": false,
      "unitCount": 1,
      "severity": 0,
      "neighborhood": "Ravenna/Bryant",
      "neighborhoodGroup": "Northeast",
      "units": "E16"
    }
  },
  {
    "id_str": "F200065386",
    "created_at": "7/4/2020 5:50:02 PM",
    "derived": {
      "lat": 47.61667,
      "long": -122.326802,
      "timestamp": 1593910202000,
      "description": "Aid Response",
      "address": "1707 Bellevue Av",
      "active": false,
      "unitCount": 1,
      "severity": 0,
      "neighborhood": "Capitol Hill",
      "neighborhoodGroup": "East",
      "units": "A25"
    }
  },
  {
    "id_str": "F200065385",
    "created_at": "7/4/2020 5:48:52 PM",
    "derived": {
      "lat": 47.608017,
      "long": -122.306319,
      "timestamp": 1593910132000,
      "description": "MVI - Motor Vehicle Incident",
      "address": "20th Ave / E Cherry St",
      "active": false,
      "unitCount": 1,
      "severity": 0,
      "neighborhood": "Central Area/Squire Park",
      "neighborhoodGroup": "Central",
      "units": "E25"
    }
  },
  {
    "id_str": "F200065379",
    "created_at": "7/4/2020 5:31:22 PM",
    "derived": {
      "lat": 47.608292,
      "long": -122.337995,
      "timestamp": 1593909082000,
      "description": "Aid Response",
      "address": "1401 2nd Av",
      "active": false,
      "unitCount": 1,
      "severity": 0,
      "neighborhood": "Downtown Commercial Core",
      "neighborhoodGroup": "Downtown",
      "units": "E5"
    }
  },
  {
    "id_str": "F200065378",
    "created_at": "7/4/2020 5:31:10 PM",
    "derived": {
      "lat": 47.573768,
      "long": -122.405386,
      "timestamp": 1593909070000,
      "description": "Aid Response",
      "address": "3331 Frater Ave Sw",
      "active": false,
      "unitCount": 1,
      "severity": 0,
      "neighborhood": "Alki/Admiral",
      "neighborhoodGroup": "Southwest",
      "units": "E29"
    }
  },
  {
    "id_str": "F200065375",
    "created_at": "7/4/2020 5:23:41 PM",
    "derived": {
      "lat": 47.554736,
      "long": -122.269838,
      "timestamp": 1593908621000,
      "description": "Automatic Fire Alarm Resd",
      "address": "5215 51st Ave S",
      "active": false,
      "unitCount": 1,
      "severity": 0,
      "neighborhood": "Seward Park",
      "neighborhoodGroup": "Southeast",
      "units": "E28"
    }
  },
  {
    "id_str": "F200065373",
    "created_at": "7/4/2020 5:21:53 PM",
    "derived": {
      "lat": 47.590775,
      "long": -122.297438,
      "timestamp": 1593908513000,
      "description": "Brush Fire",
      "address": "1400 M L King Jr Way S",
      "active": false,
      "unitCount": 2,
      "severity": 0,
      "neighborhood": "Mt. Baker/North Rainier",
      "neighborhoodGroup": "Southeast",
      "units": "E6 SQ40"
    }
  },
  {
    "id_str": "F200065372",
    "created_at": "7/4/2020 5:21:01 PM",
    "derived": {
      "lat": 47.623264,
      "long": -122.312623,
      "timestamp": 1593908461000,
      "description": "Aid Response",
      "address": "500 15th Av E",
      "active": false,
      "unitCount": 1,
      "severity": 0,
      "neighborhood": "Miller Park",
      "neighborhoodGroup": "East",
      "units": "A25"
    }
  },
  {
    "id_str": "F200065370",
    "created_at": "7/4/2020 5:18:19 PM",
    "derived": {
      "lat": 47.62579,
      "long": -122.337122,
      "timestamp": 1593908299000,
      "description": "Aid Response",
      "address": "1000 Valley St",
      "active": false,
      "unitCount": 1,
      "severity": 0,
      "neighborhood": "Cascade/Eastlake",
      "neighborhoodGroup": "Lake Union",
      "units": "A4"
    }
  },
  {
    "id_str": "F200065367",
    "created_at": "7/4/2020 5:14:36 PM",
    "derived": {
      "lat": 47.655305,
      "long": -122.307943,
      "timestamp": 1593908076000,
      "description": "Auto Fire Alarm",
      "address": "1840 Ne Grant Ln",
      "active": false,
      "unitCount": 2,
      "severity": 0,
      "neighborhood": "University District",
      "neighborhoodGroup": "Northeast",
      "units": "E31 L9"
    }
  },
  {
    "id_str": "F200065366",
    "created_at": "7/4/2020 5:07:49 PM",
    "derived": {
      "lat": 47.558988,
      "long": -122.376234,
      "timestamp": 1593907669000,
      "description": "Auto Fire Alarm",
      "address": "4831 35th Av Sw",
      "active": false,
      "unitCount": 2,
      "severity": 0,
      "neighborhood": "West Seattle Junction/Genesee Hill",
      "neighborhoodGroup": "Southwest",
      "units": "E32 L13"
    }
  }
]