[
  {
    "id_str": "F200005267",
    "created_at": "1/15/2020 3:56:05 PM",
    "derived": {
      "lat": 47.609122,
      "long": -122.328013,
      "timestamp": 1579132565000,
      "description": "Aid Response",
      "entries": 1,
      "neighborhood": "First Hill",
      "neighborhoodGroup": "East",
      "unitCount": 1,
      "severity": 0,
      "units": "A5",
      "address": "1100 9th Av"
    }
  },
  {
    "id_str": "F200005265",
    "created_at": "1/15/2020 3:52:12 PM",
    "derived": {
      "lat": 47.723702,
      "long": -122.355548,
      "timestamp": 1579132332000,
      "description": "Alarm Bell",
      "entries": 1,
      "neighborhood": "Broadview/Bitter Lake",
      "neighborhoodGroup": "Northwest",
      "unitCount": 2,
      "severity": 0,
      "units": "E24 L5",
      "address": "13052 Greenwood Av N"
    }
  },
  {
    "id_str": "F200005264",
    "created_at": "1/15/2020 3:46:26 PM",
    "derived": {
      "lat": 47.67606,
      "long": -122.348305,
      "timestamp": 1579131986000,
      "description": "Aid Response",
      "entries": 1,
      "neighborhood": "Greenwood/Phinney Ridge",
      "neighborhoodGroup": "Northwest",
      "unitCount": 1,
      "severity": 0,
      "units": "E21",
      "address": "766 N 65th St"
    }
  },
  {
    "id_str": "F200005263",
    "created_at": "1/15/2020 3:43:53 PM",
    "derived": {
      "lat": 47.713595,
      "long": -122.363567,
      "timestamp": 1579131833000,
      "description": "Medic Response",
      "entries": 2,
      "neighborhood": "Broadview/Bitter Lake",
      "neighborhoodGroup": "Northwest",
      "unitCount": 2,
      "severity": 0,
      "units": "A31 M31",
      "address": "11617 6th Ave Nw"
    }
  },
  {
    "id_str": "F200005262",
    "created_at": "1/15/2020 3:41:41 PM",
    "derived": {
      "lat": 47.521023,
      "long": -122.366095,
      "timestamp": 1579131701000,
      "description": "Aid Response",
      "entries": 1,
      "neighborhood": "Roxhill/Westwood",
      "neighborhoodGroup": "Delridge Neighborhoods",
      "unitCount": 1,
      "severity": 0,
      "units": "E11",
      "address": "2615 Sw Barton St"
    }
  },
  {
    "id_str": "F200005261",
    "created_at": "1/15/2020 3:39:23 PM",
    "derived": {
      "lat": 47.623391,
      "long": -122.314649,
      "timestamp": 1579131563000,
      "description": "Medic Response",
      "entries": 1,
      "neighborhood": "Capitol Hill",
      "neighborhoodGroup": "East",
      "unitCount": 2,
      "severity": 0,
      "units": "A25 M10",
      "address": "525 14th Av E"
    }
  },
  {
    "id_str": "F200005259",
    "created_at": "1/15/2020 3:31:58 PM",
    "derived": {
      "lat": 47.595741,
      "long": -122.325068,
      "timestamp": 1579131118000,
      "description": "Medic Response",
      "entries": 2,
      "neighborhood": "Duwamish/SODO",
      "neighborhoodGroup": "Greater Duwamish",
      "unitCount": 2,
      "severity": 0,
      "units": "A10 M1",
      "address": "811 Maynard Av S"
    }
  },
  {
    "id_str": "F200005257",
    "created_at": "1/15/2020 3:21:16 PM",
    "derived": {
      "lat": 47.608939,
      "long": -122.326091,
      "timestamp": 1579130476000,
      "description": "Aid Response",
      "entries": 1,
      "neighborhood": "First Hill",
      "neighborhoodGroup": "East",
      "unitCount": 1,
      "severity": 0,
      "units": "A25",
      "address": "1014 Madison St"
    }
  },
  {
    "id_str": "F200005255",
    "created_at": "1/15/2020 3:17:52 PM",
    "derived": {
      "lat": 47.608051,
      "long": -122.339309,
      "timestamp": 1579130272000,
      "description": "Aid Response Yellow",
      "entries": 2,
      "neighborhood": "Downtown Commercial Core",
      "neighborhoodGroup": "Downtown",
      "unitCount": 2,
      "severity": 0,
      "units": "A2 L4",
      "address": "1423 1st Av"
    }
  },
  {
    "id_str": "F200005254",
    "created_at": "1/15/2020 3:17:09 PM",
    "derived": {
      "lat": 47.519853,
      "long": -122.268364,
      "timestamp": 1579130229000,
      "description": "Aid Response",
      "entries": 1,
      "neighborhood": "Rainier Beach",
      "neighborhoodGroup": "Southeast",
      "unitCount": 1,
      "severity": 0,
      "units": "E33",
      "address": "9262 Rainier Av S"
    }
  },
  {
    "id_str": "F200005253",
    "created_at": "1/15/2020 3:16:25 PM",
    "derived": {
      "lat": 47.60884,
      "long": -122.339968,
      "timestamp": 1579130185000,
      "description": "Auto Fire Alarm",
      "entries": 1,
      "neighborhood": "Downtown Commercial Core",
      "neighborhoodGroup": "Downtown",
      "unitCount": 2,
      "severity": 0,
      "units": "E5 L4",
      "address": "104 Pike St"
    }
  },
  {
    "id_str": "F200005252",
    "created_at": "1/15/2020 3:15:27 PM",
    "derived": {
      "lat": 47.611303,
      "long": -122.33768,
      "timestamp": 1579130127000,
      "description": "Aid Response",
      "entries": 1,
      "neighborhood": "Downtown Commercial Core",
      "neighborhoodGroup": "Downtown",
      "unitCount": 1,
      "severity": 0,
      "units": "A4",
      "address": "1620 4th Av"
    }
  },
  {
    "id_str": "F200005251",
    "created_at": "1/15/2020 3:11:31 PM",
    "derived": {
      "lat": 47.602172,
      "long": -122.330863,
      "timestamp": 1579129891000,
      "description": "Aid Response",
      "entries": 2,
      "neighborhood": "Downtown Commercial Core",
      "neighborhoodGroup": "Downtown",
      "unitCount": 2,
      "severity": 0,
      "units": "A5 E10",
      "address": "517 3rd Av"
    }
  },
  {
    "id_str": "F200005250",
    "created_at": "1/15/2020 2:57:55 PM",
    "derived": {
      "lat": 47.665845,
      "long": -122.301932,
      "timestamp": 1579129075000,
      "description": "Aid Response",
      "entries": 1,
      "neighborhood": "Ravenna/Bryant",
      "neighborhoodGroup": "Northeast",
      "unitCount": 1,
      "severity": 0,
      "units": "E31",
      "address": "2401 Ne Blakeley St"
    }
  },
  {
    "id_str": "F200005249",
    "created_at": "1/15/2020 2:55:10 PM",
    "derived": {
      "lat": 47.525586,
      "long": -122.312824,
      "timestamp": 1579128910000,
      "description": "Medic Response",
      "entries": 1,
      "neighborhood": "South Park",
      "neighborhoodGroup": "Greater Duwamish",
      "unitCount": 2,
      "severity": 0,
      "units": "E26 M28",
      "address": "16th Ave S / S Donovan St"
    }
  },
  {
    "id_str": "F200005248",
    "created_at": "1/15/2020 2:45:52 PM",
    "derived": {
      "lat": 47.603698,
      "long": -122.329187,
      "timestamp": 1579128352000,
      "description": "Aid Response",
      "entries": 3,
      "neighborhood": "First Hill",
      "neighborhoodGroup": "East",
      "unitCount": 3,
      "severity": 0,
      "units": "A10 A4 E10",
      "address": "600 5TH AV"
    }
  },
  {
    "id_str": "F200005247",
    "created_at": "1/15/2020 2:43:30 PM",
    "derived": {
      "lat": 47.618428,
      "long": -122.303639,
      "timestamp": 1579128210000,
      "description": "Aid Response Yellow",
      "entries": 1,
      "neighborhood": "Central Area/Squire Park",
      "neighborhoodGroup": "Central",
      "unitCount": 1,
      "severity": 0,
      "units": "HEALTH1",
      "address": "2201 E Madison St"
    }
  },
  {
    "id_str": "F200005244",
    "created_at": "1/15/2020 2:39:17 PM",
    "derived": {
      "lat": 47.601785,
      "long": -122.332044,
      "timestamp": 1579127957000,
      "description": "Aid Response",
      "entries": 1,
      "neighborhood": "Downtown Commercial Core",
      "neighborhoodGroup": "Downtown",
      "unitCount": 1,
      "severity": 0,
      "units": "A10",
      "address": "512 2ND AVE"
    }
  },
  {
    "id_str": "F200005243",
    "created_at": "1/15/2020 2:38:21 PM",
    "derived": {
      "lat": 47.605305,
      "long": -122.322989,
      "timestamp": 1579127901000,
      "description": "Aid Response",
      "entries": 1,
      "neighborhood": "First Hill",
      "neighborhoodGroup": "East",
      "unitCount": 1,
      "severity": 0,
      "units": "A5",
      "address": "Jefferson St / Terry Ave"
    }
  },
  {
    "id_str": "F200005241",
    "created_at": "1/15/2020 2:31:13 PM",
    "derived": {
      "lat": 47.611207,
      "long": -122.337592,
      "timestamp": 1579127473000,
      "description": "Rescue Elevator",
      "entries": 1,
      "neighborhood": "Downtown Commercial Core",
      "neighborhoodGroup": "Downtown",
      "unitCount": 1,
      "severity": 0,
      "units": "L4",
      "address": "400 Pine St"
    }
  },
  {
    "id_str": "F200005240",
    "created_at": "1/15/2020 2:30:34 PM",
    "derived": {
      "lat": 47.623463,
      "long": -122.319902,
      "timestamp": 1579127434000,
      "description": "Aid Response",
      "entries": 1,
      "neighborhood": "Capitol Hill",
      "neighborhoodGroup": "East",
      "unitCount": 1,
      "severity": 0,
      "units": "L10",
      "address": "530 10th Av E"
    }
  },
  {
    "id_str": "F200005239",
    "created_at": "1/15/2020 2:30:27 PM",
    "derived": {
      "lat": 47.600034,
      "long": -122.327396,
      "timestamp": 1579127427000,
      "description": "Rescue Elevator",
      "entries": 1,
      "neighborhood": "Pioneer Square/International District",
      "neighborhoodGroup": "Downtown",
      "unitCount": 1,
      "severity": 0,
      "units": "L3",
      "address": "520 S Main St"
    }
  },
  {
    "id_str": "F200005236",
    "created_at": "1/15/2020 2:21:30 PM",
    "derived": {
      "lat": 47.602114,
      "long": -122.330809,
      "timestamp": 1579126890000,
      "description": "Auto Fire Alarm",
      "entries": 1,
      "neighborhood": "Downtown Commercial Core",
      "neighborhoodGroup": "Downtown",
      "unitCount": 2,
      "severity": 0,
      "units": "E10 L1",
      "address": "509 3rd Av"
    }
  },
  {
    "id_str": "F200005234",
    "created_at": "1/15/2020 2:17:55 PM",
    "derived": {
      "lat": 47.623173,
      "long": -122.302453,
      "timestamp": 1579126675000,
      "description": "Aid Response",
      "entries": 1,
      "neighborhood": "Central Area/Squire Park",
      "neighborhoodGroup": "Central",
      "unitCount": 1,
      "severity": 0,
      "units": "E25",
      "address": "23rd Ave E / E Republican St"
    }
  },
  {
    "id_str": "F200005232",
    "created_at": "1/15/2020 2:12:59 PM",
    "derived": {
      "lat": 47.624424,
      "long": -122.308378,
      "timestamp": 1579126379000,
      "description": "Medic Response",
      "entries": 2,
      "neighborhood": "Miller Park",
      "neighborhoodGroup": "East",
      "unitCount": 2,
      "severity": 0,
      "units": "A25 M10",
      "address": "1821 E Mercer St"
    }
  },
  {
    "id_str": "F200005229",
    "created_at": "1/15/2020 2:07:58 PM",
    "derived": {
      "lat": 47.564727,
      "long": -122.387049,
      "timestamp": 1579126078000,
      "description": "Aid Response",
      "entries": 2,
      "neighborhood": "West Seattle Junction/Genesee Hill",
      "neighborhoodGroup": "Southwest",
      "unitCount": 2,
      "severity": 0,
      "units": "E32 R1",
      "address": "4321 Sw Genesee St"
    }
  },
  {
    "id_str": "F200005222",
    "created_at": "1/15/2020 2:04:09 PM",
    "derived": {
      "lat": 47.565076,
      "long": -122.322769,
      "timestamp": 1579125849000,
      "description": "1RED 1 Unit",
      "entries": 1,
      "neighborhood": "Duwamish/SODO",
      "neighborhoodGroup": "Greater Duwamish",
      "unitCount": 1,
      "severity": 0,
      "units": "E13",
      "address": "Airport Way S / S Industrial Way"
    }
  },
  {
    "id_str": "F200005221",
    "created_at": "1/15/2020 2:03:05 PM",
    "derived": {
      "lat": 47.538932,
      "long": -122.369813,
      "timestamp": 1579125785000,
      "description": "Aid Response",
      "entries": 1,
      "neighborhood": "High Point",
      "neighborhoodGroup": "Delridge Neighborhoods",
      "unitCount": 1,
      "severity": 0,
      "units": "E37",
      "address": "7128 29th Ave Sw"
    }
  },
  {
    "id_str": "F200005220",
    "created_at": "1/15/2020 1:53:04 PM",
    "derived": {
      "lat": 47.608939,
      "long": -122.337052,
      "timestamp": 1579125184000,
      "description": "Medic Response",
      "entries": 1,
      "neighborhood": "Downtown Commercial Core",
      "neighborhoodGroup": "Downtown",
      "unitCount": 2,
      "severity": 0,
      "units": "A10 M1",
      "address": "1419 3rd Av"
    }
  },
  {
    "id_str": "F200005219",
    "created_at": "1/15/2020 1:52:08 PM",
    "derived": {
      "lat": 47.66749,
      "long": -122.383093,
      "timestamp": 1579125128000,
      "description": "Automatic Medical Alarm",
      "entries": 1,
      "neighborhood": "Ballard",
      "neighborhoodGroup": "Ballard",
      "unitCount": 1,
      "severity": 0,
      "units": "E18",
      "address": "5433 Leary Av Nw"
    }
  },
  {
    "id_str": "F200005218",
    "created_at": "1/15/2020 1:50:45 PM",
    "derived": {
      "lat": 47.703589,
      "long": -122.366068,
      "timestamp": 1579125045000,
      "description": "Aid Response",
      "entries": 1,
      "neighborhood": "North Beach/Blue Ridge",
      "neighborhoodGroup": "Ballard",
      "unitCount": 1,
      "severity": 0,
      "units": "E24",
      "address": "10303 8th Ave Nw"
    }
  },
  {
    "id_str": "F200005217",
    "created_at": "1/15/2020 1:49:11 PM",
    "derived": {
      "lat": 47.679372,
      "long": -122.265193,
      "timestamp": 1579124951000,
      "description": "Medic Response",
      "entries": 1,
      "neighborhood": "Laurelhurst/Sand Point",
      "neighborhoodGroup": "Northeast",
      "unitCount": 2,
      "severity": 0,
      "units": "E38 M17",
      "address": "5818 Ne 70th St"
    }
  },
  {
    "id_str": "F200005215",
    "created_at": "1/15/2020 1:47:03 PM",
    "derived": {
      "lat": 47.69059,
      "long": -122.353606,
      "timestamp": 1579124823000,
      "description": "AFA4 - Auto Alarm 2 + 1 + 1",
      "entries": 1,
      "neighborhood": "Greenwood/Phinney Ridge",
      "neighborhoodGroup": "Northwest",
      "unitCount": 4,
      "severity": 0,
      "units": "B4 E21 E35 L8",
      "address": "424 N 85th St"
    }
  },
  {
    "id_str": "F200005213",
    "created_at": "1/15/2020 1:41:49 PM",
    "derived": {
      "lat": 47.698544,
      "long": -122.312123,
      "timestamp": 1579124509000,
      "description": "Aid Response",
      "entries": 1,
      "neighborhood": "Northgate/Maple Leaf",
      "neighborhoodGroup": "North",
      "unitCount": 1,
      "severity": 0,
      "units": "E16",
      "address": "9603 15th Ave Ne"
    }
  },
  {
    "id_str": "F200005212",
    "created_at": "1/15/2020 1:39:47 PM",
    "derived": {
      "lat": 47.655305,
      "long": -122.307943,
      "timestamp": 1579124387000,
      "description": "Aid Response",
      "entries": 1,
      "neighborhood": "University District",
      "neighborhoodGroup": "Northeast",
      "unitCount": 1,
      "severity": 0,
      "units": "E31",
      "address": "1840 Ne Grant Ln"
    }
  },
  {
    "id_str": "F200005210",
    "created_at": "1/15/2020 1:36:35 PM",
    "derived": {
      "lat": 47.601986,
      "long": -122.32914,
      "timestamp": 1579124195000,
      "description": "Aid Response",
      "entries": 1,
      "neighborhood": "Downtown Commercial Core",
      "neighborhoodGroup": "Downtown",
      "unitCount": 1,
      "severity": 0,
      "units": "A5",
      "address": "420 4th Av"
    }
  },
  {
    "id_str": "F200005209",
    "created_at": "1/15/2020 1:35:54 PM",
    "derived": {
      "lat": 47.598287,
      "long": -122.330894,
      "timestamp": 1579124154000,
      "description": "Medic Response",
      "entries": 3,
      "neighborhood": "Duwamish/SODO",
      "neighborhoodGroup": "Greater Duwamish",
      "unitCount": 4,
      "severity": 0,
      "units": "A10 E10 L1 M10",
      "address": "255 S King St"
    }
  },
  {
    "id_str": "F200005208",
    "created_at": "1/15/2020 1:33:48 PM",
    "derived": {
      "lat": 47.708414,
      "long": -122.299074,
      "timestamp": 1579124028000,
      "description": "Aid Response",
      "entries": 1,
      "neighborhood": "Cedar Park/Meadowbrook",
      "neighborhoodGroup": "North",
      "unitCount": 1,
      "severity": 0,
      "units": "A31",
      "address": "2723 Ne 110th St"
    }
  },
  {
    "id_str": "F200005206",
    "created_at": "1/15/2020 1:22:05 PM",
    "derived": {
      "lat": 47.602114,
      "long": -122.330809,
      "timestamp": 1579123325000,
      "description": "Auto Fire Alarm",
      "entries": 1,
      "neighborhood": "Downtown Commercial Core",
      "neighborhoodGroup": "Downtown",
      "unitCount": 2,
      "severity": 0,
      "units": "E10 L1",
      "address": "509 3rd Av"
    }
  },
  {
    "id_str": "F200005205",
    "created_at": "1/15/2020 1:19:32 PM",
    "derived": {
      "lat": 47.609389,
      "long": -122.338655,
      "timestamp": 1579123172000,
      "description": "Aid Response",
      "entries": 1,
      "neighborhood": "Downtown Commercial Core",
      "neighborhoodGroup": "Downtown",
      "unitCount": 1,
      "severity": 0,
      "units": "A4",
      "address": "222 Pike St"
    }
  },
  {
    "id_str": "F200005203",
    "created_at": "1/15/2020 1:16:59 PM",
    "derived": {
      "lat": 47.706481,
      "long": -122.281801,
      "timestamp": 1579123019000,
      "description": "Medic Response",
      "entries": 2,
      "neighborhood": "Cedar Park/Meadowbrook",
      "neighborhoodGroup": "North",
      "unitCount": 2,
      "severity": 0,
      "units": "E40 M17",
      "address": "10701 Alton Ave Ne"
    }
  },
  {
    "id_str": "F200005201",
    "created_at": "1/15/2020 1:12:38 PM",
    "derived": {
      "lat": 47.728577,
      "long": -122.290962,
      "timestamp": 1579122758000,
      "description": "Aid Response",
      "entries": 1,
      "neighborhood": "Cedar Park/Meadowbrook",
      "neighborhoodGroup": "North",
      "unitCount": 1,
      "severity": 0,
      "units": "L5",
      "address": "13749 35th Ave Ne"
    }
  },
  {
    "id_str": "F200005200",
    "created_at": "1/15/2020 1:11:25 PM",
    "derived": {
      "lat": 47.720938,
      "long": -122.292513,
      "timestamp": 1579122685000,
      "description": "Aid Response",
      "entries": 1,
      "neighborhood": "Cedar Park/Meadowbrook",
      "neighborhoodGroup": "North",
      "unitCount": 1,
      "severity": 0,
      "units": "E39",
      "address": "12740 33rd Ave Ne"
    }
  },
  {
    "id_str": "F200005199",
    "created_at": "1/15/2020 1:07:38 PM",
    "derived": {
      "lat": 47.529042,
      "long": -122.26788,
      "timestamp": 1579122458000,
      "description": "Aid Response",
      "entries": 1,
      "neighborhood": "Rainier Beach",
      "neighborhoodGroup": "Southeast",
      "unitCount": 1,
      "severity": 0,
      "units": "E33",
      "address": "8337 Wolcott Ave S"
    }
  },
  {
    "id_str": "F200005196",
    "created_at": "1/15/2020 12:52:29 PM",
    "derived": {
      "lat": 47.521023,
      "long": -122.364548,
      "timestamp": 1579121549000,
      "description": "Aid Response",
      "entries": 1,
      "neighborhood": "Roxhill/Westwood",
      "neighborhoodGroup": "Delridge Neighborhoods",
      "unitCount": 1,
      "severity": 0,
      "units": "E11",
      "address": "2500 Sw Barton St"
    }
  },
  {
    "id_str": "F200005194",
    "created_at": "1/15/2020 12:47:59 PM",
    "derived": {
      "lat": 47.63696,
      "long": -122.325898,
      "timestamp": 1579121279000,
      "description": "Trans to AMR",
      "entries": 1,
      "neighborhood": "Cascade/Eastlake",
      "neighborhoodGroup": "Lake Union",
      "unitCount": 1,
      "severity": 0,
      "units": "E22",
      "address": "2027 Eastlake Av E"
    }
  },
  {
    "id_str": "F200005195",
    "created_at": "1/15/2020 12:47:51 PM",
    "derived": {
      "lat": 47.648861,
      "long": -122.376367,
      "timestamp": 1579121271000,
      "description": "Medic Response",
      "entries": 1,
      "neighborhood": "Interbay",
      "neighborhoodGroup": "Magnolia/Queen Anne",
      "unitCount": 2,
      "severity": 0,
      "units": "E20 M18",
      "address": "3232 15th Av W"
    }
  },
  {
    "id_str": "F200005191",
    "created_at": "1/15/2020 12:37:23 PM",
    "derived": {
      "lat": 47.613895,
      "long": -122.31422,
      "timestamp": 1579120643000,
      "description": "MVI - Motor Vehicle Incident",
      "entries": 1,
      "neighborhood": "Capitol Hill",
      "neighborhoodGroup": "East",
      "unitCount": 1,
      "severity": 0,
      "units": "E25",
      "address": "14th Ave / E Madison St"
    }
  },
  {
    "id_str": "F200005190",
    "created_at": "1/15/2020 12:32:08 PM",
    "derived": {
      "lat": 47.654253,
      "long": -122.324582,
      "timestamp": 1579120328000,
      "description": "Aid Response",
      "entries": 1,
      "neighborhood": "Wallingford",
      "neighborhoodGroup": "Lake Union",
      "unitCount": 1,
      "severity": 0,
      "units": "L9",
      "address": "3814 4th Ave Ne"
    }
  },
  {
    "id_str": "F200005188",
    "created_at": "1/15/2020 12:25:32 PM",
    "derived": {
      "lat": 47.690644,
      "long": -122.344523,
      "timestamp": 1579119932000,
      "description": "Aid Response",
      "entries": 1,
      "neighborhood": "Licton Springs",
      "neighborhoodGroup": "Northwest",
      "unitCount": 1,
      "severity": 0,
      "units": "E21",
      "address": "8512 Aurora Av N"
    }
  },
  {
    "id_str": "F200005184",
    "created_at": "1/15/2020 12:13:39 PM",
    "derived": {
      "lat": 47.669667,
      "long": -122.314162,
      "timestamp": 1579119219000,
      "description": "Aid Response",
      "entries": 1,
      "neighborhood": "University District",
      "neighborhoodGroup": "Northeast",
      "unitCount": 1,
      "severity": 0,
      "units": "E16",
      "address": "5626 Brooklyn Ave Ne"
    }
  },
  {
    "id_str": "F200005183",
    "created_at": "1/15/2020 12:13:29 PM",
    "derived": {
      "lat": 47.606446,
      "long": -122.294915,
      "timestamp": 1579119209000,
      "description": "Aid Response",
      "entries": 1,
      "neighborhood": "Central Area/Squire Park",
      "neighborhoodGroup": "Central",
      "unitCount": 1,
      "severity": 0,
      "units": "E6",
      "address": "531 29th Ave"
    }
  },
  {
    "id_str": "F200005182",
    "created_at": "1/15/2020 12:11:24 PM",
    "derived": {
      "lat": 47.622089,
      "long": -122.351371,
      "timestamp": 1579119084000,
      "description": "Auto Fire Alarm",
      "entries": 1,
      "neighborhood": "Queen Anne",
      "neighborhoodGroup": "Magnolia/Queen Anne",
      "unitCount": 2,
      "severity": 0,
      "units": "E2 L4",
      "address": "305 Harrison St"
    }
  },
  {
    "id_str": "F200005180",
    "created_at": "1/15/2020 12:08:46 PM",
    "derived": {
      "lat": 47.606996,
      "long": -122.326022,
      "timestamp": 1579118926000,
      "description": "Aid Response",
      "entries": 2,
      "neighborhood": "First Hill",
      "neighborhoodGroup": "East",
      "unitCount": 2,
      "severity": 0,
      "units": "E10 HEALTH1",
      "address": "903 Columbia St"
    }
  },
  {
    "id_str": "F200005179",
    "created_at": "1/15/2020 12:03:18 PM",
    "derived": {
      "lat": 47.61762,
      "long": -122.310139,
      "timestamp": 1579118598000,
      "description": "Aid Response",
      "entries": 1,
      "neighborhood": "Central Area/Squire Park",
      "neighborhoodGroup": "Central",
      "unitCount": 1,
      "severity": 0,
      "units": "E22",
      "address": "1802 17th Av"
    }
  },
  {
    "id_str": "F200005178",
    "created_at": "1/15/2020 12:01:23 PM",
    "derived": {
      "lat": 47.643193,
      "long": -122.328643,
      "timestamp": 1579118483000,
      "description": "Medic Response",
      "entries": 1,
      "neighborhood": "Montlake/Portage Bay",
      "neighborhoodGroup": "Northeast",
      "unitCount": 2,
      "severity": 0,
      "units": "L9 M1",
      "address": "2600 Fairview Av E"
    }
  },
  {
    "id_str": "F200005177",
    "created_at": "1/15/2020 12:00:16 PM",
    "derived": {
      "lat": 47.606467,
      "long": -122.32091,
      "timestamp": 1579118416000,
      "description": "Medic Response",
      "entries": 3,
      "neighborhood": "First Hill",
      "neighborhoodGroup": "East",
      "unitCount": 4,
      "severity": 0,
      "units": "E25 L10 M10 M17",
      "address": "515 Minor Av"
    }
  },
  {
    "id_str": "F200005176",
    "created_at": "1/15/2020 11:58:47 AM",
    "derived": {
      "lat": 47.665845,
      "long": -122.301932,
      "timestamp": 1579118327000,
      "description": "Aid Response Yellow",
      "entries": 1,
      "neighborhood": "Ravenna/Bryant",
      "neighborhoodGroup": "Northeast",
      "unitCount": 1,
      "severity": 0,
      "units": "E17",
      "address": "2401 Ne Blakeley St"
    }
  },
  {
    "id_str": "F200005175",
    "created_at": "1/15/2020 11:58:38 AM",
    "derived": {
      "lat": 47.602165,
      "long": -122.330856,
      "timestamp": 1579118318000,
      "description": "Aid Response",
      "entries": 1,
      "neighborhood": "Downtown Commercial Core",
      "neighborhoodGroup": "Downtown",
      "unitCount": 1,
      "severity": 0,
      "units": "A5",
      "address": "516 3rd Av"
    }
  },
  {
    "id_str": "F200005174",
    "created_at": "1/15/2020 11:55:17 AM",
    "derived": {
      "lat": 47.606163,
      "long": -122.303786,
      "timestamp": 1579118117000,
      "description": "Aid Response",
      "entries": 1,
      "neighborhood": "Central Area/Squire Park",
      "neighborhoodGroup": "Central",
      "unitCount": 1,
      "severity": 0,
      "units": "A25",
      "address": "22nd Ave / E Jefferson St"
    }
  },
  {
    "id_str": "F200005173",
    "created_at": "1/15/2020 11:54:24 AM",
    "derived": {
      "lat": 47.605147,
      "long": -122.30279,
      "timestamp": 1579118064000,
      "description": "Aid Response",
      "entries": 1,
      "neighborhood": "Central Area/Squire Park",
      "neighborhoodGroup": "Central",
      "unitCount": 1,
      "severity": 0,
      "units": "E6",
      "address": "400 23rd Av"
    }
  },
  {
    "id_str": "F200005172",
    "created_at": "1/15/2020 11:53:30 AM",
    "derived": {
      "lat": 47.597484,
      "long": -122.308854,
      "timestamp": 1579118010000,
      "description": "Aid Response",
      "entries": 1,
      "neighborhood": "Judkins Park",
      "neighborhoodGroup": "Central",
      "unitCount": 1,
      "severity": 0,
      "units": "A10",
      "address": "1809 S Weller St"
    }
  },
  {
    "id_str": "F200005171",
    "created_at": "1/15/2020 11:52:16 AM",
    "derived": {
      "lat": 47.719514,
      "long": -122.292729,
      "timestamp": 1579117936000,
      "description": "Aid Response",
      "entries": 2,
      "neighborhood": "Cedar Park/Meadowbrook",
      "neighborhoodGroup": "North",
      "unitCount": 2,
      "severity": 0,
      "units": "E39 L5",
      "address": "12536 33rd Av Ne"
    }
  },
  {
    "id_str": "F200005170",
    "created_at": "1/15/2020 11:50:02 AM",
    "derived": {
      "lat": 47.691287,
      "long": -122.344531,
      "timestamp": 1579117802000,
      "description": "Aid Response",
      "entries": 1,
      "neighborhood": "Licton Springs",
      "neighborhoodGroup": "Northwest",
      "unitCount": 1,
      "severity": 0,
      "units": "A31",
      "address": "8600 Aurora Av N"
    }
  },
  {
    "id_str": "F200005167",
    "created_at": "1/15/2020 11:44:55 AM",
    "derived": {
      "lat": 47.622089,
      "long": -122.351371,
      "timestamp": 1579117495000,
      "description": "Auto Fire Alarm",
      "entries": 1,
      "neighborhood": "Queen Anne",
      "neighborhoodGroup": "Magnolia/Queen Anne",
      "unitCount": 2,
      "severity": 0,
      "units": "E8 L4",
      "address": "305 Harrison St"
    }
  },
  {
    "id_str": "F200005166",
    "created_at": "1/15/2020 11:38:19 AM",
    "derived": {
      "lat": 47.661266,
      "long": -122.284754,
      "timestamp": 1579117099000,
      "description": "Aid Response",
      "entries": 1,
      "neighborhood": "Laurelhurst/Sand Point",
      "neighborhoodGroup": "Northeast",
      "unitCount": 1,
      "severity": 0,
      "units": "E38",
      "address": "4500 40th Av Ne"
    }
  },
  {
    "id_str": "F200005165",
    "created_at": "1/15/2020 11:33:56 AM",
    "derived": {
      "lat": 47.613308,
      "long": -122.342432,
      "timestamp": 1579116836000,
      "description": "Aid Response",
      "entries": 2,
      "neighborhood": "Cascade/Eastlake",
      "neighborhoodGroup": "Lake Union",
      "unitCount": 2,
      "severity": 0,
      "units": "E2 HEALTH1",
      "address": "2119 3rd Av"
    }
  },
  {
    "id_str": "F200005164",
    "created_at": "1/15/2020 11:32:50 AM",
    "derived": {
      "lat": 47.602688,
      "long": -122.318034,
      "timestamp": 1579116770000,
      "description": "Hang-Up, Aid",
      "entries": 1,
      "neighborhood": "First Hill",
      "neighborhoodGroup": "East",
      "unitCount": 1,
      "severity": 0,
      "units": "E6",
      "address": "1105 E Fir St"
    }
  },
  {
    "id_str": "F200005161",
    "created_at": "1/15/2020 11:24:41 AM",
    "derived": {
      "lat": 47.618823,
      "long": -122.330413,
      "timestamp": 1579116281000,
      "description": "Automatic Medical Alarm",
      "entries": 1,
      "neighborhood": "Cascade/Eastlake",
      "neighborhoodGroup": "Lake Union",
      "unitCount": 1,
      "severity": 0,
      "units": "A25",
      "address": "111 Yale Av N"
    }
  },
  {
    "id_str": "F200005160",
    "created_at": "1/15/2020 11:22:48 AM",
    "derived": {
      "lat": 47.567614,
      "long": -122.368442,
      "timestamp": 1579116168000,
      "description": "Aid Response",
      "entries": 1,
      "neighborhood": "North Delridge",
      "neighborhoodGroup": "Delridge Neighborhoods",
      "unitCount": 1,
      "severity": 0,
      "units": "E36",
      "address": "2827 Sw Yancy St"
    }
  },
  {
    "id_str": "F200005159",
    "created_at": "1/15/2020 11:21:05 AM",
    "derived": {
      "lat": 47.715869,
      "long": -122.312559,
      "timestamp": 1579116065000,
      "description": "Water Job Minor",
      "entries": 1,
      "neighborhood": "Olympic Hills/Victory Heights",
      "neighborhoodGroup": "North",
      "unitCount": 1,
      "severity": 0,
      "units": "L5",
      "address": "12014 15th Av Ne"
    }
  },
  {
    "id_str": "F200005158",
    "created_at": "1/15/2020 11:19:23 AM",
    "derived": {
      "lat": 47.539419,
      "long": -122.390816,
      "timestamp": 1579115963000,
      "description": "Aid Response",
      "entries": 1,
      "neighborhood": "Fauntleroy/Seaview",
      "neighborhoodGroup": "Southwest",
      "unitCount": 2,
      "severity": 0,
      "units": "E32 M32",
      "address": "7125 Fauntleroy Way Sw"
    }
  },
  {
    "id_str": "F200005157",
    "created_at": "1/15/2020 11:16:57 AM",
    "derived": {
      "lat": 47.610743,
      "long": -122.338702,
      "timestamp": 1579115817000,
      "description": "Aid Response",
      "entries": 1,
      "neighborhood": "Downtown Commercial Core",
      "neighborhoodGroup": "Downtown",
      "unitCount": 1,
      "severity": 0,
      "units": "A2",
      "address": "300 Pine St"
    }
  },
  {
    "id_str": "F200005154",
    "created_at": "1/15/2020 11:12:58 AM",
    "derived": {
      "lat": 47.602588,
      "long": -122.334202,
      "timestamp": 1579115578000,
      "description": "Aid Response",
      "entries": 1,
      "neighborhood": "Downtown Commercial Core",
      "neighborhoodGroup": "Downtown",
      "unitCount": 1,
      "severity": 0,
      "units": "A5",
      "address": "107 Cherry St"
    }
  },
  {
    "id_str": "F200005153",
    "created_at": "1/15/2020 11:12:17 AM",
    "derived": {
      "lat": 47.695898,
      "long": -122.326957,
      "timestamp": 1579115537000,
      "description": "Aid Response",
      "entries": 1,
      "neighborhood": "Northgate/Maple Leaf",
      "neighborhoodGroup": "North",
      "unitCount": 1,
      "severity": 0,
      "units": "E16",
      "address": "210 Ne 92nd St"
    }
  },
  {
    "id_str": "F200005151",
    "created_at": "1/15/2020 11:02:26 AM",
    "derived": {
      "lat": 47.682927,
      "long": -122.265222,
      "timestamp": 1579114946000,
      "description": "Aid Response Yellow",
      "entries": 1,
      "neighborhood": "Laurelhurst/Sand Point",
      "neighborhoodGroup": "Northeast",
      "unitCount": 1,
      "severity": 0,
      "units": "E38",
      "address": "5832 Ne 75th St"
    }
  },
  {
    "id_str": "F200005150",
    "created_at": "1/15/2020 10:56:27 AM",
    "derived": {
      "lat": 47.546663,
      "long": -122.385734,
      "timestamp": 1579114587000,
      "description": "Aid Response Yellow",
      "entries": 1,
      "neighborhood": "Fauntleroy/Seaview",
      "neighborhoodGroup": "Southwest",
      "unitCount": 1,
      "severity": 0,
      "units": "E32",
      "address": "4201 Sw Graham St"
    }
  },
  {
    "id_str": "F200005147",
    "created_at": "1/15/2020 10:54:04 AM",
    "derived": {
      "lat": 47.543594,
      "long": -122.334883,
      "timestamp": 1579114444000,
      "description": "Aid Response",
      "entries": 4,
      "neighborhood": "Georgetown",
      "neighborhoodGroup": "Greater Duwamish",
      "unitCount": 4,
      "severity": 0,
      "units": "A2 A4 E27 L12",
      "address": "16 S Michigan St"
    }
  },
  {
    "id_str": "F200005145",
    "created_at": "1/15/2020 10:45:25 AM",
    "derived": {
      "lat": 47.601601,
      "long": -122.302284,
      "timestamp": 1579113925000,
      "description": "Aid Response",
      "entries": 1,
      "neighborhood": "Madrona/Leschi",
      "neighborhoodGroup": "Central",
      "unitCount": 1,
      "severity": 0,
      "units": "E6",
      "address": "113 23rd Av S"
    }
  },
  {
    "id_str": "F200005146",
    "created_at": "1/15/2020 10:45:21 AM",
    "derived": {
      "lat": 47.697867,
      "long": -122.367016,
      "timestamp": 1579113921000,
      "description": "Medic Response",
      "entries": 1,
      "neighborhood": "Greenwood/Phinney Ridge",
      "neighborhoodGroup": "Northwest",
      "unitCount": 2,
      "severity": 0,
      "units": "E35 M31",
      "address": "820 Nw 95th St"
    }
  },
  {
    "id_str": "F200005144",
    "created_at": "1/15/2020 10:30:06 AM",
    "derived": {
      "lat": 47.618997,
      "long": -122.294809,
      "timestamp": 1579113006000,
      "description": "Aid Response",
      "entries": 1,
      "neighborhood": "Central Area/Squire Park",
      "neighborhoodGroup": "Central",
      "unitCount": 2,
      "severity": 0,
      "units": "E34 M18",
      "address": "109 29th Ave E"
    }
  },
  {
    "id_str": "F200005143",
    "created_at": "1/15/2020 10:21:40 AM",
    "derived": {
      "lat": 47.632321,
      "long": -122.359809,
      "timestamp": 1579112500000,
      "description": "Aid Response",
      "entries": 1,
      "neighborhood": "Queen Anne",
      "neighborhoodGroup": "Magnolia/Queen Anne",
      "unitCount": 1,
      "severity": 0,
      "units": "L6",
      "address": "223 W Galer St"
    }
  },
  {
    "id_str": "F200005142",
    "created_at": "1/15/2020 10:21:27 AM",
    "derived": {
      "lat": 47.614431,
      "long": -122.320786,
      "timestamp": 1579112487000,
      "description": "Aid Response",
      "entries": 2,
      "neighborhood": "Capitol Hill",
      "neighborhoodGroup": "East",
      "unitCount": 2,
      "severity": 0,
      "units": "L10 M18",
      "address": "1531 Broadway"
    }
  },
  {
    "id_str": "F200005141",
    "created_at": "1/15/2020 10:13:56 AM",
    "derived": {
      "lat": 47.6197,
      "long": -122.337098,
      "timestamp": 1579112036000,
      "description": "Medic Response",
      "entries": 3,
      "neighborhood": "Cascade/Eastlake",
      "neighborhoodGroup": "Lake Union",
      "unitCount": 4,
      "severity": 0,
      "units": "A2 L10 M10 M18",
      "address": "1001 JOHN ST"
    }
  },
  {
    "id_str": "F200005139",
    "created_at": "1/15/2020 10:12:00 AM",
    "derived": {
      "lat": 47.612708,
      "long": -122.337292,
      "timestamp": 1579111920000,
      "description": "Medic Response",
      "entries": 1,
      "neighborhood": "First Hill",
      "neighborhoodGroup": "East",
      "unitCount": 2,
      "severity": 0,
      "units": "A4 M1",
      "address": "509 Olive Way"
    }
  },
  {
    "id_str": "F200005137",
    "created_at": "1/15/2020 10:11:04 AM",
    "derived": {
      "lat": 47.619917,
      "long": -122.319526,
      "timestamp": 1579111864000,
      "description": "Medic Response",
      "entries": 2,
      "neighborhood": "Capitol Hill",
      "neighborhoodGroup": "East",
      "unitCount": 2,
      "severity": 0,
      "units": "L10 M10",
      "address": "1001 E JOHN ST"
    }
  },
  {
    "id_str": "F200005133",
    "created_at": "1/15/2020 10:03:04 AM",
    "derived": {
      "lat": 47.601601,
      "long": -122.302284,
      "timestamp": 1579111384000,
      "description": "Aid Response",
      "entries": 1,
      "neighborhood": "Madrona/Leschi",
      "neighborhoodGroup": "Central",
      "unitCount": 1,
      "severity": 0,
      "units": "E6",
      "address": "113 23rd Av S"
    }
  },
  {
    "id_str": "F200005131",
    "created_at": "1/15/2020 9:58:10 AM",
    "derived": {
      "lat": 47.614106,
      "long": -122.310161,
      "timestamp": 1579111090000,
      "description": "Aid Response Yellow",
      "entries": 1,
      "neighborhood": "Central Area/Squire Park",
      "neighborhoodGroup": "Central",
      "unitCount": 1,
      "severity": 0,
      "units": "A25",
      "address": "1501 17th Av"
    }
  },
  {
    "id_str": "F200005130",
    "created_at": "1/15/2020 9:57:29 AM",
    "derived": {
      "lat": 47.602908,
      "long": -122.336139,
      "timestamp": 1579111049000,
      "description": "Illegal Burn",
      "entries": 1,
      "neighborhood": "Downtown Commercial Core",
      "neighborhoodGroup": "Downtown",
      "unitCount": 1,
      "severity": 0,
      "units": "E5",
      "address": "815 Western Av"
    }
  },
  {
    "id_str": "F200005127",
    "created_at": "1/15/2020 9:51:03 AM",
    "derived": {
      "lat": 47.533698,
      "long": -122.363185,
      "timestamp": 1579110663000,
      "description": "Medic Response",
      "entries": 1,
      "neighborhood": "High Point",
      "neighborhoodGroup": "Delridge Neighborhoods",
      "unitCount": 2,
      "severity": 0,
      "units": "E37 M32",
      "address": "2401 Sw Holden St"
    }
  },
  {
    "id_str": "F200005123",
    "created_at": "1/15/2020 9:44:24 AM",
    "derived": {
      "lat": 47.67606,
      "long": -122.348305,
      "timestamp": 1579110264000,
      "description": "Medic Response",
      "entries": 1,
      "neighborhood": "Greenwood/Phinney Ridge",
      "neighborhoodGroup": "Northwest",
      "unitCount": 2,
      "severity": 0,
      "units": "E21 M18",
      "address": "766 N 65th St"
    }
  },
  {
    "id_str": "F200005120",
    "created_at": "1/15/2020 9:37:00 AM",
    "derived": {
      "lat": 47.61407,
      "long": -122.323401,
      "timestamp": 1579109820000,
      "description": "Rescue Extrication",
      "entries": 3,
      "neighborhood": "Capitol Hill",
      "neighborhoodGroup": "East",
      "unitCount": 12,
      "severity": 2,
      "units": "A14 A25 B2 B5 E2 E25 E5 L4 M1 M44 R1 SAFT2",
      "address": "Boylston Ave / E Pike St"
    }
  },
  {
    "id_str": "F200005119",
    "created_at": "1/15/2020 9:34:48 AM",
    "derived": {
      "lat": 47.596972,
      "long": -122.334192,
      "timestamp": 1579109688000,
      "description": "Auto Fire Alarm",
      "entries": 1,
      "neighborhood": "Duwamish/SODO",
      "neighborhoodGroup": "Greater Duwamish",
      "unitCount": 2,
      "severity": 0,
      "units": "E10 L1",
      "address": "542 1st Av S"
    }
  },
  {
    "id_str": "F200005118",
    "created_at": "1/15/2020 9:31:51 AM",
    "derived": {
      "lat": 47.61762,
      "long": -122.310139,
      "timestamp": 1579109511000,
      "description": "Aid Response",
      "entries": 1,
      "neighborhood": "Central Area/Squire Park",
      "neighborhoodGroup": "Central",
      "unitCount": 1,
      "severity": 0,
      "units": "E34",
      "address": "1802 17th Av"
    }
  },
  {
    "id_str": "F200005117",
    "created_at": "1/15/2020 9:31:50 AM",
    "derived": {
      "lat": 47.617176,
      "long": -122.348974,
      "timestamp": 1579109510000,
      "description": "Medic Response",
      "entries": 1,
      "neighborhood": "Cascade/Eastlake",
      "neighborhoodGroup": "Lake Union",
      "unitCount": 2,
      "severity": 0,
      "units": "A4 M10",
      "address": "2709 3rd Av"
    }
  },
  {
    "id_str": "F200005115",
    "created_at": "1/15/2020 9:29:43 AM",
    "derived": {
      "lat": 47.59745,
      "long": -122.317227,
      "timestamp": 1579109383000,
      "description": "Aid Response",
      "entries": 1,
      "neighborhood": "Pioneer Square/International District",
      "neighborhoodGroup": "Downtown",
      "unitCount": 1,
      "severity": 0,
      "units": "A5",
      "address": "606 12th Av S"
    }
  },
  {
    "id_str": "F200005114",
    "created_at": "1/15/2020 9:28:43 AM",
    "derived": {
      "lat": 47.601722,
      "long": -122.334179,
      "timestamp": 1579109323000,
      "description": "Aid Response",
      "entries": 1,
      "neighborhood": "Downtown Commercial Core",
      "neighborhoodGroup": "Downtown",
      "unitCount": 1,
      "severity": 0,
      "units": "A10",
      "address": "1st Ave / Yesler Way"
    }
  },
  {
    "id_str": "F200005112",
    "created_at": "1/15/2020 9:25:09 AM",
    "derived": {
      "lat": 47.62118,
      "long": -122.314685,
      "timestamp": 1579109109000,
      "description": "Aid Response Yellow",
      "entries": 1,
      "neighborhood": "Capitol Hill",
      "neighborhoodGroup": "East",
      "unitCount": 1,
      "severity": 0,
      "units": "E25",
      "address": "308 14th Av E"
    }
  },
  {
    "id_str": "F200005111",
    "created_at": "1/15/2020 9:23:35 AM",
    "derived": {
      "lat": 47.730569,
      "long": -122.347758,
      "timestamp": 1579109015000,
      "description": "Aid Response",
      "entries": 1,
      "neighborhood": "Broadview/Bitter Lake",
      "neighborhoodGroup": "Northwest",
      "unitCount": 1,
      "severity": 0,
      "units": "A31",
      "address": "14002 Linden Av N"
    }
  },
  {
    "id_str": "F200005108",
    "created_at": "1/15/2020 9:12:14 AM",
    "derived": {
      "lat": 47.550091,
      "long": -122.335265,
      "timestamp": 1579108334000,
      "description": "Auto Fire Alarm",
      "entries": 1,
      "neighborhood": "Georgetown",
      "neighborhoodGroup": "Greater Duwamish",
      "unitCount": 3,
      "severity": 0,
      "units": "E27 FIREBOAT R1",
      "address": "5901 East Marginal Way S"
    }
  },
  {
    "id_str": "F200005104",
    "created_at": "1/15/2020 9:01:22 AM",
    "derived": {
      "lat": 47.655963,
      "long": -122.339821,
      "timestamp": 1579107682000,
      "description": "Medic Response",
      "entries": 2,
      "neighborhood": "Fremont",
      "neighborhoodGroup": "Lake Union",
      "unitCount": 2,
      "severity": 0,
      "units": "E9 M17",
      "address": "4026 Ashworth Ave N"
    }
  },
  {
    "id_str": "F200005102",
    "created_at": "1/15/2020 8:50:18 AM",
    "derived": {
      "lat": 47.604532,
      "long": -122.319411,
      "timestamp": 1579107018000,
      "description": "Aid Response",
      "entries": 1,
      "neighborhood": "First Hill",
      "neighborhoodGroup": "East",
      "unitCount": 1,
      "severity": 0,
      "units": "A25",
      "address": "321 10th Av"
    }
  },
  {
    "id_str": "F200005099",
    "created_at": "1/15/2020 8:46:44 AM",
    "derived": {
      "lat": 47.576894,
      "long": -122.3214,
      "timestamp": 1579106804000,
      "description": "Aid Response",
      "entries": 1,
      "neighborhood": "Duwamish/SODO",
      "neighborhoodGroup": "Greater Duwamish",
      "unitCount": 1,
      "severity": 0,
      "units": "R1",
      "address": "3100 Airport Way S"
    }
  },
  {
    "id_str": "F200005095",
    "created_at": "1/15/2020 8:30:48 AM",
    "derived": {
      "lat": 47.600194,
      "long": -122.330541,
      "timestamp": 1579105848000,
      "description": "Aid Response",
      "entries": 2,
      "neighborhood": "Pioneer Square/International District",
      "neighborhoodGroup": "Downtown",
      "unitCount": 2,
      "severity": 0,
      "units": "A5 E10",
      "address": "318 2nd Ave Et S"
    }
  },
  {
    "id_str": "F200005092",
    "created_at": "1/15/2020 8:21:56 AM",
    "derived": {
      "lat": 47.663215,
      "long": -122.315262,
      "timestamp": 1579105316000,
      "description": "Aid Response",
      "entries": 1,
      "neighborhood": "University District",
      "neighborhoodGroup": "Northeast",
      "unitCount": 1,
      "severity": 0,
      "units": "E17",
      "address": "4719 12th Av Ne"
    }
  },
  {
    "id_str": "F200005091",
    "created_at": "1/15/2020 8:03:56 AM",
    "derived": {
      "lat": 47.65217,
      "long": -122.336305,
      "timestamp": 1579104236000,
      "description": "Medic Response",
      "entries": 1,
      "neighborhood": "Wallingford",
      "neighborhoodGroup": "Lake Union",
      "unitCount": 2,
      "severity": 0,
      "units": "E9 M17",
      "address": "3717 Wallingford Ave N"
    }
  },
  {
    "id_str": "F200005089",
    "created_at": "1/15/2020 7:54:25 AM",
    "derived": {
      "lat": 47.590312,
      "long": -122.334195,
      "timestamp": 1579103665000,
      "description": "Medic Response",
      "entries": 1,
      "neighborhood": "Duwamish/SODO",
      "neighborhoodGroup": "Greater Duwamish",
      "unitCount": 2,
      "severity": 0,
      "units": "A10 M1",
      "address": "1st Ave S / S Atlantic St"
    }
  },
  {
    "id_str": "F200005088",
    "created_at": "1/15/2020 7:53:34 AM",
    "derived": {
      "lat": 47.608584,
      "long": -122.340581,
      "timestamp": 1579103614000,
      "description": "Aid Response",
      "entries": 2,
      "neighborhood": "Downtown Commercial Core",
      "neighborhoodGroup": "Downtown",
      "unitCount": 2,
      "severity": 0,
      "units": "E25 E5",
      "address": "85 PIKE ST"
    }
  },
  {
    "id_str": "F200005087",
    "created_at": "1/15/2020 7:53:01 AM",
    "derived": {
      "lat": 47.623391,
      "long": -122.314649,
      "timestamp": 1579103581000,
      "description": "Medic Response",
      "entries": 2,
      "neighborhood": "Capitol Hill",
      "neighborhoodGroup": "East",
      "unitCount": 2,
      "severity": 0,
      "units": "A25 M10",
      "address": "525 14th Av E"
    }
  },
  {
    "id_str": "F200005085",
    "created_at": "1/15/2020 7:48:15 AM",
    "derived": {
      "lat": 47.617131,
      "long": -122.348898,
      "timestamp": 1579103295000,
      "description": "Aid Response",
      "entries": 1,
      "neighborhood": "Cascade/Eastlake",
      "neighborhoodGroup": "Lake Union",
      "unitCount": 1,
      "severity": 0,
      "units": "E2",
      "address": "3rd Ave / Cedar St"
    }
  },
  {
    "id_str": "F200005084",
    "created_at": "1/15/2020 7:45:17 AM",
    "derived": {
      "lat": 47.605387,
      "long": -122.327511,
      "timestamp": 1579103117000,
      "description": "Aid Response",
      "entries": 1,
      "neighborhood": "First Hill",
      "neighborhoodGroup": "East",
      "unitCount": 1,
      "severity": 0,
      "units": "A5",
      "address": "710 Cherry St"
    }
  },
  {
    "id_str": "F200005081",
    "created_at": "1/15/2020 7:38:16 AM",
    "derived": {
      "lat": 47.624569,
      "long": -122.351226,
      "timestamp": 1579102696000,
      "description": "Aid Response",
      "entries": 1,
      "neighborhood": "Cascade/Eastlake",
      "neighborhoodGroup": "Lake Union",
      "unitCount": 1,
      "severity": 0,
      "units": "A2",
      "address": "310 Mercer St"
    }
  },
  {
    "id_str": "F200005080",
    "created_at": "1/15/2020 7:23:03 AM",
    "derived": {
      "lat": 47.599993,
      "long": -122.314135,
      "timestamp": 1579101783000,
      "description": "Aid Response",
      "entries": 1,
      "neighborhood": "Judkins Park",
      "neighborhoodGroup": "Central",
      "unitCount": 1,
      "severity": 0,
      "units": "E6",
      "address": "302 14th Av S"
    }
  },
  {
    "id_str": "F200005079",
    "created_at": "1/15/2020 7:18:41 AM",
    "derived": {
      "lat": 47.699221,
      "long": -122.325766,
      "timestamp": 1579101521000,
      "description": "Aid Response",
      "entries": 1,
      "neighborhood": "Northgate/Maple Leaf",
      "neighborhoodGroup": "North",
      "unitCount": 1,
      "severity": 0,
      "units": "E16",
      "address": "9709 3rd Av Ne"
    }
  },
  {
    "id_str": "F200005078",
    "created_at": "1/15/2020 7:08:57 AM",
    "derived": {
      "lat": 47.602114,
      "long": -122.330809,
      "timestamp": 1579100937000,
      "description": "Automatic Medical Alarm",
      "entries": 1,
      "neighborhood": "Downtown Commercial Core",
      "neighborhoodGroup": "Downtown",
      "unitCount": 1,
      "severity": 0,
      "units": "A10",
      "address": "509 3rd Av"
    }
  },
  {
    "id_str": "F200005076",
    "created_at": "1/15/2020 7:04:48 AM",
    "derived": {
      "lat": 47.542476,
      "long": -122.272808,
      "timestamp": 1579100688000,
      "description": "MVI - Motor Vehicle Incident",
      "entries": 1,
      "neighborhood": "Seward Park",
      "neighborhoodGroup": "Southeast",
      "unitCount": 1,
      "severity": 0,
      "units": "E28",
      "address": "Rainier Ave S / S Holly St"
    }
  },
  {
    "id_str": "F200005075",
    "created_at": "1/15/2020 7:04:35 AM",
    "derived": {
      "lat": 47.634953,
      "long": -122.356967,
      "timestamp": 1579100675000,
      "description": "Alarm Bell",
      "entries": 1,
      "neighborhood": "Queen Anne",
      "neighborhoodGroup": "Magnolia/Queen Anne",
      "unitCount": 2,
      "severity": 0,
      "units": "E8 L6",
      "address": "1818 Queen Anne Av N"
    }
  },
  {
    "id_str": "F200005074",
    "created_at": "1/15/2020 7:02:02 AM",
    "derived": {
      "lat": 47.617356,
      "long": -122.345312,
      "timestamp": 1579100522000,
      "description": "Auto Fire Alarm",
      "entries": 1,
      "neighborhood": "Cascade/Eastlake",
      "neighborhoodGroup": "Lake Union",
      "unitCount": 2,
      "severity": 0,
      "units": "E2 L4",
      "address": "500 Wall St"
    }
  },
  {
    "id_str": "F200005068",
    "created_at": "1/15/2020 6:20:14 AM",
    "derived": {
      "lat": 47.627192,
      "long": -122.356823,
      "timestamp": 1579098014000,
      "description": "Auto Fire Alarm",
      "entries": 1,
      "neighborhood": "Queen Anne",
      "neighborhoodGroup": "Magnolia/Queen Anne",
      "unitCount": 2,
      "severity": 0,
      "units": "E2 L4",
      "address": "11 W Aloha St"
    }
  },
  {
    "id_str": "F200005067",
    "created_at": "1/15/2020 6:04:43 AM",
    "derived": {
      "lat": 47.625952,
      "long": -122.356915,
      "timestamp": 1579097083000,
      "description": "Auto Fire Alarm",
      "entries": 1,
      "neighborhood": "Queen Anne",
      "neighborhoodGroup": "Magnolia/Queen Anne",
      "unitCount": 2,
      "severity": 0,
      "units": "E8 L6",
      "address": "20 W QUEEN ANNE DRIVEWAY"
    }
  },
  {
    "id_str": "F200005065",
    "created_at": "1/15/2020 5:59:35 AM",
    "derived": {
      "lat": 47.621001,
      "long": -122.356738,
      "timestamp": 1579096775000,
      "description": "Aid Response",
      "entries": 1,
      "neighborhood": "Queen Anne",
      "neighborhoodGroup": "Magnolia/Queen Anne",
      "unitCount": 1,
      "severity": 0,
      "units": "A2",
      "address": "306 Queen Anne Av N"
    }
  },
  {
    "id_str": "F200005064",
    "created_at": "1/15/2020 5:57:35 AM",
    "derived": {
      "lat": 47.667904,
      "long": -122.329463,
      "timestamp": 1579096655000,
      "description": "Aid Response",
      "entries": 1,
      "neighborhood": "Green Lake",
      "neighborhoodGroup": "Northwest",
      "unitCount": 1,
      "severity": 0,
      "units": "E31",
      "address": "2312 N 54th St"
    }
  },
  {
    "id_str": "F200005063",
    "created_at": "1/15/2020 5:43:00 AM",
    "derived": {
      "lat": 47.64974,
      "long": -122.357604,
      "timestamp": 1579095780000,
      "description": "Aid Response",
      "entries": 1,
      "neighborhood": "Queen Anne",
      "neighborhoodGroup": "Magnolia/Queen Anne",
      "unitCount": 1,
      "severity": 0,
      "units": "E9",
      "address": "9 Nickerson St"
    }
  },
  {
    "id_str": "F200005062",
    "created_at": "1/15/2020 5:36:11 AM",
    "derived": {
      "lat": 47.607695,
      "long": -122.326708,
      "timestamp": 1579095371000,
      "description": "Rubbish Fire",
      "entries": 1,
      "neighborhood": "First Hill",
      "neighborhoodGroup": "East",
      "unitCount": 1,
      "severity": 0,
      "units": "E10",
      "address": "9th Ave / Marion St"
    }
  },
  {
    "id_str": "F200005061",
    "created_at": "1/15/2020 5:35:21 AM",
    "derived": {
      "lat": 47.61684,
      "long": -122.330559,
      "timestamp": 1579095321000,
      "description": "Medic Response",
      "entries": 2,
      "neighborhood": "Cascade/Eastlake",
      "neighborhoodGroup": "Lake Union",
      "unitCount": 2,
      "severity": 0,
      "units": "A25 M1",
      "address": "1800 Minor Ave"
    }
  },
  {
    "id_str": "F200005060",
    "created_at": "1/15/2020 5:26:28 AM",
    "derived": {
      "lat": 47.634953,
      "long": -122.356967,
      "timestamp": 1579094788000,
      "description": "Alarm Bell",
      "entries": 1,
      "neighborhood": "Queen Anne",
      "neighborhoodGroup": "Magnolia/Queen Anne",
      "unitCount": 2,
      "severity": 0,
      "units": "E8 L6",
      "address": "1818 QUEEN ANNE AV N"
    }
  },
  {
    "id_str": "F200005057",
    "created_at": "1/15/2020 5:15:38 AM",
    "derived": {
      "lat": 47.681684,
      "long": -122.315327,
      "timestamp": 1579094138000,
      "description": "Aid Response",
      "entries": 1,
      "neighborhood": "Ravenna/Bryant",
      "neighborhoodGroup": "Northeast",
      "unitCount": 1,
      "severity": 0,
      "units": "E16",
      "address": "7321 12th Ave Ne"
    }
  },
  {
    "id_str": "F200005056",
    "created_at": "1/15/2020 5:13:45 AM",
    "derived": {
      "lat": 47.672456,
      "long": -122.352579,
      "timestamp": 1579094025000,
      "description": "Aid Response",
      "entries": 1,
      "neighborhood": "Greenwood/Phinney Ridge",
      "neighborhoodGroup": "Northwest",
      "unitCount": 1,
      "severity": 0,
      "units": "E21",
      "address": "520 N 60th St"
    }
  },
  {
    "id_str": "F200005055",
    "created_at": "1/15/2020 5:04:18 AM",
    "derived": {
      "lat": 47.619799,
      "long": -122.34761,
      "timestamp": 1579093458000,
      "description": "AFA4 - Auto Alarm 2 + 1 + 1",
      "entries": 1,
      "neighborhood": "Cascade/Eastlake",
      "neighborhoodGroup": "Lake Union",
      "unitCount": 4,
      "severity": 0,
      "units": "B2 E5 E8 L4",
      "address": "206 5th Ave N"
    }
  },
  {
    "id_str": "F200005054",
    "created_at": "1/15/2020 4:55:47 AM",
    "derived": {
      "lat": 47.620035,
      "long": -122.343513,
      "timestamp": 1579092947000,
      "description": "Aid Response",
      "entries": 1,
      "neighborhood": "Cascade/Eastlake",
      "neighborhoodGroup": "Lake Union",
      "unitCount": 1,
      "severity": 0,
      "units": "E2",
      "address": "226 Aurora Av N"
    }
  },
  {
    "id_str": "F200005053",
    "created_at": "1/15/2020 4:52:21 AM",
    "derived": {
      "lat": 47.618497,
      "long": -122.327854,
      "timestamp": 1579092741000,
      "description": "Aid Response",
      "entries": 1,
      "neighborhood": "Capitol Hill",
      "neighborhoodGroup": "East",
      "unitCount": 1,
      "severity": 0,
      "units": "A2",
      "address": "100 Melrose Av E"
    }
  },
  {
    "id_str": "F200005052",
    "created_at": "1/15/2020 4:47:15 AM",
    "derived": {
      "lat": 47.544421,
      "long": -122.373762,
      "timestamp": 1579092435000,
      "description": "Aid Response",
      "entries": 1,
      "neighborhood": "High Point",
      "neighborhoodGroup": "Delridge Neighborhoods",
      "unitCount": 1,
      "severity": 0,
      "units": "E37",
      "address": "6527 32nd Ave Sw"
    }
  },
  {
    "id_str": "F200005051",
    "created_at": "1/15/2020 4:44:48 AM",
    "derived": {
      "lat": 47.619673,
      "long": -122.307364,
      "timestamp": 1579092288000,
      "description": "Aid Response",
      "entries": 1,
      "neighborhood": "Miller Park",
      "neighborhoodGroup": "East",
      "unitCount": 1,
      "severity": 0,
      "units": "A25",
      "address": "202 19th Av E"
    }
  },
  {
    "id_str": "F200005049",
    "created_at": "1/15/2020 4:35:11 AM",
    "derived": {
      "lat": 47.668667,
      "long": -122.376214,
      "timestamp": 1579091711000,
      "description": "Illegal Burn",
      "entries": 1,
      "neighborhood": "Ballard",
      "neighborhoodGroup": "Ballard",
      "unitCount": 1,
      "severity": 0,
      "units": "E18",
      "address": "15th Ave Nw / Nw Market St"
    }
  },
  {
    "id_str": "F200005048",
    "created_at": "1/15/2020 4:17:38 AM",
    "derived": {
      "lat": 47.66167,
      "long": -122.319564,
      "timestamp": 1579090658000,
      "description": "Aid Response",
      "entries": 1,
      "neighborhood": "Wallingford",
      "neighborhoodGroup": "Lake Union",
      "unitCount": 1,
      "severity": 0,
      "units": "E17",
      "address": "4540 8th Av Ne"
    }
  },
  {
    "id_str": "F200005047",
    "created_at": "1/15/2020 3:53:45 AM",
    "derived": {
      "lat": 47.610743,
      "long": -122.338702,
      "timestamp": 1579089225000,
      "description": "Aid Response",
      "entries": 1,
      "neighborhood": "Downtown Commercial Core",
      "neighborhoodGroup": "Downtown",
      "unitCount": 1,
      "severity": 0,
      "units": "A2",
      "address": "3rd Ave / Pine St"
    }
  },
  {
    "id_str": "F200005045",
    "created_at": "1/15/2020 3:41:02 AM",
    "derived": {
      "lat": 47.669446,
      "long": -122.37945,
      "timestamp": 1579088462000,
      "description": "Aid Response",
      "entries": 1,
      "neighborhood": "Ballard",
      "neighborhoodGroup": "Ballard",
      "unitCount": 1,
      "severity": 0,
      "units": "E18",
      "address": "1753 Nw 56th St"
    }
  },
  {
    "id_str": "F200005044",
    "created_at": "1/15/2020 3:34:20 AM",
    "derived": {
      "lat": 47.688389,
      "long": -122.344511,
      "timestamp": 1579088060000,
      "description": "Medic Response",
      "entries": 2,
      "neighborhood": "Green Lake",
      "neighborhoodGroup": "Northwest",
      "unitCount": 2,
      "severity": 0,
      "units": "E21 M31",
      "address": "N 82nd St / Aurora Ave N"
    }
  },
  {
    "id_str": "F200005043",
    "created_at": "1/15/2020 3:32:07 AM",
    "derived": {
      "lat": 47.541413,
      "long": -122.269916,
      "timestamp": 1579087927000,
      "description": "Aid Response Yellow",
      "entries": 1,
      "neighborhood": "Seward Park",
      "neighborhoodGroup": "Southeast",
      "unitCount": 1,
      "severity": 0,
      "units": "E28",
      "address": "6820 51st Ave S"
    }
  },
  {
    "id_str": "F200005042",
    "created_at": "1/15/2020 3:24:26 AM",
    "derived": {
      "lat": 47.632483,
      "long": -122.345953,
      "timestamp": 1579087466000,
      "description": "Aid Response Yellow",
      "entries": 1,
      "neighborhood": "Queen Anne",
      "neighborhoodGroup": "Magnolia/Queen Anne",
      "unitCount": 1,
      "severity": 0,
      "units": "E8",
      "address": "1522 Taylor Ave N"
    }
  },
  {
    "id_str": "F200005041",
    "created_at": "1/15/2020 3:11:56 AM",
    "derived": {
      "lat": 47.701329,
      "long": -122.323684,
      "timestamp": 1579086716000,
      "description": "Aid Response",
      "entries": 1,
      "neighborhood": "Northgate/Maple Leaf",
      "neighborhoodGroup": "North",
      "unitCount": 1,
      "severity": 0,
      "units": "E16",
      "address": "450 Ne 100th St"
    }
  },
  {
    "id_str": "F200005040",
    "created_at": "1/15/2020 2:41:09 AM",
    "derived": {
      "lat": 47.72343,
      "long": -122.348164,
      "timestamp": 1579084869000,
      "description": "Medic Response",
      "entries": 2,
      "neighborhood": "Broadview/Bitter Lake",
      "neighborhoodGroup": "Northwest",
      "unitCount": 2,
      "severity": 0,
      "units": "E24 M31",
      "address": "13030 Linden Av N"
    }
  },
  {
    "id_str": "F200005039",
    "created_at": "1/15/2020 2:37:21 AM",
    "derived": {
      "lat": 47.61369,
      "long": -122.334946,
      "timestamp": 1579084641000,
      "description": "Rescue Elevator",
      "entries": 1,
      "neighborhood": "Cascade/Eastlake",
      "neighborhoodGroup": "Lake Union",
      "unitCount": 1,
      "severity": 0,
      "units": "L4",
      "address": "720 Olive Way"
    }
  },
  {
    "id_str": "F200005038",
    "created_at": "1/15/2020 2:35:20 AM",
    "derived": {
      "lat": 47.617694,
      "long": -122.292371,
      "timestamp": 1579084520000,
      "description": "Aid Response",
      "entries": 1,
      "neighborhood": "Madrona/Leschi",
      "neighborhoodGroup": "Central",
      "unitCount": 1,
      "severity": 0,
      "units": "E34",
      "address": "1808 31st Ave"
    }
  },
  {
    "id_str": "F200005035",
    "created_at": "1/15/2020 2:28:20 AM",
    "derived": {
      "lat": 47.599015,
      "long": -122.29624,
      "timestamp": 1579084100000,
      "description": "Aid Response",
      "entries": 1,
      "neighborhood": "Madrona/Leschi",
      "neighborhoodGroup": "Central",
      "unitCount": 1,
      "severity": 0,
      "units": "E6",
      "address": "417 28th Av S"
    }
  },
  {
    "id_str": "F200005034",
    "created_at": "1/15/2020 2:26:39 AM",
    "derived": {
      "lat": 47.60739,
      "long": -122.332564,
      "timestamp": 1579083999000,
      "description": "Aid Response",
      "entries": 1,
      "neighborhood": "Downtown Commercial Core",
      "neighborhoodGroup": "Downtown",
      "unitCount": 1,
      "severity": 0,
      "units": "A5",
      "address": "1118 5th Av"
    }
  },
  {
    "id_str": "F200005033",
    "created_at": "1/15/2020 2:04:03 AM",
    "derived": {
      "lat": 47.612669,
      "long": -122.345319,
      "timestamp": 1579082643000,
      "description": "Aid Response",
      "entries": 1,
      "neighborhood": "Belltown",
      "neighborhoodGroup": "Downtown",
      "unitCount": 1,
      "severity": 0,
      "units": "A2",
      "address": "2209 1st Av"
    }
  },
  {
    "id_str": "F200005031",
    "created_at": "1/15/2020 1:52:16 AM",
    "derived": {
      "lat": 47.574923,
      "long": -122.28879,
      "timestamp": 1579081936000,
      "description": "Automatic Fire Alarm Resd",
      "entries": 1,
      "neighborhood": "Mt. Baker/North Rainier",
      "neighborhoodGroup": "Southeast",
      "unitCount": 1,
      "severity": 0,
      "units": "E30",
      "address": "3220 35th Ave S"
    }
  },
  {
    "id_str": "F200005030",
    "created_at": "1/15/2020 1:42:43 AM",
    "derived": {
      "lat": 47.606269,
      "long": -122.325403,
      "timestamp": 1579081363000,
      "description": "Aid Response",
      "entries": 1,
      "neighborhood": "First Hill",
      "neighborhoodGroup": "East",
      "unitCount": 1,
      "severity": 0,
      "units": "A10",
      "address": "Cherry St / 9th Ave"
    }
  },
  {
    "id_str": "F200005029",
    "created_at": "1/15/2020 1:38:32 AM",
    "derived": {
      "lat": 47.521679,
      "long": -122.264284,
      "timestamp": 1579081112000,
      "description": "Aid Response",
      "entries": 1,
      "neighborhood": "Rainier Beach",
      "neighborhoodGroup": "Southeast",
      "unitCount": 1,
      "severity": 0,
      "units": "E33",
      "address": "9061 Seward Park Av S"
    }
  },
  {
    "id_str": "F200005027",
    "created_at": "1/15/2020 1:25:11 AM",
    "derived": {
      "lat": 47.685474,
      "long": -122.358327,
      "timestamp": 1579080311000,
      "description": "Medic Response",
      "entries": 1,
      "neighborhood": "Greenwood/Phinney Ridge",
      "neighborhoodGroup": "Northwest",
      "unitCount": 2,
      "severity": 0,
      "units": "E35 M31",
      "address": "127 Nw 78th St"
    }
  },
  {
    "id_str": "F200005026",
    "created_at": "1/15/2020 1:23:43 AM",
    "derived": {
      "lat": 47.519168,
      "long": -122.355145,
      "timestamp": 1579080223000,
      "description": "Aid Response",
      "entries": 1,
      "neighborhood": "Highland Park",
      "neighborhoodGroup": "Delridge Neighborhoods",
      "unitCount": 1,
      "severity": 0,
      "units": "E37",
      "address": "9403 16th Av Sw"
    }
  },
  {
    "id_str": "F200005025",
    "created_at": "1/15/2020 1:13:51 AM",
    "derived": {
      "lat": 47.529838,
      "long": -122.36315,
      "timestamp": 1579079631000,
      "description": "Medic Response, 7 per Rule",
      "entries": 4,
      "neighborhood": "Roxhill/Westwood",
      "neighborhoodGroup": "Delridge Neighborhoods",
      "unitCount": 4,
      "severity": 0,
      "units": "E11 E36 E37 M32",
      "address": "8140 24th Ave Sw"
    }
  },
  {
    "id_str": "F200005024",
    "created_at": "1/15/2020 1:06:19 AM",
    "derived": {
      "lat": 47.676023,
      "long": -122.354353,
      "timestamp": 1579079179000,
      "description": "Medic Response",
      "entries": 1,
      "neighborhood": "Greenwood/Phinney Ridge",
      "neighborhoodGroup": "Northwest",
      "unitCount": 2,
      "severity": 0,
      "units": "E21 M18",
      "address": "Phinney Ave N / N 65th St"
    }
  },
  {
    "id_str": "F200005023",
    "created_at": "1/15/2020 12:59:51 AM",
    "derived": {
      "lat": 47.595118,
      "long": -122.386989,
      "timestamp": 1579078791000,
      "description": "Aid Response",
      "entries": 1,
      "neighborhood": "Alki/Admiral",
      "neighborhoodGroup": "Southwest",
      "unitCount": 1,
      "severity": 0,
      "units": "E29",
      "address": "1156 Alki Av Sw"
    }
  },
  {
    "id_str": "F200005022",
    "created_at": "1/15/2020 12:58:52 AM",
    "derived": {
      "lat": 47.604615,
      "long": -122.32228,
      "timestamp": 1579078732000,
      "description": "Aid Response Yellow",
      "entries": 2,
      "neighborhood": "First Hill",
      "neighborhoodGroup": "East",
      "unitCount": 2,
      "severity": 0,
      "units": "A5 HEALTH1",
      "address": "1005 Terrace St"
    }
  },
  {
    "id_str": "F200005021",
    "created_at": "1/15/2020 12:36:30 AM",
    "derived": {
      "lat": 47.702221,
      "long": -122.301843,
      "timestamp": 1579077390000,
      "description": "Activated CO Detector",
      "entries": 1,
      "neighborhood": "Cedar Park/Meadowbrook",
      "neighborhoodGroup": "North",
      "unitCount": 1,
      "severity": 0,
      "units": "L5",
      "address": "10215 Lake City Way Ne"
    }
  },
  {
    "id_str": "F200005017",
    "created_at": "1/15/2020 12:29:08 AM",
    "derived": {
      "lat": 47.675362,
      "long": -122.35435,
      "timestamp": 1579076948000,
      "description": "Aid Response",
      "entries": 1,
      "neighborhood": "Greenwood/Phinney Ridge",
      "neighborhoodGroup": "Northwest",
      "unitCount": 1,
      "severity": 0,
      "units": "E21",
      "address": "6410 Phinney Av N"
    }
  },
  {
    "id_str": "F200005016",
    "created_at": "1/15/2020 12:25:37 AM",
    "derived": {
      "lat": 47.617505,
      "long": -122.329699,
      "timestamp": 1579076737000,
      "description": "Aid Response Yellow",
      "entries": 1,
      "neighborhood": "Cascade/Eastlake",
      "neighborhoodGroup": "Lake Union",
      "unitCount": 1,
      "severity": 0,
      "units": "HEALTH1",
      "address": "1800 Yale Av"
    }
  },
  {
    "id_str": "F200005015",
    "created_at": "1/15/2020 12:23:29 AM",
    "derived": {
      "lat": 47.632483,
      "long": -122.345953,
      "timestamp": 1579076609000,
      "description": "Aid Response",
      "entries": 3,
      "neighborhood": "Queen Anne",
      "neighborhoodGroup": "Magnolia/Queen Anne",
      "unitCount": 2,
      "severity": 0,
      "units": "E8 L6",
      "address": "1522 Taylor Ave N"
    }
  },
  {
    "id_str": "F200005012",
    "created_at": "1/15/2020 12:17:18 AM",
    "derived": {
      "lat": 47.599968,
      "long": -122.328965,
      "timestamp": 1579076238000,
      "description": "Auto Fire Alarm",
      "entries": 1,
      "neighborhood": "Pioneer Square/International District",
      "neighborhoodGroup": "Downtown",
      "unitCount": 2,
      "severity": 0,
      "units": "E10 L1",
      "address": "308 4th Av S"
    }
  },
  {
    "id_str": "F200005011",
    "created_at": "1/15/2020 12:16:01 AM",
    "derived": {
      "lat": 47.602615,
      "long": -122.329418,
      "timestamp": 1579076161000,
      "description": "Aid Response Yellow",
      "entries": 1,
      "neighborhood": "Downtown Commercial Core",
      "neighborhoodGroup": "Downtown",
      "unitCount": 1,
      "severity": 0,
      "units": "HEALTH1",
      "address": "420 JEFFERSON ST"
    }
  },
  {
    "id_str": "F200005010",
    "created_at": "1/15/2020 12:15:10 AM",
    "derived": {
      "lat": 47.617505,
      "long": -122.329699,
      "timestamp": 1579076110000,
      "description": "Aid Response",
      "entries": 1,
      "neighborhood": "Cascade/Eastlake",
      "neighborhoodGroup": "Lake Union",
      "unitCount": 2,
      "severity": 0,
      "units": "A2 M10",
      "address": "1800 Yale Av"
    }
  },
  {
    "id_str": "F200005009",
    "created_at": "1/15/2020 12:12:19 AM",
    "derived": {
      "lat": 47.584283,
      "long": -122.350759,
      "timestamp": 1579075939000,
      "description": "MVI - Motor Vehicle Incident",
      "entries": 1,
      "neighborhood": "North Delridge",
      "neighborhoodGroup": "Delridge Neighborhoods",
      "unitCount": 1,
      "severity": 0,
      "units": "E36",
      "address": "2400 11th Av Sw"
    }
  },
  {
    "id_str": "F200005008",
    "created_at": "1/15/2020 12:11:37 AM",
    "derived": {
      "lat": 47.661385,
      "long": -122.305472,
      "timestamp": 1579075897000,
      "description": "Auto Fire Alarm",
      "entries": 1,
      "neighborhood": "Ravenna/Bryant",
      "neighborhoodGroup": "Northeast",
      "unitCount": 2,
      "severity": 0,
      "units": "E31 L9",
      "address": "4515 21st Av Ne"
    }
  },
  {
    "id_str": "F200005007",
    "created_at": "1/15/2020 12:10:50 AM",
    "derived": {
      "lat": 47.650722,
      "long": -122.364428,
      "timestamp": 1579075850000,
      "description": "Aid Response",
      "entries": 1,
      "neighborhood": "Queen Anne",
      "neighborhoodGroup": "Magnolia/Queen Anne",
      "unitCount": 1,
      "severity": 0,
      "units": "E20",
      "address": "500 W Emerson St"
    }
  },
  {
    "id_str": "F200005005",
    "created_at": "1/15/2020 12:04:26 AM",
    "derived": {
      "lat": 47.611207,
      "long": -122.337592,
      "timestamp": 1579075466000,
      "description": "Aid Response Yellow",
      "entries": 1,
      "neighborhood": "Downtown Commercial Core",
      "neighborhoodGroup": "Downtown",
      "unitCount": 1,
      "severity": 0,
      "units": "HEALTH1",
      "address": "4th Ave / Pine St"
    }
  },
  {
    "id_str": "F200005004",
    "created_at": "1/14/2020 11:49:44 PM",
    "derived": {
      "lat": 47.603233,
      "long": -122.330297,
      "timestamp": 1579074584000,
      "description": "Medic Response",
      "entries": 2,
      "neighborhood": "Downtown Commercial Core",
      "neighborhoodGroup": "Downtown",
      "unitCount": 2,
      "severity": 0,
      "units": "A10 M1",
      "address": "600 4th Av"
    }
  },
  {
    "id_str": "F200005003",
    "created_at": "1/14/2020 11:44:55 PM",
    "derived": {
      "lat": 47.612665,
      "long": -122.337394,
      "timestamp": 1579074295000,
      "description": "Aid Response Yellow",
      "entries": 1,
      "neighborhood": "Downtown Commercial Core",
      "neighborhoodGroup": "Downtown",
      "unitCount": 1,
      "severity": 0,
      "units": "HEALTH1",
      "address": "5th Ave / Olive Way"
    }
  },
  {
    "id_str": "F200005002",
    "created_at": "1/14/2020 11:44:24 PM",
    "derived": {
      "lat": 47.732314,
      "long": -122.350182,
      "timestamp": 1579074264000,
      "description": "Aid Response Yellow",
      "entries": 1,
      "neighborhood": "Broadview/Bitter Lake",
      "neighborhoodGroup": "Northwest",
      "unitCount": 1,
      "severity": 0,
      "units": "E24",
      "address": "722 N 143rd St"
    }
  },
  {
    "id_str": "F200005000",
    "created_at": "1/14/2020 11:38:42 PM",
    "derived": {
      "lat": 47.627547,
      "long": -122.339892,
      "timestamp": 1579073922000,
      "description": "Aid Response",
      "entries": 1,
      "neighborhood": "Queen Anne",
      "neighborhoodGroup": "Magnolia/Queen Anne",
      "unitCount": 1,
      "severity": 0,
      "units": "A2",
      "address": "925 Westlake Av N"
    }
  },
  {
    "id_str": "B200004999",
    "created_at": "1/14/2020 11:25:18 PM",
    "derived": {
      "lat": 47.693957,
      "long": -122.309091,
      "timestamp": 1579073118000,
      "description": "Aid Response",
      "entries": 1,
      "neighborhood": "Northgate/Maple Leaf",
      "neighborhoodGroup": "North",
      "unitCount": 1,
      "severity": 0,
      "units": "E40",
      "address": "1745 NE 90TH ST"
    }
  },
  {
    "id_str": "F200004997",
    "created_at": "1/14/2020 11:24:00 PM",
    "derived": {
      "lat": 47.555602,
      "long": -122.376261,
      "timestamp": 1579073040000,
      "description": "Medic Response",
      "entries": 1,
      "neighborhood": "North Delridge",
      "neighborhoodGroup": "Delridge Neighborhoods",
      "unitCount": 2,
      "severity": 0,
      "units": "E32 M32",
      "address": "35th Ave Sw / Sw Dawson St"
    }
  },
  {
    "id_str": "F200004996",
    "created_at": "1/14/2020 11:22:52 PM",
    "derived": {
      "lat": 47.608912,
      "long": -122.340096,
      "timestamp": 1579072972000,
      "description": "Aid Response Yellow",
      "entries": 1,
      "neighborhood": "Downtown Commercial Core",
      "neighborhoodGroup": "Downtown",
      "unitCount": 1,
      "severity": 0,
      "units": "HEALTH1",
      "address": "1510 1st Ave"
    }
  },
  {
    "id_str": "F200004992",
    "created_at": "1/14/2020 11:09:37 PM",
    "derived": {
      "lat": 47.600877,
      "long": -122.330188,
      "timestamp": 1579072177000,
      "description": "Aid Response Yellow",
      "entries": 1,
      "neighborhood": "Pioneer Square/International District",
      "neighborhoodGroup": "Downtown",
      "unitCount": 1,
      "severity": 0,
      "units": "HEALTH1",
      "address": "306 S Washington St"
    }
  },
  {
    "id_str": "F200004991",
    "created_at": "1/14/2020 11:05:18 PM",
    "derived": {
      "lat": 47.615789,
      "long": -122.336507,
      "timestamp": 1579071918000,
      "description": "Aid Response",
      "entries": 1,
      "neighborhood": "Cascade/Eastlake",
      "neighborhoodGroup": "Lake Union",
      "unitCount": 1,
      "severity": 0,
      "units": "A2",
      "address": "810 Virginia St"
    }
  },
  {
    "id_str": "F200004989",
    "created_at": "1/14/2020 11:02:40 PM",
    "derived": {
      "lat": 47.656044,
      "long": -122.304567,
      "timestamp": 1579071760000,
      "description": "Aid Response",
      "entries": 1,
      "neighborhood": "University District",
      "neighborhoodGroup": "Northeast",
      "unitCount": 1,
      "severity": 0,
      "units": "E17",
      "address": "4001 East Stevens Way Ne"
    }
  },
  {
    "id_str": "F200004988",
    "created_at": "1/14/2020 10:56:29 PM",
    "derived": {
      "lat": 47.657089,
      "long": -122.315553,
      "timestamp": 1579071389000,
      "description": "Aid Response Yellow",
      "entries": 1,
      "neighborhood": "University District",
      "neighborhoodGroup": "Northeast",
      "unitCount": 1,
      "severity": 0,
      "units": "E31",
      "address": "4116 12th Av Ne"
    }
  },
  {
    "id_str": "F200004987",
    "created_at": "1/14/2020 10:45:49 PM",
    "derived": {
      "lat": 47.556461,
      "long": -122.263694,
      "timestamp": 1579070749000,
      "description": "Aid Response",
      "entries": 1,
      "neighborhood": "Seward Park",
      "neighborhoodGroup": "Southeast",
      "unitCount": 1,
      "severity": 0,
      "units": "E28",
      "address": "5055 57th Ave S"
    }
  },
  {
    "id_str": "F200004986",
    "created_at": "1/14/2020 10:43:48 PM",
    "derived": {
      "lat": 47.602172,
      "long": -122.330863,
      "timestamp": 1579070628000,
      "description": "Aid Response",
      "entries": 1,
      "neighborhood": "Downtown Commercial Core",
      "neighborhoodGroup": "Downtown",
      "unitCount": 1,
      "severity": 0,
      "units": "A5",
      "address": "517 3rd Av"
    }
  },
  {
    "id_str": "F200004984",
    "created_at": "1/14/2020 10:40:49 PM",
    "derived": {
      "lat": 47.614274,
      "long": -122.348032,
      "timestamp": 1579070449000,
      "description": "1RED 1 Unit",
      "entries": 1,
      "neighborhood": "Belltown",
      "neighborhoodGroup": "Downtown",
      "unitCount": 1,
      "severity": 0,
      "units": "E2",
      "address": "2424 1st Av"
    }
  },
  {
    "id_str": "F200004983",
    "created_at": "1/14/2020 10:33:17 PM",
    "derived": {
      "lat": 47.601722,
      "long": -122.334179,
      "timestamp": 1579069997000,
      "description": "Aid Response Yellow",
      "entries": 1,
      "neighborhood": "Downtown Commercial Core",
      "neighborhoodGroup": "Downtown",
      "unitCount": 1,
      "severity": 0,
      "units": "HEALTH1",
      "address": "1st Ave S / Yesler Way"
    }
  },
  {
    "id_str": "F200004980",
    "created_at": "1/14/2020 10:11:00 PM",
    "derived": {
      "lat": 47.590732,
      "long": -122.337336,
      "timestamp": 1579068660000,
      "description": "Aid Response Yellow",
      "entries": 1,
      "neighborhood": "Duwamish/SODO",
      "neighborhoodGroup": "Greater Duwamish",
      "unitCount": 1,
      "severity": 0,
      "units": "HEALTH1",
      "address": "Alaskan Way S / S Atlantic St"
    }
  },
  {
    "id_str": "F200004979",
    "created_at": "1/14/2020 10:10:34 PM",
    "derived": {
      "lat": 47.595511,
      "long": -122.294347,
      "timestamp": 1579068634000,
      "description": "Automatic Medical Alarm",
      "entries": 1,
      "neighborhood": "Madrona/Leschi",
      "neighborhoodGroup": "Central",
      "unitCount": 1,
      "severity": 0,
      "units": "E6",
      "address": "820 Yakima Ave S"
    }
  },
  {
    "id_str": "F200004977",
    "created_at": "1/14/2020 9:44:14 PM",
    "derived": {
      "lat": 47.625714,
      "long": -122.356744,
      "timestamp": 1579067054000,
      "description": "Auto Fire Alarm",
      "entries": 2,
      "neighborhood": "Queen Anne",
      "neighborhoodGroup": "Magnolia/Queen Anne",
      "unitCount": 3,
      "severity": 0,
      "units": "E2 E8 L6",
      "address": "4 W Roy St"
    }
  },
  {
    "id_str": "F200004976",
    "created_at": "1/14/2020 9:35:21 PM",
    "derived": {
      "lat": 47.626891,
      "long": -122.314147,
      "timestamp": 1579066521000,
      "description": "Automatic Fire Alarm Resd",
      "entries": 1,
      "neighborhood": "North Capitol Hill",
      "neighborhoodGroup": "East",
      "unitCount": 1,
      "severity": 0,
      "units": "E25",
      "address": "1422 E Aloha St"
    }
  },
  {
    "id_str": "F200004975",
    "created_at": "1/14/2020 9:31:25 PM",
    "derived": {
      "lat": 47.601716,
      "long": -122.330265,
      "timestamp": 1579066285000,
      "description": "Aid Response",
      "entries": 1,
      "neighborhood": "Downtown Commercial Core",
      "neighborhoodGroup": "Downtown",
      "unitCount": 1,
      "severity": 0,
      "units": "A10",
      "address": "298 Yesler Way"
    }
  },
  {
    "id_str": "F200004974",
    "created_at": "1/14/2020 9:29:44 PM",
    "derived": {
      "lat": 47.606982,
      "long": -122.326056,
      "timestamp": 1579066184000,
      "description": "Aid Response",
      "entries": 1,
      "neighborhood": "First Hill",
      "neighborhoodGroup": "East",
      "unitCount": 1,
      "severity": 0,
      "units": "A5",
      "address": "801 9th Av"
    }
  },
  {
    "id_str": "F200004969",
    "created_at": "1/14/2020 9:02:05 PM",
    "derived": {
      "lat": 47.532525,
      "long": -122.280606,
      "timestamp": 1579064525000,
      "description": "Medic Response",
      "entries": 1,
      "neighborhood": "South Beacon Hill/NewHolly",
      "neighborhoodGroup": "Greater Duwamish",
      "unitCount": 2,
      "severity": 0,
      "units": "E33 M28",
      "address": "4200 S Chicago St"
    }
  },
  {
    "id_str": "F200004968",
    "created_at": "1/14/2020 9:01:39 PM",
    "derived": {
      "lat": 47.524655,
      "long": -122.348244,
      "timestamp": 1579064499000,
      "description": "Aid Response",
      "entries": 1,
      "neighborhood": "Highland Park",
      "neighborhoodGroup": "Delridge Neighborhoods",
      "unitCount": 1,
      "severity": 0,
      "units": "E11",
      "address": "1019 Sw Trenton St"
    }
  },
  {
    "id_str": "F200004967",
    "created_at": "1/14/2020 9:01:12 PM",
    "derived": {
      "lat": 47.602172,
      "long": -122.330863,
      "timestamp": 1579064472000,
      "description": "Aid Response",
      "entries": 1,
      "neighborhood": "Downtown Commercial Core",
      "neighborhoodGroup": "Downtown",
      "unitCount": 1,
      "severity": 0,
      "units": "A5",
      "address": "517 3rd Av"
    }
  },
  {
    "id_str": "F200004965",
    "created_at": "1/14/2020 8:57:32 PM",
    "derived": {
      "lat": 47.71566,
      "long": -122.295254,
      "timestamp": 1579064252000,
      "description": "Aid Response",
      "entries": 1,
      "neighborhood": "Olympic Hills/Victory Heights",
      "neighborhoodGroup": "North",
      "unitCount": 1,
      "severity": 0,
      "units": "E39",
      "address": "12015 31st Ave Ne"
    }
  },
  {
    "id_str": "F200004963",
    "created_at": "1/14/2020 8:54:21 PM",
    "derived": {
      "lat": 47.618497,
      "long": -122.327854,
      "timestamp": 1579064061000,
      "description": "Automatic Medical Alarm",
      "entries": 1,
      "neighborhood": "Capitol Hill",
      "neighborhoodGroup": "East",
      "unitCount": 1,
      "severity": 0,
      "units": "A2",
      "address": "100 Melrose Av E"
    }
  },
  {
    "id_str": "F200004962",
    "created_at": "1/14/2020 8:50:35 PM",
    "derived": {
      "lat": 47.520451,
      "long": -122.336003,
      "timestamp": 1579063835000,
      "description": "Aid Response",
      "entries": 1,
      "unitCount": 1,
      "severity": 0,
      "units": "E26",
      "address": "9240 2nd Av Sw"
    }
  },
  {
    "id_str": "F200004961",
    "created_at": "1/14/2020 8:50:01 PM",
    "derived": {
      "lat": 47.598348,
      "long": -122.319644,
      "timestamp": 1579063801000,
      "description": "Aid Response Yellow",
      "entries": 1,
      "neighborhood": "Pioneer Square/International District",
      "neighborhoodGroup": "Downtown",
      "unitCount": 1,
      "severity": 0,
      "units": "HEALTH1",
      "address": "10th Ave S / S King St"
    }
  },
  {
    "id_str": "F200004959",
    "created_at": "1/14/2020 8:47:17 PM",
    "derived": {
      "lat": 47.618002,
      "long": -122.329182,
      "timestamp": 1579063637000,
      "description": "Aid Response",
      "entries": 1,
      "neighborhood": "Cascade/Eastlake",
      "neighborhoodGroup": "Lake Union",
      "unitCount": 1,
      "severity": 0,
      "units": "A25",
      "address": "1811 Eastlake Av"
    }
  },
  {
    "id_str": "F200004957",
    "created_at": "1/14/2020 8:41:24 PM",
    "derived": {
      "lat": 47.602172,
      "long": -122.330863,
      "timestamp": 1579063284000,
      "description": "Aid Response",
      "entries": 1,
      "neighborhood": "Downtown Commercial Core",
      "neighborhoodGroup": "Downtown",
      "unitCount": 1,
      "severity": 0,
      "units": "A5",
      "address": "517 3rd Av"
    }
  },
  {
    "id_str": "F200004955",
    "created_at": "1/14/2020 8:40:12 PM",
    "derived": {
      "lat": 47.617717,
      "long": -122.330057,
      "timestamp": 1579063212000,
      "description": "Aid Response",
      "entries": 1,
      "neighborhood": "Cascade/Eastlake",
      "neighborhoodGroup": "Lake Union",
      "unitCount": 1,
      "severity": 0,
      "units": "E2",
      "address": "1828 Yale Av"
    }
  },
  {
    "id_str": "F200004954",
    "created_at": "1/14/2020 8:38:09 PM",
    "derived": {
      "lat": 47.603022,
      "long": -122.335523,
      "timestamp": 1579063089000,
      "description": "Aid Response Yellow",
      "entries": 1,
      "neighborhood": "Downtown Commercial Core",
      "neighborhoodGroup": "Downtown",
      "unitCount": 1,
      "severity": 0,
      "units": "HEALTH1",
      "address": "Post Ave / Columbia St"
    }
  },
  {
    "id_str": "F200004952",
    "created_at": "1/14/2020 8:27:15 PM",
    "derived": {
      "lat": 47.602172,
      "long": -122.330863,
      "timestamp": 1579062435000,
      "description": "Aid Response",
      "entries": 1,
      "neighborhood": "Downtown Commercial Core",
      "neighborhoodGroup": "Downtown",
      "unitCount": 1,
      "severity": 0,
      "units": "A5",
      "address": "517 3rd Av"
    }
  },
  {
    "id_str": "F200004951",
    "created_at": "1/14/2020 8:26:15 PM",
    "derived": {
      "lat": 47.618493,
      "long": -122.326726,
      "timestamp": 1579062375000,
      "description": "Aid Response",
      "entries": 1,
      "neighborhood": "Capitol Hill",
      "neighborhoodGroup": "East",
      "unitCount": 1,
      "severity": 0,
      "units": "A25",
      "address": "Bellevue Ave / E Denny Way"
    }
  },
  {
    "id_str": "F200004949",
    "created_at": "1/14/2020 8:12:28 PM",
    "derived": {
      "lat": 47.601722,
      "long": -122.334179,
      "timestamp": 1579061548000,
      "description": "Aid Response Yellow",
      "entries": 1,
      "neighborhood": "Downtown Commercial Core",
      "neighborhoodGroup": "Downtown",
      "unitCount": 1,
      "severity": 0,
      "units": "HEALTH1",
      "address": "1st Ave / Yesler Way"
    }
  },
  {
    "id_str": "F200004948",
    "created_at": "1/14/2020 8:06:06 PM",
    "derived": {
      "lat": 47.601719,
      "long": -122.331966,
      "timestamp": 1579061166000,
      "description": "Investigate Out Of Service",
      "entries": 1,
      "neighborhood": "Downtown Commercial Core",
      "neighborhoodGroup": "Downtown",
      "unitCount": 1,
      "severity": 0,
      "units": "E10",
      "address": "201 Yesler Way"
    }
  },
  {
    "id_str": "F200004946",
    "created_at": "1/14/2020 8:04:14 PM",
    "derived": {
      "lat": 47.533703,
      "long": -122.365816,
      "timestamp": 1579061054000,
      "description": "Auto Fire Alarm",
      "entries": 2,
      "neighborhood": "Roxhill/Westwood",
      "neighborhoodGroup": "Delridge Neighborhoods",
      "unitCount": 2,
      "severity": 0,
      "units": "E37 L11",
      "address": "2600 Sw Holden St"
    }
  },
  {
    "id_str": "F200004944",
    "created_at": "1/14/2020 7:58:23 PM",
    "derived": {
      "lat": 47.732314,
      "long": -122.352726,
      "timestamp": 1579060703000,
      "description": "Aid Response",
      "entries": 1,
      "neighborhood": "Broadview/Bitter Lake",
      "neighborhoodGroup": "Northwest",
      "unitCount": 1,
      "severity": 0,
      "units": "A31",
      "address": "523 N 143rd St"
    }
  },
  {
    "id_str": "F200004942",
    "created_at": "1/14/2020 7:53:48 PM",
    "derived": {
      "lat": 47.708593,
      "long": -122.323047,
      "timestamp": 1579060428000,
      "description": "Rescue Elevator",
      "entries": 1,
      "neighborhood": "Northgate/Maple Leaf",
      "neighborhoodGroup": "North",
      "unitCount": 1,
      "severity": 0,
      "units": "L5",
      "address": "525 Ne Northgate Way"
    }
  },
  {
    "id_str": "F200004941",
    "created_at": "1/14/2020 7:50:41 PM",
    "derived": {
      "lat": 47.571853,
      "long": -122.293193,
      "timestamp": 1579060241000,
      "description": "1RED 1 Unit",
      "entries": 2,
      "neighborhood": "Columbia City",
      "neighborhoodGroup": "Southeast",
      "unitCount": 2,
      "severity": 0,
      "units": "E30 L12",
      "address": "3501 Rainier Av S"
    }
  },
  {
    "id_str": "F200004940",
    "created_at": "1/14/2020 7:46:26 PM",
    "derived": {
      "lat": 47.60252,
      "long": -122.329645,
      "timestamp": 1579059986000,
      "description": "Rubbish Fire",
      "entries": 1,
      "neighborhood": "Downtown Commercial Core",
      "neighborhoodGroup": "Downtown",
      "unitCount": 1,
      "severity": 0,
      "units": "E5",
      "address": "4TH AVE / JEFFERSON ST"
    }
  },
  {
    "id_str": "F200004937",
    "created_at": "1/14/2020 7:25:04 PM",
    "derived": {
      "lat": 47.567656,
      "long": -122.27201,
      "timestamp": 1579058704000,
      "description": "Aid Response Yellow",
      "entries": 1,
      "neighborhood": "Columbia City",
      "neighborhoodGroup": "Southeast",
      "unitCount": 1,
      "severity": 0,
      "units": "E28",
      "address": "4002 49th Ave S"
    }
  },
  {
    "id_str": "F200004936",
    "created_at": "1/14/2020 7:24:46 PM",
    "derived": {
      "lat": 47.579463,
      "long": -122.329988,
      "timestamp": 1579058686000,
      "description": "AFA4 - Auto Alarm 2 + 1 + 1",
      "entries": 2,
      "neighborhood": "Duwamish/SODO",
      "neighborhoodGroup": "Greater Duwamish",
      "unitCount": 4,
      "severity": 0,
      "units": "B5 E10 E13 R1",
      "address": "2733 3rd Av S"
    }
  },
  {
    "id_str": "F200004935",
    "created_at": "1/14/2020 7:23:16 PM",
    "derived": {
      "lat": 47.692418,
      "long": -122.355321,
      "timestamp": 1579058596000,
      "description": "Illegal Burn",
      "entries": 1,
      "neighborhood": "Greenwood/Phinney Ridge",
      "neighborhoodGroup": "Northwest",
      "unitCount": 1,
      "severity": 0,
      "units": "E21",
      "address": "Greenwood Ave N / N 87th St"
    }
  },
  {
    "id_str": "F200004934",
    "created_at": "1/14/2020 7:16:16 PM",
    "derived": {
      "lat": 47.611793,
      "long": -122.323985,
      "timestamp": 1579058176000,
      "description": "Aid Response",
      "entries": 1,
      "neighborhood": "Capitol Hill",
      "neighborhoodGroup": "East",
      "unitCount": 1,
      "severity": 0,
      "units": "E25",
      "address": "1321 Seneca St"
    }
  },
  {
    "id_str": "F200004931",
    "created_at": "1/14/2020 7:13:19 PM",
    "derived": {
      "lat": 47.617878,
      "long": -122.326759,
      "timestamp": 1579057999000,
      "description": "Medic Response",
      "entries": 1,
      "neighborhood": "Capitol Hill",
      "neighborhoodGroup": "East",
      "unitCount": 2,
      "severity": 0,
      "units": "A25 M17",
      "address": "1819 Bellevue Av"
    }
  },
  {
    "id_str": "F200004932",
    "created_at": "1/14/2020 7:12:33 PM",
    "derived": {
      "lat": 47.665037,
      "long": -122.366213,
      "timestamp": 1579057953000,
      "description": "Hang-Up, Aid",
      "entries": 1,
      "neighborhood": "Ballard",
      "neighborhoodGroup": "Ballard",
      "unitCount": 1,
      "severity": 0,
      "units": "E18",
      "address": "802 Nw 50th St"
    }
  },
  {
    "id_str": "F200004930",
    "created_at": "1/14/2020 7:06:04 PM",
    "derived": {
      "lat": 47.618002,
      "long": -122.329182,
      "timestamp": 1579057564000,
      "description": "Medic Response",
      "entries": 2,
      "neighborhood": "Cascade/Eastlake",
      "neighborhoodGroup": "Lake Union",
      "unitCount": 3,
      "severity": 0,
      "units": "A2 A4 M10",
      "address": "1811 Eastlake Av"
    }
  },
  {
    "id_str": "F200004929",
    "created_at": "1/14/2020 6:53:10 PM",
    "derived": {
      "lat": 47.696517,
      "long": -122.372676,
      "timestamp": 1579056790000,
      "description": "Aid Response",
      "entries": 1,
      "neighborhood": "North Beach/Blue Ridge",
      "neighborhoodGroup": "Ballard",
      "unitCount": 1,
      "severity": 0,
      "units": "E35",
      "address": "9234 13th Ave Nw"
    }
  },
  {
    "id_str": "F200004928",
    "created_at": "1/14/2020 6:47:36 PM",
    "derived": {
      "lat": 47.620976,
      "long": -122.33716,
      "timestamp": 1579056456000,
      "description": "Aid Response",
      "entries": 1,
      "neighborhood": "Cascade/Eastlake",
      "neighborhoodGroup": "Lake Union",
      "unitCount": 1,
      "severity": 0,
      "units": "A4",
      "address": "310 Terry Av N"
    }
  },
  {
    "id_str": "F200004927",
    "created_at": "1/14/2020 6:37:08 PM",
    "derived": {
      "lat": 47.606088,
      "long": -122.332909,
      "timestamp": 1579055828000,
      "description": "Aid Response",
      "entries": 1,
      "neighborhood": "Downtown Commercial Core",
      "neighborhoodGroup": "Downtown",
      "unitCount": 1,
      "severity": 0,
      "units": "A10",
      "address": "1000 4th Av"
    }
  },
  {
    "id_str": "F200004926",
    "created_at": "1/14/2020 6:36:14 PM",
    "derived": {
      "lat": 47.723212,
      "long": -122.344228,
      "timestamp": 1579055774000,
      "description": "Aid Response",
      "entries": 1,
      "neighborhood": "Haller Lake",
      "neighborhoodGroup": "Northwest",
      "unitCount": 1,
      "severity": 0,
      "units": "A31",
      "address": "1155 N 130th St"
    }
  },
  {
    "id_str": "F200004925",
    "created_at": "1/14/2020 6:35:45 PM",
    "derived": {
      "lat": 47.624583,
      "long": -122.356709,
      "timestamp": 1579055745000,
      "description": "Medic Response",
      "entries": 2,
      "neighborhood": "Queen Anne",
      "neighborhoodGroup": "Magnolia/Queen Anne",
      "unitCount": 2,
      "severity": 0,
      "units": "E8 M1",
      "address": "Queen Anne Ave N / Mercer St"
    }
  },
  {
    "id_str": "F200004924",
    "created_at": "1/14/2020 6:34:59 PM",
    "derived": {
      "lat": 47.690955,
      "long": -122.375464,
      "timestamp": 1579055699000,
      "description": "Aid Response",
      "entries": 1,
      "neighborhood": "North Beach/Blue Ridge",
      "neighborhoodGroup": "Ballard",
      "unitCount": 1,
      "severity": 0,
      "units": "E21",
      "address": "8538 Mary Av Nw"
    }
  },
  {
    "id_str": "F200004923",
    "created_at": "1/14/2020 6:28:30 PM",
    "derived": {
      "lat": 47.614052,
      "long": -122.323219,
      "timestamp": 1579055310000,
      "description": "Aid Response",
      "entries": 1,
      "neighborhood": "Capitol Hill",
      "neighborhoodGroup": "East",
      "unitCount": 1,
      "severity": 0,
      "units": "A25",
      "address": "714 E Pike St"
    }
  },
  {
    "id_str": "F200004922",
    "created_at": "1/14/2020 6:25:24 PM",
    "derived": {
      "lat": 47.601986,
      "long": -122.32914,
      "timestamp": 1579055124000,
      "description": "Aid Response Yellow",
      "entries": 1,
      "neighborhood": "Downtown Commercial Core",
      "neighborhoodGroup": "Downtown",
      "unitCount": 1,
      "severity": 0,
      "units": "HEALTH1",
      "address": "420 4TH AV"
    }
  },
  {
    "id_str": "F200004920",
    "created_at": "1/14/2020 6:22:23 PM",
    "derived": {
      "lat": 47.561674,
      "long": -122.293783,
      "timestamp": 1579054943000,
      "description": "Aid Response",
      "entries": 1,
      "neighborhood": "Columbia City",
      "neighborhoodGroup": "Southeast",
      "unitCount": 1,
      "severity": 0,
      "units": "E30",
      "address": "4616 M L King Jr Way S"
    }
  },
  {
    "id_str": "F200004921",
    "created_at": "1/14/2020 6:22:11 PM",
    "derived": {
      "lat": 47.673576,
      "long": -122.398372,
      "timestamp": 1579054931000,
      "description": "Aid Response",
      "entries": 2,
      "neighborhood": "Sunset Hill/Loyal Heights",
      "neighborhoodGroup": "Ballard",
      "unitCount": 2,
      "severity": 0,
      "units": "E18 E35",
      "address": "6111 32ND AVE NW"
    }
  },
  {
    "id_str": "F200004919",
    "created_at": "1/14/2020 6:19:31 PM",
    "derived": {
      "lat": 47.613063,
      "long": -122.340033,
      "timestamp": 1579054771000,
      "description": "Aid Response",
      "entries": 1,
      "neighborhood": "Cascade/Eastlake",
      "neighborhoodGroup": "Lake Union",
      "unitCount": 1,
      "severity": 0,
      "units": "A4",
      "address": "Virginia St / 4th Ave"
    }
  },
  {
    "id_str": "F200004917",
    "created_at": "1/14/2020 6:08:26 PM",
    "derived": {
      "lat": 47.549222,
      "long": -122.287152,
      "timestamp": 1579054106000,
      "description": "Medic Response",
      "entries": 2,
      "neighborhood": "Beacon Hill",
      "neighborhoodGroup": "Greater Duwamish",
      "unitCount": 2,
      "severity": 0,
      "units": "E28 M28",
      "address": "5931 M L King Jr Way S"
    }
  },
  {
    "id_str": "F200004916",
    "created_at": "1/14/2020 5:58:19 PM",
    "derived": {
      "lat": 47.626903,
      "long": -122.319145,
      "timestamp": 1579053499000,
      "description": "Natural Gas Odor",
      "entries": 1,
      "neighborhood": "North Capitol Hill",
      "neighborhoodGroup": "East",
      "unitCount": 1,
      "severity": 0,
      "units": "L10",
      "address": "910 Federal Ave E"
    }
  },
  {
    "id_str": "F200004915",
    "created_at": "1/14/2020 5:45:29 PM",
    "derived": {
      "lat": 47.599188,
      "long": -122.317116,
      "timestamp": 1579052729000,
      "description": "Aid Response",
      "entries": 1,
      "neighborhood": "Pioneer Square/International District",
      "neighborhoodGroup": "Downtown",
      "unitCount": 1,
      "severity": 0,
      "units": "A5",
      "address": "1207 S Jackson St"
    }
  },
  {
    "id_str": "F200004914",
    "created_at": "1/14/2020 5:43:35 PM",
    "derived": {
      "lat": 47.57511,
      "long": -122.405441,
      "timestamp": 1579052615000,
      "description": "Medic Response",
      "entries": 2,
      "neighborhood": "Alki/Admiral",
      "neighborhoodGroup": "Southwest",
      "unitCount": 2,
      "severity": 0,
      "units": "E29 M32",
      "address": "3238 57th Ave Sw"
    }
  },
  {
    "id_str": "F200004912",
    "created_at": "1/14/2020 5:31:58 PM",
    "derived": {
      "lat": 47.656282,
      "long": -122.311375,
      "timestamp": 1579051918000,
      "description": "Aid Response",
      "entries": 1,
      "neighborhood": "University District",
      "neighborhoodGroup": "Northeast",
      "unitCount": 1,
      "severity": 0,
      "units": "E17",
      "address": "4060 George Washington Ln Ne"
    }
  },