[
  {
    "id_str": "F200065814",
    "created_at": "7/5/2020 4:52:41 PM",
    "lat": 47.520679,
    "long": -122.335803,
    "timestamp": 1593993161000,
    "description": "Aid Response",
    "address": "9230 2nd Ave Sw",
    "active": false,
    "unitCount": 2,
    "severity": 0,
    "units": "E26 M26"
  },
  {
    "id_str": "F200065813",
    "created_at": "7/5/2020 4:43:52 PM",
    "lat": 47.725278,
    "long": -122.358249,
    "timestamp": 1593992632000,
    "description": "Illegal Burn",
    "address": "13234 1ST AVE NW",
    "active": false,
    "unitCount": 1,
    "severity": 0,
    "neighborhood": "Broadview/Bitter Lake",
    "neighborhoodGroup": "Northwest",
    "units": "E24"
  },
  {
    "id_str": "F200065812",
    "created_at": "7/5/2020 4:39:17 PM",
    "lat": 47.63738,
    "long": -122.320079,
    "timestamp": 1593992357000,
    "description": "Aid Response",
    "address": "2023 10th Ave E",
    "active": false,
    "unitCount": 1,
    "severity": 0,
    "neighborhood": "North Capitol Hill",
    "neighborhoodGroup": "East",
    "units": "E22"
  },
  {
    "id_str": "F200065811",
    "created_at": "7/5/2020 4:29:24 PM",
    "lat": 47.657518,
    "long": -122.319791,
    "timestamp": 1593991764000,
    "description": "1RED 1 Unit",
    "address": "800 Ne 42nd St",
    "active": false,
    "unitCount": 1,
    "severity": 0,
    "neighborhood": "Wallingford",
    "neighborhoodGroup": "Lake Union",
    "units": "L9"
  },
  {
    "id_str": "F200065804",
    "created_at": "7/5/2020 4:04:50 PM",
    "lat": 47.615167,
    "long": -122.311166,
    "timestamp": 1593990290000,
    "description": "Medic Response",
    "address": "1600 E Madison St",
    "active": false,
    "unitCount": 2,
    "severity": 0,
    "neighborhood": "Central Area/Squire Park",
    "neighborhoodGroup": "Central",
    "units": "A25 M10"
  },
  {
    "id_str": "F200065805",
    "created_at": "7/5/2020 4:04:34 PM",
    "lat": 47.670927,
    "long": -122.395655,
    "timestamp": 1593990274000,
    "description": "Investigate Out Of Service",
    "address": "Nw 58th St / 30th Ave Nw",
    "active": false,
    "unitCount": 1,
    "severity": 0,
    "neighborhood": "Sunset Hill/Loyal Heights",
    "neighborhoodGroup": "Ballard",
    "units": "L8"
  },
  {
    "id_str": "F200065803",
    "created_at": "7/5/2020 4:03:08 PM",
    "lat": 47.618566,
    "long": -122.346316,
    "timestamp": 1593990188000,
    "description": "Low Acuity Response",
    "address": "101 Taylor Av N",
    "active": false,
    "unitCount": 1,
    "severity": 0,
    "neighborhood": "Cascade/Eastlake",
    "neighborhoodGroup": "Lake Union",
    "units": "A4"
  },
  {
    "id_str": "F200065802",
    "created_at": "7/5/2020 4:02:13 PM",
    "lat": 47.596687,
    "long": -122.298745,
    "timestamp": 1593990133000,
    "description": "Automatic Fire Alarm Resd",
    "address": "705 26th Ave S",
    "active": false,
    "unitCount": 1,
    "severity": 0,
    "neighborhood": "Madrona/Leschi",
    "neighborhoodGroup": "Central",
    "units": "L3"
  },
  {
    "id_str": "F200065801",
    "created_at": "7/5/2020 4:01:29 PM",
    "lat": 47.572899,
    "long": -122.376053,
    "timestamp": 1593990089000,
    "description": "Medic Response",
    "address": "3402 35th Ave Sw",
    "active": false,
    "unitCount": 2,
    "severity": 0,
    "neighborhood": "North Delridge",
    "neighborhoodGroup": "Delridge Neighborhoods",
    "units": "E32 M32"
  },
  {
    "id_str": "F200065800",
    "created_at": "7/5/2020 3:57:58 PM",
    "lat": 47.650543,
    "long": -122.307616,
    "timestamp": 1593989878000,
    "description": "Aid Response",
    "address": "Ne Pacific Pl / Ne Pacific St",
    "active": false,
    "unitCount": 1,
    "severity": 0,
    "neighborhood": "University District",
    "neighborhoodGroup": "Northeast",
    "units": "E22"
  },
  {
    "id_str": "F200065799",
    "created_at": "7/5/2020 3:56:16 PM",
    "lat": 47.619381,
    "long": -122.293495,
    "timestamp": 1593989776000,
    "description": "Aid Response",
    "address": "139 30th Ave E",
    "active": false,
    "unitCount": 1,
    "severity": 0,
    "neighborhood": "Central Area/Squire Park",
    "neighborhoodGroup": "Central",
    "units": "E34"
  },
  {
    "id_str": "F200065798",
    "created_at": "7/5/2020 3:50:44 PM",
    "lat": 47.712739,
    "long": -122.35551,
    "timestamp": 1593989444000,
    "description": "Activated CO Detector",
    "address": "11544 Greenwood Av N",
    "active": false,
    "unitCount": 1,
    "severity": 0,
    "neighborhood": "Broadview/Bitter Lake",
    "neighborhoodGroup": "Northwest",
    "units": "L5"
  },
  {
    "id_str": "F200065797",
    "created_at": "7/5/2020 3:40:55 PM",
    "lat": 47.6146,
    "long": -122.342634,
    "timestamp": 1593988855000,
    "description": "Aid Response",
    "address": "4th Ave / Blanchard St",
    "active": false,
    "unitCount": 1,
    "severity": 0,
    "neighborhood": "Cascade/Eastlake",
    "neighborhoodGroup": "Lake Union",
    "units": "A4"
  },
  {
    "id_str": "F200065796",
    "created_at": "7/5/2020 3:40:04 PM",
    "lat": 47.588375,
    "long": -122.302594,
    "timestamp": 1593988804000,
    "description": "Aid Response",
    "address": "2300 S Massachusetts St",
    "active": false,
    "unitCount": 2,
    "severity": 0,
    "neighborhood": "Mt. Baker/North Rainier",
    "neighborhoodGroup": "Southeast",
    "units": "E30 E6"
  },
  {
    "id_str": "F200065794",
    "created_at": "7/5/2020 3:25:07 PM",
    "lat": 47.607297,
    "long": -122.327878,
    "timestamp": 1593987907000,
    "description": "Auto Fire Alarm",
    "address": "910 8th Av",
    "active": false,
    "unitCount": 2,
    "severity": 0,
    "neighborhood": "First Hill",
    "neighborhoodGroup": "East",
    "units": "E10 L1"
  },
  {
    "id_str": "F200065792",
    "created_at": "7/5/2020 3:24:08 PM",
    "lat": 47.618896,
    "long": -122.325288,
    "timestamp": 1593987848000,
    "description": "1RED 1 Unit",
    "address": "110 Summit Av E",
    "active": false,
    "unitCount": 1,
    "severity": 0,
    "neighborhood": "Capitol Hill",
    "neighborhoodGroup": "East",
    "units": "E2"
  },
  {
    "id_str": "F200065791",
    "created_at": "7/5/2020 3:17:53 PM",
    "lat": 47.668677,
    "long": -122.383301,
    "timestamp": 1593987473000,
    "description": "Medic Response",
    "address": "2038 Nw Market St",
    "active": false,
    "unitCount": 2,
    "severity": 0,
    "neighborhood": "Ballard",
    "neighborhoodGroup": "Ballard",
    "units": "L8 M18"
  },
  {
    "id_str": "F200065790",
    "created_at": "7/5/2020 3:15:38 PM",
    "lat": 47.669551,
    "long": -122.384743,
    "timestamp": 1593987338000,
    "description": "Aid Response",
    "address": "5614 22nd Av Nw",
    "active": false,
    "unitCount": 1,
    "severity": 0,
    "neighborhood": "Ballard",
    "neighborhoodGroup": "Ballard",
    "units": "E18"
  },
  {
    "id_str": "F200065789",
    "created_at": "7/5/2020 3:14:53 PM",
    "lat": 47.675933,
    "long": -122.317364,
    "timestamp": 1593987293000,
    "description": "Aid Response",
    "address": "6515 Roosevelt Way Ne",
    "active": false,
    "unitCount": 1,
    "severity": 0,
    "neighborhood": "Ravenna/Bryant",
    "neighborhoodGroup": "Northeast",
    "units": "E22"
  },
  {
    "id_str": "F200065787",
    "created_at": "7/5/2020 3:09:15 PM",
    "lat": 47.619908,
    "long": -122.320873,
    "timestamp": 1593986955000,
    "description": "Aid Response",
    "address": "Broadway E / E Olive Way",
    "active": false,
    "unitCount": 1,
    "severity": 0,
    "neighborhood": "Capitol Hill",
    "neighborhoodGroup": "East",
    "units": "A25"
  },
  {
    "id_str": "F200065785",
    "created_at": "7/5/2020 3:03:43 PM",
    "lat": 47.721329,
    "long": -122.296339,
    "timestamp": 1593986623000,
    "description": "Low Acuity Response",
    "address": "12740 30th Av Ne",
    "active": false,
    "unitCount": 1,
    "severity": 0,
    "neighborhood": "Cedar Park/Meadowbrook",
    "neighborhoodGroup": "North",
    "units": "L5"
  },
  {
    "id_str": "F200065784",
    "created_at": "7/5/2020 2:56:59 PM",
    "lat": 47.608008,
    "long": -122.302467,
    "timestamp": 1593986219000,
    "description": "Medic Response",
    "address": "2323 E Cherry St",
    "active": false,
    "unitCount": 2,
    "severity": 0,
    "neighborhood": "Central Area/Squire Park",
    "neighborhoodGroup": "Central",
    "units": "E6 M10"
  },
  {
    "id_str": "F200065781",
    "created_at": "7/5/2020 2:54:20 PM",
    "lat": 47.626322,
    "long": -122.348863,
    "timestamp": 1593986060000,
    "description": "Aid Response",
    "address": "805 4th Av N",
    "active": false,
    "unitCount": 1,
    "severity": 0,
    "neighborhood": "Queen Anne",
    "neighborhoodGroup": "Magnolia/Queen Anne",
    "units": "E8"
  },
  {
    "id_str": "F200065780",
    "created_at": "7/5/2020 2:53:26 PM",
    "lat": 47.611563,
    "long": -122.322179,
    "timestamp": 1593986006000,
    "description": "AFA4 - Auto Alarm 2 + 1 + 1",
    "address": "1425 Spring St",
    "active": false,
    "unitCount": 4,
    "severity": 0,
    "neighborhood": "Capitol Hill",
    "neighborhoodGroup": "East",
    "units": "B2 E10 E25 L10"
  },
  {
    "id_str": "F200065779",
    "created_at": "7/5/2020 2:46:09 PM",
    "lat": 47.560748,
    "long": -122.287027,
    "timestamp": 1593985569000,
    "description": "Aid Response",
    "address": "3700 S Alaska St",
    "active": false,
    "unitCount": 1,
    "severity": 0,
    "neighborhood": "Columbia City",
    "neighborhoodGroup": "Southeast",
    "units": "L3"
  },
  {
    "id_str": "F200065778",
    "created_at": "7/5/2020 2:45:54 PM",
    "lat": 47.609973,
    "long": -122.337997,
    "timestamp": 1593985554000,
    "description": "Medic Response",
    "address": "1523 3rd Av",
    "active": false,
    "unitCount": 3,
    "severity": 0,
    "neighborhood": "Downtown Commercial Core",
    "neighborhoodGroup": "Downtown",
    "units": "A5 E10 M1"
  },
  {
    "id_str": "F200065776",
    "created_at": "7/5/2020 2:35:08 PM",
    "lat": 47.652712,
    "long": -122.341348,
    "timestamp": 1593984908000,
    "description": "MVI - Motor Vehicle Incident",
    "address": "3802 Interlake Ave N",
    "active": false,
    "unitCount": 1,
    "severity": 0,
    "neighborhood": "Fremont",
    "neighborhoodGroup": "Lake Union",
    "units": "E9"
  },
  {
    "id_str": "F200065775",
    "created_at": "7/5/2020 2:34:15 PM",
    "lat": 47.705046,
    "long": -122.340648,
    "timestamp": 1593984855000,
    "description": "MVI - Motor Vehicle Incident",
    "address": "N NORTHGATE WAY / INTERLAKE AVE N",
    "active": false,
    "unitCount": 1,
    "severity": 0,
    "neighborhood": "Licton Springs",
    "neighborhoodGroup": "Northwest",
    "units": "E24"
  },
  {
    "id_str": "F200065774",
    "created_at": "7/5/2020 2:31:55 PM",
    "lat": 47.603484,
    "long": -122.332062,
    "timestamp": 1593984715000,
    "description": "Aid Response",
    "address": "3rd Ave / Cherry St",
    "active": false,
    "unitCount": 1,
    "severity": 0,
    "neighborhood": "Downtown Commercial Core",
    "neighborhoodGroup": "Downtown",
    "units": "A10"
  },
  {
    "id_str": "F200065773",
    "created_at": "7/5/2020 2:27:10 PM",
    "lat": 47.623291,
    "long": -122.360931,
    "timestamp": 1593984430000,
    "description": "Medic Response",
    "address": "323 W Republican St",
    "active": false,
    "unitCount": 3,
    "severity": 0,
    "neighborhood": "Queen Anne",
    "neighborhoodGroup": "Magnolia/Queen Anne",
    "units": "A2 A4 M1"
  },
  {
    "id_str": "F200065771",
    "created_at": "7/5/2020 2:13:07 PM",
    "lat": 47.518178,
    "long": -122.367277,
    "timestamp": 1593983587000,
    "description": "Water Job Minor",
    "address": "9455 27th Av Sw",
    "active": false,
    "unitCount": 1,
    "severity": 0,
    "neighborhood": "Roxhill/Westwood",
    "neighborhoodGroup": "Delridge Neighborhoods",
    "units": "L13"
  },
  {
    "id_str": "F200065770",
    "created_at": "7/5/2020 2:12:34 PM",
    "lat": 47.551868,
    "long": -122.328345,
    "timestamp": 1593983554000,
    "description": "1RED 1 Unit",
    "address": "5th Ave S / S Orcas St",
    "active": false,
    "unitCount": 1,
    "severity": 0,
    "neighborhood": "Georgetown",
    "neighborhoodGroup": "Greater Duwamish",
    "units": "E27"
  },
  {
    "id_str": "F200065769",
    "created_at": "7/5/2020 2:10:01 PM",
    "lat": 47.6588,
    "long": -122.306573,
    "timestamp": 1593983401000,
    "description": "Aid Response",
    "address": "1915 Ne Chelan Ln",
    "active": false,
    "unitCount": 1,
    "severity": 0,
    "neighborhood": "University District",
    "neighborhoodGroup": "Northeast",
    "units": "E22"
  },
  {
    "id_str": "F200065767",
    "created_at": "7/5/2020 2:08:19 PM",
    "lat": 47.712167,
    "long": -122.312433,
    "timestamp": 1593983299000,
    "description": "Aid Response",
    "address": "11501 15th Av Ne",
    "active": false,
    "unitCount": 1,
    "severity": 0,
    "neighborhood": "Olympic Hills/Victory Heights",
    "neighborhoodGroup": "North",
    "units": "E39"
  },
  {
    "id_str": "F200065765",
    "created_at": "7/5/2020 2:01:26 PM",
    "lat": 47.637677,
    "long": -122.358275,
    "timestamp": 1593982886000,
    "description": "Aid Response",
    "address": "2121 1st Ave W",
    "active": false,
    "unitCount": 1,
    "severity": 0,
    "neighborhood": "Queen Anne",
    "neighborhoodGroup": "Magnolia/Queen Anne",
    "units": "E8"
  },
  {
    "id_str": "F200065760",
    "created_at": "7/5/2020 1:51:47 PM",
    "lat": 47.610003,
    "long": -122.338025,
    "timestamp": 1593982307000,
    "description": "Aid Response",
    "address": "1526 3rd Av",
    "active": false,
    "unitCount": 1,
    "severity": 0,
    "neighborhood": "Downtown Commercial Core",
    "neighborhoodGroup": "Downtown",
    "units": "A4"
  },
  {
    "id_str": "F200065759",
    "created_at": "7/5/2020 1:44:11 PM",
    "lat": 47.669458,
    "long": -122.387807,
    "timestamp": 1593981851000,
    "description": "Aid Response",
    "address": "2418 Nw 56th St",
    "active": false,
    "unitCount": 2,
    "severity": 0,
    "neighborhood": "Sunset Hill/Loyal Heights",
    "neighborhoodGroup": "Ballard",
    "units": "A31 E18"
  },
  {
    "id_str": "F200065758",
    "created_at": "7/5/2020 1:29:57 PM",
    "lat": 47.658154,
    "long": -122.320843,
    "timestamp": 1593980997000,
    "description": "Aid Response",
    "address": "4233 7th Av Ne",
    "active": false,
    "unitCount": 1,
    "severity": 0,
    "neighborhood": "Wallingford",
    "neighborhoodGroup": "Lake Union",
    "units": "E22"
  },
  {
    "id_str": "F200065757",
    "created_at": "7/5/2020 1:27:21 PM",
    "lat": 47.721329,
    "long": -122.296339,
    "timestamp": 1593980841000,
    "description": "Aid Response",
    "address": "12740 30th Av Ne",
    "active": false,
    "unitCount": 1,
    "severity": 0,
    "neighborhood": "Cedar Park/Meadowbrook",
    "neighborhoodGroup": "North",
    "units": "E39"
  },
  {
    "id_str": "F200065755",
    "created_at": "7/5/2020 1:15:25 PM",
    "lat": 47.616451,
    "long": -122.314031,
    "timestamp": 1593980125000,
    "description": "Auto Fire Alarm",
    "address": "1415 E Olive St",
    "active": false,
    "unitCount": 2,
    "severity": 0,
    "neighborhood": "Capitol Hill",
    "neighborhoodGroup": "East",
    "units": "E25 L10"
  },
  {
    "id_str": "F200065754",
    "created_at": "7/5/2020 1:07:32 PM",
    "lat": 47.538904,
    "long": -122.268852,
    "timestamp": 1593979652000,
    "description": "Medic Response",
    "address": "5105 S Myrtle St",
    "active": false,
    "unitCount": 2,
    "severity": 0,
    "neighborhood": "Seward Park",
    "neighborhoodGroup": "Southeast",
    "units": "E28 M28"
  },
  {
    "id_str": "F200065753",
    "created_at": "7/5/2020 12:58:30 PM",
    "lat": 47.728181,
    "long": -122.296431,
    "timestamp": 1593979110000,
    "description": "Aid Response",
    "address": "13737 30th Ave Ne",
    "active": false,
    "unitCount": 1,
    "severity": 0,
    "neighborhood": "Cedar Park/Meadowbrook",
    "neighborhoodGroup": "North",
    "units": "L5"
  },
  {
    "id_str": "F200065752",
    "created_at": "7/5/2020 12:53:01 PM",
    "lat": 47.600875,
    "long": -122.328963,
    "timestamp": 1593978781000,
    "description": "Aid Response",
    "address": "4th Ave S / S Washington St",
    "active": false,
    "unitCount": 1,
    "severity": 0,
    "neighborhood": "Pioneer Square/International District",
    "neighborhoodGroup": "Downtown",
    "units": "A10"
  },
  {
    "id_str": "F200065751",
    "created_at": "7/5/2020 12:49:14 PM",
    "lat": 47.643469,
    "long": -122.402333,
    "timestamp": 1593978554000,
    "description": "Low Acuity Response",
    "address": "2632 35th Ave W",
    "active": false,
    "unitCount": 1,
    "severity": 0,
    "neighborhood": "Magnolia",
    "neighborhoodGroup": "Magnolia/Queen Anne",
    "units": "E41"
  },
  {
    "id_str": "F200065748",
    "created_at": "7/5/2020 12:38:19 PM",
    "lat": 47.615268,
    "long": -122.307445,
    "timestamp": 1593977899000,
    "description": "MVI - Motor Vehicle Incident",
    "address": "E Pine St / 19th Ave",
    "active": false,
    "unitCount": 1,
    "severity": 0,
    "neighborhood": "Central Area/Squire Park",
    "neighborhoodGroup": "Central",
    "units": "E34"
  },
  {
    "id_str": "F200065747",
    "created_at": "7/5/2020 12:28:27 PM",
    "lat": 47.615236,
    "long": -122.320685,
    "timestamp": 1593977307000,
    "description": "Illegal Burn",
    "address": "907 E Pine St",
    "active": false,
    "unitCount": 1,
    "severity": 0,
    "neighborhood": "Capitol Hill",
    "neighborhoodGroup": "East",
    "units": "E25"
  },
  {
    "id_str": "F200065746",
    "created_at": "7/5/2020 12:27:53 PM",
    "lat": 47.643191,
    "long": -122.349574,
    "timestamp": 1593977273000,
    "description": "Aid Response",
    "address": "2616 4th Ave N",
    "active": false,
    "unitCount": 1,
    "severity": 0,
    "neighborhood": "Queen Anne",
    "neighborhoodGroup": "Magnolia/Queen Anne",
    "units": "E9"
  },
  {
    "id_str": "F200065745",
    "created_at": "7/5/2020 12:20:08 PM",
    "lat": 47.67834,
    "long": -122.32895,
    "timestamp": 1593976808000,
    "description": "Low Acuity Response",
    "address": "6720 East Green Lake Way N",
    "active": false,
    "unitCount": 1,
    "severity": 0,
    "neighborhood": "Green Lake",
    "neighborhoodGroup": "Northwest",
    "units": "E21"
  },
  {
    "id_str": "F200065742",
    "created_at": "7/5/2020 12:11:34 PM",
    "lat": 47.587739,
    "long": -122.305249,
    "timestamp": 1593976294000,
    "description": "Aid Response",
    "address": "Rainier Ave S / S State St",
    "active": false,
    "unitCount": 1,
    "severity": 0,
    "neighborhood": "North Beacon Hill/Jefferson Park",
    "neighborhoodGroup": "Greater Duwamish",
    "units": "E13"
  },
  {
    "id_str": "F200065741",
    "created_at": "7/5/2020 12:05:27 PM",
    "lat": 47.538884,
    "long": -122.282179,
    "timestamp": 1593975927000,
    "description": "Bark Fire",
    "address": "M L King Jr Way S / S Myrtle St",
    "active": false,
    "unitCount": 1,
    "severity": 0,
    "neighborhood": "South Beacon Hill/NewHolly",
    "neighborhoodGroup": "Greater Duwamish",
    "units": "E28"
  },
  {
    "id_str": "F200065740",
    "created_at": "7/5/2020 12:01:13 PM",
    "lat": 47.581913,
    "long": -122.300869,
    "timestamp": 1593975673000,
    "description": "Aid Response",
    "address": "2338 Rainier Av S",
    "active": false,
    "unitCount": 1,
    "severity": 0,
    "neighborhood": "Mt. Baker/North Rainier",
    "neighborhoodGroup": "Southeast",
    "units": "E13"
  },
  {
    "id_str": "F200065738",
    "created_at": "7/5/2020 11:58:22 AM",
    "lat": 47.728181,
    "long": -122.296431,
    "timestamp": 1593975502000,
    "description": "Aid Response",
    "address": "13737 30th Ave Ne",
    "active": false,
    "unitCount": 1,
    "severity": 0,
    "neighborhood": "Cedar Park/Meadowbrook",
    "neighborhoodGroup": "North",
    "units": "E31"
  },
  {
    "id_str": "F200065737",
    "created_at": "7/5/2020 11:56:06 AM",
    "lat": 47.600843,
    "long": -122.330271,
    "timestamp": 1593975366000,
    "description": "Low Acuity Response",
    "address": "204 3rd Av S",
    "active": false,
    "unitCount": 1,
    "severity": 0,
    "neighborhood": "Pioneer Square/International District",
    "neighborhoodGroup": "Downtown",
    "units": "A5"
  },
  {
    "id_str": "F200065735",
    "created_at": "7/5/2020 11:53:23 AM",
    "lat": 47.521244,
    "long": -122.336301,
    "timestamp": 1593975203000,
    "description": "Aid Response",
    "address": "9200 2nd Av Sw",
    "active": false,
    "unitCount": 1,
    "severity": 0,
    "neighborhood": "Highland Park",
    "neighborhoodGroup": "Delridge Neighborhoods",
    "units": "E26"
  },
  {
    "id_str": "F200065734",
    "created_at": "7/5/2020 11:51:14 AM",
    "lat": 47.618493,
    "long": -122.326726,
    "timestamp": 1593975074000,
    "description": "Aid Response",
    "address": "E Denny Way / Bellevue Ave",
    "active": false,
    "unitCount": 1,
    "severity": 0,
    "neighborhood": "Capitol Hill",
    "neighborhoodGroup": "East",
    "units": "A25"
  },
  {
    "id_str": "F200065733",
    "created_at": "7/5/2020 11:49:41 AM",
    "lat": 47.580994,
    "long": -122.300167,
    "timestamp": 1593974981000,
    "description": "Aid Response",
    "address": "Rainier Ave S / S Bayview St",
    "active": false,
    "unitCount": 1,
    "severity": 0,
    "neighborhood": "Mt. Baker/North Rainier",
    "neighborhoodGroup": "Southeast",
    "units": "E30"
  },
  {
    "id_str": "F200065730",
    "created_at": "7/5/2020 11:36:31 AM",
    "lat": 47.548051,
    "long": -122.329584,
    "timestamp": 1593974191000,
    "description": "AFA4 - Auto Alarm 2 + 1 + 1",
    "address": "6100 4th Av S",
    "active": false,
    "unitCount": 4,
    "severity": 0,
    "neighborhood": "Georgetown",
    "neighborhoodGroup": "Greater Duwamish",
    "units": "B7 E27 E36 R1"
  },
  {
    "id_str": "F200065727",
    "created_at": "7/5/2020 11:24:34 AM",
    "lat": 47.669808,
    "long": -122.3544,
    "timestamp": 1593973474000,
    "description": "Aid Response",
    "address": "5603 PHINNEY AVE N",
    "active": false,
    "unitCount": 1,
    "severity": 0,
    "neighborhood": "Greenwood/Phinney Ridge",
    "neighborhoodGroup": "Northwest",
    "units": "E21"
  },
  {
    "id_str": "F200065725",
    "created_at": "7/5/2020 11:16:25 AM",
    "lat": 47.612815,
    "long": -122.349533,
    "timestamp": 1593972985000,
    "description": "AFA4 - Auto Alarm 2 + 1 + 1",
    "address": "2401 Elliott Av",
    "active": false,
    "unitCount": 4,
    "severity": 0,
    "neighborhood": "Belltown",
    "neighborhoodGroup": "Downtown",
    "units": "B2 E2 E5 L4"
  },
  {
    "id_str": "F200065724",
    "created_at": "7/5/2020 11:14:23 AM",
    "lat": 47.721579,
    "long": -122.362306,
    "timestamp": 1593972863000,
    "description": "Low Acuity Response",
    "address": "12721 4th Ave Nw",
    "active": false,
    "unitCount": 1,
    "severity": 0,
    "neighborhood": "Broadview/Bitter Lake",
    "neighborhoodGroup": "Northwest",
    "units": "A31"
  },
  {
    "id_str": "F200065723",
    "created_at": "7/5/2020 11:00:45 AM",
    "lat": 47.608008,
    "long": -122.302467,
    "timestamp": 1593972045000,
    "description": "Advised Incident",
    "address": "2323 E Cherry St",
    "active": false,
    "unitCount": 2,
    "severity": 0,
    "neighborhood": "Central Area/Squire Park",
    "neighborhoodGroup": "Central",
    "units": "E25 E6"
  },
  {
    "id_str": "F200065721",
    "created_at": "7/5/2020 10:43:56 AM",
    "lat": 47.565975,
    "long": -122.29978,
    "timestamp": 1593971036000,
    "description": "1RED 1 Unit",
    "address": "CHEASTY BLVD S / 25TH AVE S",
    "active": false,
    "unitCount": 1,
    "severity": 0,
    "neighborhood": "North Beacon Hill/Jefferson Park",
    "neighborhoodGroup": "Greater Duwamish",
    "units": "E13"
  },
  {
    "id_str": "F200065720",
    "created_at": "7/5/2020 10:41:56 AM",
    "lat": 47.576649,
    "long": -122.386725,
    "timestamp": 1593970916000,
    "description": "Auto Fire Alarm",
    "address": "3050 California Av Sw",
    "active": false,
    "unitCount": 2,
    "severity": 0,
    "neighborhood": "West Seattle Junction/Genesee Hill",
    "neighborhoodGroup": "Southwest",
    "units": "E29 L11"
  },
  {
    "id_str": "F200065718",
    "created_at": "7/5/2020 10:29:24 AM",
    "lat": 47.608006,
    "long": -122.301332,
    "timestamp": 1593970164000,
    "description": "AFA4 - Auto Alarm 2 + 1 + 1",
    "address": "2410 E Cherry St",
    "active": false,
    "unitCount": 4,
    "severity": 0,
    "neighborhood": "Central Area/Squire Park",
    "neighborhoodGroup": "Central",
    "units": "B2 E25 E34 L10"
  },
  {
    "id_str": "F200065716",
    "created_at": "7/5/2020 10:19:32 AM",
    "lat": 47.600831,
    "long": -122.304498,
    "timestamp": 1593969572000,
    "description": "Rubbish Fire",
    "address": "2115 S WASHINGTON ST",
    "active": false,
    "unitCount": 2,
    "severity": 0,
    "neighborhood": "Judkins Park",
    "neighborhoodGroup": "Central",
    "units": "E10 MAR5"
  },
  {
    "id_str": "F200065715",
    "created_at": "7/5/2020 10:12:33 AM",
    "lat": 47.532034,
    "long": -122.333373,
    "timestamp": 1593969153000,
    "description": "Automatic Fire Alarm False",
    "address": "130 S Kenyon St",
    "active": false,
    "unitCount": 1,
    "severity": 0,
    "neighborhood": "South Park",
    "neighborhoodGroup": "Greater Duwamish",
    "units": "E26"
  },
  {
    "id_str": "F200065714",
    "created_at": "7/5/2020 10:09:42 AM",
    "lat": 47.611672,
    "long": -122.336484,
    "timestamp": 1593968982000,
    "description": "Aid Response",
    "address": "500 Pine St",
    "active": false,
    "unitCount": 2,
    "severity": 0,
    "neighborhood": "Downtown Commercial Core",
    "neighborhoodGroup": "Downtown",
    "units": "A2 E2"
  },
  {
    "id_str": "F200065713",
    "created_at": "7/5/2020 10:00:38 AM",
    "lat": 47.608881,
    "long": -122.340897,
    "timestamp": 1593968438000,
    "description": "Aid Response",
    "address": "1529 Pike Pl",
    "active": false,
    "unitCount": 1,
    "severity": 0,
    "neighborhood": "Downtown Commercial Core",
    "neighborhoodGroup": "Downtown",
    "units": "A4"
  },
  {
    "id_str": "F200065710",
    "created_at": "7/5/2020 9:58:16 AM",
    "lat": 47.731623,
    "long": -122.284867,
    "timestamp": 1593968296000,
    "description": "Aid Response",
    "address": "4151 Ne 142nd St",
    "active": false,
    "unitCount": 1,
    "severity": 0,
    "neighborhood": "Cedar Park/Meadowbrook",
    "neighborhoodGroup": "North",
    "units": "L5"
  },
  {
    "id_str": "F200065709",
    "created_at": "7/5/2020 9:54:57 AM",
    "lat": 47.724682,
    "long": -122.347984,
    "timestamp": 1593968097000,
    "description": "Aid Response",
    "address": "13201 Linden Av N",
    "active": false,
    "unitCount": 1,
    "severity": 0,
    "neighborhood": "Broadview/Bitter Lake",
    "neighborhoodGroup": "Northwest",
    "units": "A31"
  },
  {
    "id_str": "F200065708",
    "created_at": "7/5/2020 9:51:58 AM",
    "lat": 47.719526,
    "long": -122.295087,
    "timestamp": 1593967918000,
    "description": "Aid Response",
    "address": "12528 Lake City Way Ne",
    "active": false,
    "unitCount": 2,
    "severity": 0,
    "neighborhood": "Cedar Park/Meadowbrook",
    "neighborhoodGroup": "North",
    "units": "E31 L5"
  },
  {
    "id_str": "F200065699",
    "created_at": "7/5/2020 9:06:48 AM",
    "lat": 47.73104,
    "long": -122.347764,
    "timestamp": 1593965208000,
    "description": "1RED 1 Unit",
    "address": "14100 Linden Av N",
    "active": false,
    "unitCount": 1,
    "severity": 0,
    "neighborhood": "Broadview/Bitter Lake",
    "neighborhoodGroup": "Northwest",
    "units": "E39"
  },
  {
    "id_str": "F200065698",
    "created_at": "7/5/2020 9:05:26 AM",
    "lat": 47.645645,
    "long": -122.309071,
    "timestamp": 1593965126000,
    "description": "Automatic Fire Alarm Resd",
    "address": "2810 West Park Dr E",
    "active": false,
    "unitCount": 1,
    "severity": 0,
    "neighborhood": "Montlake/Portage Bay",
    "neighborhoodGroup": "Northeast",
    "units": "E17"
  },
  {
    "id_str": "F200065697",
    "created_at": "7/5/2020 9:02:23 AM",
    "lat": 47.719421,
    "long": -122.313709,
    "timestamp": 1593964943000,
    "description": "Aid Response",
    "address": "1424 Ne 125th St",
    "active": false,
    "unitCount": 1,
    "severity": 0,
    "neighborhood": "Haller Lake",
    "neighborhoodGroup": "Northwest",
    "units": "L5"
  },
  {
    "id_str": "F200065695",
    "created_at": "7/5/2020 8:47:58 AM",
    "lat": 47.730569,
    "long": -122.347758,
    "timestamp": 1593964078000,
    "description": "Aid Response",
    "address": "14002 Linden Av N",
    "active": false,
    "unitCount": 1,
    "severity": 0,
    "neighborhood": "Broadview/Bitter Lake",
    "neighborhoodGroup": "Northwest",
    "units": "E24"
  },
  {
    "id_str": "F200065694",
    "created_at": "7/5/2020 8:15:05 AM",
    "lat": 47.71049,
    "long": -122.326004,
    "timestamp": 1593962105000,
    "description": "Aid Response",
    "address": "11301 3rd Av Ne",
    "active": false,
    "unitCount": 1,
    "severity": 0,
    "neighborhood": "Northgate/Maple Leaf",
    "neighborhoodGroup": "North",
    "units": "E39"
  },
  {
    "id_str": "F200065693",
    "created_at": "7/5/2020 8:07:20 AM",
    "lat": 47.515534,
    "long": -122.387511,
    "timestamp": 1593961640000,
    "description": "Low Acuity Response",
    "address": "9811 California Ave Sw",
    "active": false,
    "unitCount": 1,
    "severity": 0,
    "neighborhood": "Arbor Heights",
    "neighborhoodGroup": "Southwest",
    "units": "E37"
  },
  {
    "id_str": "F200065691",
    "created_at": "7/5/2020 7:59:35 AM",
    "lat": 47.600878,
    "long": -122.331215,
    "timestamp": 1593961175000,
    "description": "Aid Response",
    "address": "208 S WASHINGTON ST",
    "active": false,
    "unitCount": 2,
    "severity": 0,
    "neighborhood": "Pioneer Square/International District",
    "neighborhoodGroup": "Downtown",
    "units": "A10 E10"
  },
  {
    "id_str": "F200065690",
    "created_at": "7/5/2020 7:50:39 AM",
    "lat": 47.664294,
    "long": -122.34718,
    "timestamp": 1593960639000,
    "description": "Auto Fire Alarm",
    "address": "4902 Aurora Av N",
    "active": false,
    "unitCount": 2,
    "severity": 0,
    "neighborhood": "Wallingford",
    "neighborhoodGroup": "Lake Union",
    "units": "E9 L9"
  },
  {
    "id_str": "F200065689",
    "created_at": "7/5/2020 7:36:05 AM",
    "lat": 47.667428,
    "long": -122.378885,
    "timestamp": 1593959765000,
    "description": "1RED 1 Unit",
    "address": "17th Ave Nw / Barnes Ave Nw",
    "active": false,
    "unitCount": 1,
    "severity": 0,
    "neighborhood": "Ballard",
    "neighborhoodGroup": "Ballard",
    "units": "E18"
  },
  {
    "id_str": "F200065687",
    "created_at": "7/5/2020 7:26:48 AM",
    "lat": 47.55302,
    "long": -122.300079,
    "timestamp": 1593959208000,
    "description": "Aid Response",
    "address": "2520 S Brandon Ct",
    "active": false,
    "unitCount": 1,
    "severity": 0,
    "neighborhood": "Beacon Hill",
    "neighborhoodGroup": "Greater Duwamish",
    "units": "E28"
  },
  {
    "id_str": "F200065682",
    "created_at": "7/5/2020 6:42:47 AM",
    "lat": 47.637705,
    "long": -122.388485,
    "timestamp": 1593956567000,
    "description": "Low Acuity Response",
    "address": "2100 Thorndyke Av W",
    "active": false,
    "unitCount": 1,
    "severity": 0,
    "neighborhood": "Interbay",
    "neighborhoodGroup": "Magnolia/Queen Anne",
    "units": "E41"
  },
  {
    "id_str": "F200065680",
    "created_at": "7/5/2020 6:24:47 AM",
    "lat": 47.683204,
    "long": -122.295891,
    "timestamp": 1593955487000,
    "description": "Automatic Fire Alarm Resd",
    "address": "7518 30th Ave Ne",
    "active": false,
    "unitCount": 1,
    "severity": 0,
    "neighborhood": "Ravenna/Bryant",
    "neighborhoodGroup": "Northeast",
    "units": "E40"
  },
  {
    "id_str": "F200065678",
    "created_at": "7/5/2020 6:10:01 AM",
    "lat": 47.705169,
    "long": -122.343331,
    "timestamp": 1593954601000,
    "description": "Aid Response",
    "address": "10514 Midvale Av N",
    "active": false,
    "unitCount": 1,
    "severity": 0,
    "neighborhood": "Licton Springs",
    "neighborhoodGroup": "Northwest",
    "units": "E24"
  },
  {
    "id_str": "F200065677",
    "created_at": "7/5/2020 6:08:16 AM",
    "lat": 47.601716,
    "long": -122.330265,
    "timestamp": 1593954496000,
    "description": "Aid Response",
    "address": "298 Yesler Way",
    "active": false,
    "unitCount": 1,
    "severity": 0,
    "neighborhood": "Downtown Commercial Core",
    "neighborhoodGroup": "Downtown",
    "units": "A5"
  },
  {
    "id_str": "F200065674",
    "created_at": "7/5/2020 5:57:20 AM",
    "lat": 47.651485,
    "long": -122.351356,
    "timestamp": 1593953840000,
    "description": "Unk Odor",
    "address": "600 N 36th St",
    "active": false,
    "unitCount": 1,
    "severity": 0,
    "neighborhood": "Fremont",
    "neighborhoodGroup": "Lake Union",
    "units": "E9"
  },
  {
    "id_str": "F200065673",
    "created_at": "7/5/2020 5:00:14 AM",
    "lat": 47.601718,
    "long": -122.331581,
    "timestamp": 1593950414000,
    "description": "Aid Response",
    "address": "223 Yesler Way",
    "active": false,
    "unitCount": 1,
    "severity": 0,
    "neighborhood": "Downtown Commercial Core",
    "neighborhoodGroup": "Downtown",
    "units": "A10"
  },
  {
    "id_str": "F200065672",
    "created_at": "7/5/2020 4:42:30 AM",
    "lat": 47.601934,
    "long": -122.285232,
    "timestamp": 1593949350000,
    "description": "1RED 1 Unit",
    "address": "121 Lakeside Av",
    "active": false,
    "unitCount": 1,
    "severity": 0,
    "neighborhood": "Madrona/Leschi",
    "neighborhoodGroup": "Central",
    "units": "E6"
  },
  {
    "id_str": "F200065671",
    "created_at": "7/5/2020 4:22:27 AM",
    "lat": 47.592396,
    "long": -122.334195,
    "timestamp": 1593948147000,
    "description": "Aid Response",
    "address": "1st Ave S / S Royal Brougham Way",
    "active": false,
    "unitCount": 1,
    "severity": 0,
    "neighborhood": "Duwamish/SODO",
    "neighborhoodGroup": "Greater Duwamish",
    "units": "A5"
  },
  {
    "id_str": "F200065667",
    "created_at": "7/5/2020 4:06:55 AM",
    "lat": 47.655813,
    "long": -122.377561,
    "timestamp": 1593947215000,
    "description": "Marine Fire On Water",
    "address": "1511 W Thurman St",
    "active": false,
    "unitCount": 18,
    "severity": 2,
    "neighborhood": "Interbay",
    "neighborhoodGroup": "Magnolia/Queen Anne",
    "units": "A14 A2 AIR10 B4 DEP1 E18 E20 E36 E5 FIREBOAT FRB5 L8 M18 MRN1 PTRL4 R1 SAFT2 STAF10"
  },
  {
    "id_str": "F200065666",
    "created_at": "7/5/2020 3:51:32 AM",
    "lat": 47.710927,
    "long": -122.36493,
    "timestamp": 1593946292000,
    "description": "Medic Response",
    "address": "778 Nw Carkeek Park Rd",
    "active": false,
    "unitCount": 2,
    "severity": 0,
    "neighborhood": "Broadview/Bitter Lake",
    "neighborhoodGroup": "Northwest",
    "units": "E24 M31"
  },
  {
    "id_str": "F200065665",
    "created_at": "7/5/2020 3:41:30 AM",
    "lat": 47.522449,
    "long": -122.264499,
    "timestamp": 1593945690000,
    "description": "Aid Response",
    "address": "9030 Seward Park Av S",
    "active": false,
    "unitCount": 2,
    "severity": 0,
    "neighborhood": "Rainier Beach",
    "neighborhoodGroup": "Southeast",
    "units": "E33 M26"
  },
  {
    "id_str": "F200065664",
    "created_at": "7/5/2020 3:36:43 AM",
    "lat": 47.686071,
    "long": -122.264195,
    "timestamp": 1593945403000,
    "description": "Dumpster Fire",
    "address": "7751 63rd Ave Ne",
    "active": false,
    "unitCount": 2,
    "severity": 0,
    "neighborhood": "Laurelhurst/Sand Point",
    "neighborhoodGroup": "Northeast",
    "units": "E38 MAR5"
  },
  {
    "id_str": "F200065663",
    "created_at": "7/5/2020 3:33:40 AM",
    "lat": 47.662932,
    "long": -122.376119,
    "timestamp": 1593945220000,
    "description": "Unk Odor",
    "address": "15th Ave Nw / Nw Ballard Way",
    "active": false,
    "unitCount": 1,
    "severity": 0,
    "neighborhood": "Ballard",
    "neighborhoodGroup": "Ballard",
    "units": "E18"
  },
  {
    "id_str": "F200065660",
    "created_at": "7/5/2020 3:25:11 AM",
    "lat": 47.571924,
    "long": -122.308253,
    "timestamp": 1593944711000,
    "description": "Medic Response",
    "address": "3601 Beacon Av S",
    "active": false,
    "unitCount": 3,
    "severity": 0,
    "neighborhood": "North Beacon Hill/Jefferson Park",
    "neighborhoodGroup": "Greater Duwamish",
    "units": "A14 E13 M28"
  },
  {
    "id_str": "F200065658",
    "created_at": "7/5/2020 3:20:57 AM",
    "lat": 47.532034,
    "long": -122.333373,
    "timestamp": 1593944457000,
    "description": "AFA4 - Auto Alarm 2 + 1 + 1",
    "address": "130 S Kenyon St",
    "active": false,
    "unitCount": 4,
    "severity": 0,
    "neighborhood": "South Park",
    "neighborhoodGroup": "Greater Duwamish",
    "units": "B7 E11 E26 L13"
  },
  {
    "id_str": "F200065656",
    "created_at": "7/5/2020 3:12:25 AM",
    "lat": 47.529367,
    "long": -122.269988,
    "timestamp": 1593943945000,
    "description": "Rubbish Fire",
    "address": "8340 Rainier Av S",
    "active": false,
    "unitCount": 1,
    "severity": 0,
    "neighborhood": "Rainier Beach",
    "neighborhoodGroup": "Southeast",
    "units": "E33"
  },
  {
    "id_str": "F200065655",
    "created_at": "7/5/2020 3:07:06 AM",
    "lat": 47.615235,
    "long": -122.320799,
    "timestamp": 1593943626000,
    "description": "Aid Response",
    "address": "Broadway / E Pine St",
    "active": false,
    "unitCount": 3,
    "severity": 0,
    "neighborhood": "Capitol Hill",
    "neighborhoodGroup": "East",
    "units": "A25 B2 L10"
  },
  {
    "id_str": "F200065653",
    "created_at": "7/5/2020 3:05:50 AM",
    "lat": 47.622452,
    "long": -122.359338,
    "timestamp": 1593943550000,
    "description": "Aid Response",
    "address": "429 2nd Ave W",
    "active": false,
    "unitCount": 1,
    "severity": 0,
    "neighborhood": "Queen Anne",
    "neighborhoodGroup": "Magnolia/Queen Anne",
    "units": "A2"
  },
  {
    "id_str": "F200065651",
    "created_at": "7/5/2020 3:03:06 AM",
    "lat": 47.675775,
    "long": -122.302579,
    "timestamp": 1593943386000,
    "description": "4RED - 2 + 1 + 1",
    "address": "2315 Ne 65th St",
    "active": false,
    "unitCount": 4,
    "severity": 0,
    "neighborhood": "Ravenna/Bryant",
    "neighborhoodGroup": "Northeast",
    "units": "B6 E16 E38 L9"
  },
  {
    "id_str": "F200065648",
    "created_at": "7/5/2020 2:50:42 AM",
    "lat": 47.561742,
    "long": -122.277913,
    "timestamp": 1593942642000,
    "description": "4RED - 2 + 1 + 1",
    "address": "4401 S Snoqualmie St",
    "active": false,
    "unitCount": 4,
    "severity": 0,
    "neighborhood": "Columbia City",
    "neighborhoodGroup": "Southeast",
    "units": "B5 E28 E30 L12"
  },
  {
    "id_str": "F200065647",
    "created_at": "7/5/2020 2:49:45 AM",
    "lat": 47.71596,
    "long": -122.35013,
    "timestamp": 1593942585000,
    "description": "Aid Response Yellow",
    "address": "715 N 120th St",
    "active": false,
    "unitCount": 1,
    "severity": 0,
    "neighborhood": "Broadview/Bitter Lake",
    "neighborhoodGroup": "Northwest",
    "units": "E24"
  },
  {
    "id_str": "F200065645",
    "created_at": "7/5/2020 2:44:22 AM",
    "lat": 47.542815,
    "long": -122.359563,
    "timestamp": 1593942262000,
    "description": "Aid Response",
    "address": "6709 21st Ave Sw",
    "active": false,
    "unitCount": 1,
    "severity": 0,
    "neighborhood": "Riverview",
    "neighborhoodGroup": "Delridge Neighborhoods",
    "units": "E11"
  },
  {
    "id_str": "F200065641",
    "created_at": "7/5/2020 2:37:11 AM",
    "lat": 47.578931,
    "long": -122.402258,
    "timestamp": 1593941831000,
    "description": "Aid Response",
    "address": "5515 Sw Campbell Pl",
    "active": false,
    "unitCount": 1,
    "severity": 0,
    "neighborhood": "Alki/Admiral",
    "neighborhoodGroup": "Southwest",
    "units": "E29"
  },
  {
    "id_str": "F200065638",
    "created_at": "7/5/2020 2:29:54 AM",
    "lat": 47.513774,
    "long": -122.385963,
    "timestamp": 1593941394000,
    "description": "Low Acuity Response",
    "address": "42nd Ave Sw / Sw 100th St",
    "active": false,
    "unitCount": 1,
    "severity": 0,
    "neighborhood": "Arbor Heights",
    "neighborhoodGroup": "Southwest",
    "units": "E37"
  },
  {
    "id_str": "F200065636",
    "created_at": "7/5/2020 2:27:54 AM",
    "lat": 47.546561,
    "long": -122.387196,
    "timestamp": 1593941274000,
    "description": "Aid Response",
    "address": "6312 California Av Sw",
    "active": false,
    "unitCount": 1,
    "severity": 0,
    "neighborhood": "Fauntleroy/Seaview",
    "neighborhoodGroup": "Southwest",
    "units": "E32"
  },
  {
    "id_str": "F200065635",
    "created_at": "7/5/2020 2:25:35 AM",
    "lat": 47.612941,
    "long": -122.30271,
    "timestamp": 1593941135000,
    "description": "Fire in Building",
    "address": "1400 23rd Av",
    "active": false,
    "unitCount": 19,
    "severity": 2,
    "neighborhood": "Central Area/Squire Park",
    "neighborhoodGroup": "Central",
    "units": "A25 AIR10 B2 B5 DEP1 E10 E2 E25 E34 E5 L1 L10 L3 M10 M44 MAR5 REHAB1 SAFT2 STAF10"
  },
  {
    "id_str": "F200065633",
    "created_at": "7/5/2020 2:23:45 AM",
    "lat": 47.668662,
    "long": -122.370893,
    "timestamp": 1593941025000,
    "description": "Aid Response",
    "address": "1115 Nw Market St",
    "active": false,
    "unitCount": 1,
    "severity": 0,
    "neighborhood": "Ballard",
    "neighborhoodGroup": "Ballard",
    "units": "E18"
  },
  {
    "id_str": "F200065634",
    "created_at": "7/5/2020 2:22:13 AM",
    "lat": 47.705096,
    "long": -122.344695,
    "timestamp": 1593940933000,
    "description": "Aid Response",
    "address": "10507 Aurora Av N",
    "active": false,
    "unitCount": 1,
    "severity": 0,
    "neighborhood": "Licton Springs",
    "neighborhoodGroup": "Northwest",
    "units": "E24"
  },
  {
    "id_str": "F200065632",
    "created_at": "7/5/2020 2:21:16 AM",
    "lat": 47.622088,
    "long": -122.312576,
    "timestamp": 1593940876000,
    "description": "Rescue Elevator",
    "address": "1505 E Harrison St",
    "active": false,
    "unitCount": 1,
    "severity": 0,
    "neighborhood": "Miller Park",
    "neighborhoodGroup": "East",
    "units": "L10"
  },
  {
    "id_str": "F200065631",
    "created_at": "7/5/2020 2:16:14 AM",
    "lat": 47.602769,
    "long": -122.331409,
    "timestamp": 1593940574000,
    "description": "Aid Response",
    "address": "3rd Ave / James St",
    "active": false,
    "unitCount": 1,
    "severity": 0,
    "neighborhood": "Downtown Commercial Core",
    "neighborhoodGroup": "Downtown",
    "units": "A10"
  },
  {
    "id_str": "F200065630",
    "created_at": "7/5/2020 2:12:36 AM",
    "lat": 47.619033,
    "long": -122.318219,
    "timestamp": 1593940356000,
    "description": "1RED 1 Unit",
    "address": "124 11th Av E",
    "active": false,
    "unitCount": 1,
    "severity": 0,
    "neighborhood": "Capitol Hill",
    "neighborhoodGroup": "East",
    "units": "E25"
  },
  {
    "id_str": "F200065628",
    "created_at": "7/5/2020 2:01:26 AM",
    "lat": 47.66324,
    "long": -122.308351,
    "timestamp": 1593939686000,
    "description": "Auto Fire Alarm",
    "address": "4731 18th Av Ne",
    "active": false,
    "unitCount": 2,
    "severity": 0,
    "neighborhood": "University District",
    "neighborhoodGroup": "Northeast",
    "units": "E31 L9"
  },
  {
    "id_str": "F200065625",
    "created_at": "7/5/2020 1:52:32 AM",
    "lat": 47.722281,
    "long": -122.344531,
    "timestamp": 1593939152000,
    "description": "Aid Response",
    "address": "1132 N 128th St",
    "active": false,
    "unitCount": 1,
    "severity": 0,
    "neighborhood": "Haller Lake",
    "neighborhoodGroup": "Northwest",
    "units": "E24"
  },
  {
    "id_str": "F200065624",
    "created_at": "7/5/2020 1:51:42 AM",
    "lat": 47.669421,
    "long": -122.317264,
    "timestamp": 1593939102000,
    "description": "Aid Response",
    "address": "1011 Ne 56th St",
    "active": false,
    "unitCount": 2,
    "severity": 0,
    "neighborhood": "University District",
    "neighborhoodGroup": "Northeast",
    "units": "E17 M17"
  },
  {
    "id_str": "F200065622",
    "created_at": "7/5/2020 1:48:41 AM",
    "lat": 47.50822,
    "long": -122.259437,
    "timestamp": 1593938921000,
    "description": "Brush Fire",
    "address": "59th Ave S / S Prentice St",
    "active": false,
    "unitCount": 1,
    "severity": 0,
    "neighborhood": "Rainier Beach",
    "neighborhoodGroup": "Southeast",
    "units": "E33"
  },
  {
    "id_str": "F200065620",
    "created_at": "7/5/2020 1:40:27 AM",
    "lat": 47.513395,
    "long": -122.381823,
    "timestamp": 1593938427000,
    "description": "Aid Response",
    "address": "10041 39th Ave Sw",
    "active": false,
    "unitCount": 2,
    "severity": 0,
    "neighborhood": "Arbor Heights",
    "neighborhoodGroup": "Southwest",
    "units": "E37 L13"
  },
  {
    "id_str": "F200065616",
    "created_at": "7/5/2020 1:25:38 AM",
    "lat": 47.535497,
    "long": -122.350501,
    "timestamp": 1593937538000,
    "description": "1RED 1 Unit",
    "address": "Sw Webster St / 12th Ave Sw",
    "active": false,
    "unitCount": 1,
    "severity": 0,
    "neighborhood": "Riverview",
    "neighborhoodGroup": "Delridge Neighborhoods",
    "units": "E37"
  },
  {
    "id_str": "F200065615",
    "created_at": "7/5/2020 1:22:57 AM",
    "lat": 47.542815,
    "long": -122.359563,
    "timestamp": 1593937377000,
    "description": "Aid Response",
    "address": "6709 21st Ave Sw",
    "active": false,
    "unitCount": 1,
    "severity": 0,
    "neighborhood": "Riverview",
    "neighborhoodGroup": "Delridge Neighborhoods",
    "units": "E11"
  },
  {
    "id_str": "F200065614",
    "created_at": "7/5/2020 1:17:20 AM",
    "lat": 47.701698,
    "long": -122.362125,
    "timestamp": 1593937040000,
    "description": "Dumpster Fire",
    "address": "9999 Holman Rd Nw",
    "active": false,
    "unitCount": 1,
    "severity": 0,
    "neighborhood": "North Beach/Blue Ridge",
    "neighborhoodGroup": "Ballard",
    "units": "E21"
  },
  {
    "id_str": "F200065610",
    "created_at": "7/5/2020 1:12:37 AM",
    "lat": 47.701513,
    "long": -122.366056,
    "timestamp": 1593936757000,
    "description": "1RED 1 Unit",
    "address": "Nw 100th St / 8th Ave Nw",
    "active": false,
    "unitCount": 1,
    "severity": 0,
    "neighborhood": "North Beach/Blue Ridge",
    "neighborhoodGroup": "Ballard",
    "units": "E35"
  },
  {
    "id_str": "F200065611",
    "created_at": "7/5/2020 1:12:32 AM",
    "lat": 47.607661,
    "long": -122.322073,
    "timestamp": 1593936752000,
    "description": "Medic Response",
    "address": "700 Minor Ave",
    "active": false,
    "unitCount": 2,
    "severity": 0,
    "neighborhood": "First Hill",
    "neighborhoodGroup": "East",
    "units": "A25 M1"
  },
  {
    "id_str": "F200065608",
    "created_at": "7/5/2020 12:57:28 AM",
    "lat": 47.724881,
    "long": -122.347956,
    "timestamp": 1593935848000,
    "description": "Aid Response",
    "address": "13229 Linden Ave N",
    "active": false,
    "unitCount": 1,
    "severity": 0,
    "neighborhood": "Broadview/Bitter Lake",
    "neighborhoodGroup": "Northwest",
    "units": "E24"
  },
  {
    "id_str": "F200065605",
    "created_at": "7/5/2020 12:51:58 AM",
    "lat": 47.518511,
    "long": -122.262802,
    "timestamp": 1593935518000,
    "description": "2RED - 1 + 1",
    "address": "9366 56TH AVE S",
    "active": false,
    "unitCount": 19,
    "severity": 2,
    "neighborhood": "Rainier Beach",
    "neighborhoodGroup": "Southeast",
    "units": "A14 AIR10 B2 B5 DEP1 E13 E26 E27 E28 E30 E33 L12 L3 M28 M44 R1 REHAB1 SAFT2 STAF10"
  },
  {
    "id_str": "F200065599",
    "created_at": "7/5/2020 12:43:11 AM",
    "lat": 47.548796,
    "long": -122.283393,
    "timestamp": 1593934991000,
    "description": "1RED 1 Unit",
    "address": "6000 39th Av S",
    "active": false,
    "unitCount": 1,
    "severity": 0,
    "neighborhood": "Columbia City",
    "neighborhoodGroup": "Southeast",
    "units": "E28"
  },
  {
    "id_str": "F200065591",
    "created_at": "7/5/2020 12:22:42 AM",
    "lat": 47.531542,
    "long": -122.283143,
    "timestamp": 1593933762000,
    "description": "Rubbish Fire",
    "address": "3906 S Kenyon St",
    "active": false,
    "unitCount": 1,
    "severity": 0,
    "neighborhood": "South Beacon Hill/NewHolly",
    "neighborhoodGroup": "Greater Duwamish",
    "units": "E33"
  },
  {
    "id_str": "F200065589",
    "created_at": "7/5/2020 12:17:54 AM",
    "lat": 47.548337,
    "long": -122.355953,
    "timestamp": 1593933474000,
    "description": "Medic Response",
    "address": "5945 17th Ave Sw",
    "active": false,
    "unitCount": 2,
    "severity": 0,
    "neighborhood": "Riverview",
    "neighborhoodGroup": "Delridge Neighborhoods",
    "units": "E11 M32"
  },
  {
    "id_str": "F200065588",
    "created_at": "7/5/2020 12:17:08 AM",
    "lat": 47.574488,
    "long": -122.292274,
    "timestamp": 1593933428000,
    "description": "1RED 1 Unit",
    "address": "3225 Mcclintock Ave S",
    "active": false,
    "unitCount": 1,
    "severity": 0,
    "neighborhood": "Mt. Baker/North Rainier",
    "neighborhoodGroup": "Southeast",
    "units": "E30"
  },
  {
    "id_str": "F200065585",
    "created_at": "7/5/2020 12:12:24 AM",
    "lat": 47.611683,
    "long": -122.308865,
    "timestamp": 1593933144000,
    "description": "Aid Response",
    "address": "1133 18th Av",
    "active": false,
    "unitCount": 1,
    "severity": 0,
    "neighborhood": "Central Area/Squire Park",
    "neighborhoodGroup": "Central",
    "units": "A25"
  },
  {
    "id_str": "F200065583",
    "created_at": "7/5/2020 12:10:54 AM",
    "lat": 47.666691,
    "long": -122.313047,
    "timestamp": 1593933054000,
    "description": "4RED - 2 + 1 + 1",
    "address": "5237 University Way Ne",
    "active": false,
    "unitCount": 5,
    "severity": 1,
    "neighborhood": "University District",
    "neighborhoodGroup": "Northeast",
    "units": "B6 E31 E38 L9 MAR5"
  },
  {
    "id_str": "F200065581",
    "created_at": "7/5/2020 12:09:16 AM",
    "lat": 47.663367,
    "long": -122.31526,
    "timestamp": 1593932956000,
    "description": "Medic Response",
    "address": "4744 12th Av Ne",
    "active": false,
    "unitCount": 3,
    "severity": 0,
    "neighborhood": "University District",
    "neighborhoodGroup": "Northeast",
    "units": "E16 E17 M17"
  },
  {
    "id_str": "F200065580",
    "created_at": "7/5/2020 12:01:06 AM",
    "lat": 47.533661,
    "long": -122.269986,
    "timestamp": 1593932466000,
    "description": "Rubbish Fire",
    "address": "Rainier Ave S / S Holden St",
    "active": false,
    "unitCount": 1,
    "severity": 0,
    "neighborhood": "Seward Park",
    "neighborhoodGroup": "Southeast",
    "units": "E33"
  },
  {
    "id_str": "F200065579",
    "created_at": "7/4/2020 11:59:34 PM",
    "lat": 47.538758,
    "long": -122.281925,
    "timestamp": 1593932374000,
    "description": "1RED 1 Unit",
    "address": "7114 M L King Jr Way S",
    "active": false,
    "unitCount": 1,
    "severity": 0,
    "neighborhood": "South Beacon Hill/NewHolly",
    "neighborhoodGroup": "Greater Duwamish",
    "units": "E28"
  },
  {
    "id_str": "F200065577",
    "created_at": "7/4/2020 11:52:33 PM",
    "lat": 47.580861,
    "long": -122.406158,
    "timestamp": 1593931953000,
    "description": "Aid Response",
    "address": "58th Ave Sw / Alki Ave Sw",
    "active": false,
    "unitCount": 1,
    "severity": 0,
    "neighborhood": "Alki/Admiral",
    "neighborhoodGroup": "Southwest",
    "units": "E36"
  },
  {
    "id_str": "F200065575",
    "created_at": "7/4/2020 11:50:14 PM",
    "lat": 47.579238,
    "long": -122.381275,
    "timestamp": 1593931814000,
    "description": "Low Acuity Response",
    "address": "2708 39th Ave Sw",
    "active": false,
    "unitCount": 1,
    "severity": 0,
    "neighborhood": "West Seattle Junction/Genesee Hill",
    "neighborhoodGroup": "Southwest",
    "units": "E29"
  },
  {
    "id_str": "F200065574",
    "created_at": "7/4/2020 11:47:40 PM",
    "lat": 47.60171,
    "long": -122.326351,
    "timestamp": 1593931660000,
    "description": "Rubbish Fire",
    "address": "6th Ave / Yesler Way",
    "active": false,
    "unitCount": 1,
    "severity": 0,
    "neighborhood": "Pioneer Square/International District",
    "neighborhoodGroup": "Downtown",
    "units": "E10"
  },
  {
    "id_str": "F200065572",
    "created_at": "7/4/2020 11:45:06 PM",
    "lat": 47.672944,
    "long": -122.325482,
    "timestamp": 1593931506000,
    "description": "Aid Response",
    "address": "6115 Latona Ave Ne",
    "active": false,
    "unitCount": 2,
    "severity": 0,
    "neighborhood": "Green Lake",
    "neighborhoodGroup": "Northwest",
    "units": "E16 M17"
  },
  {
    "id_str": "F200065570",
    "created_at": "7/4/2020 11:39:08 PM",
    "lat": 47.540701,
    "long": -122.39646,
    "timestamp": 1593931148000,
    "description": "Rubbish Fire",
    "address": "Lincoln Park Way Sw / Beach Dr Sw",
    "active": false,
    "unitCount": 1,
    "severity": 0,
    "neighborhood": "Fauntleroy/Seaview",
    "neighborhoodGroup": "Southwest",
    "units": "E32"
  },
  {
    "id_str": "F200065569",
    "created_at": "7/4/2020 11:35:43 PM",
    "lat": 47.656848,
    "long": -122.314402,
    "timestamp": 1593930943000,
    "description": "Aid Response",
    "address": "Brooklyn Ave Ne / Ne 41st St",
    "active": false,
    "unitCount": 1,
    "severity": 0,
    "neighborhood": "University District",
    "neighborhoodGroup": "Northeast",
    "units": "E17"
  },
  {
    "id_str": "F200065567",
    "created_at": "7/4/2020 11:34:25 PM",
    "lat": 47.53989,
    "long": -122.387519,
    "timestamp": 1593930865000,
    "description": "Brush Fire",
    "address": "4320 Sw Myrtle St",
    "active": false,
    "unitCount": 1,
    "severity": 0,
    "neighborhood": "Fauntleroy/Seaview",
    "neighborhoodGroup": "Southwest",
    "units": "E37"
  },
  {
    "id_str": "F200065565",
    "created_at": "7/4/2020 11:30:06 PM",
    "lat": 47.610387,
    "long": -122.341198,
    "timestamp": 1593930606000,
    "description": "Auto Fire Alarm",
    "address": "116 Stewart St",
    "active": false,
    "unitCount": 2,
    "severity": 0,
    "neighborhood": "Belltown",
    "neighborhoodGroup": "Downtown",
    "units": "E2 L4"
  },
  {
    "id_str": "F200065564",
    "created_at": "7/4/2020 11:24:48 PM",
    "lat": 47.668667,
    "long": -122.376214,
    "timestamp": 1593930288000,
    "description": "Aid Response",
    "address": "NW MARKET ST / 15TH AVE NW",
    "active": false,
    "unitCount": 1,
    "severity": 0,
    "neighborhood": "Ballard",
    "neighborhoodGroup": "Ballard",
    "units": "L8"
  },
  {
    "id_str": "F200065562",
    "created_at": "7/4/2020 11:23:34 PM",
    "lat": 47.682124,
    "long": -122.263668,
    "timestamp": 1593930214000,
    "description": "1RED 1 Unit",
    "address": "7400 Sand Point Way Ne",
    "active": false,
    "unitCount": 2,
    "severity": 0,
    "neighborhood": "Laurelhurst/Sand Point",
    "neighborhoodGroup": "Northeast",
    "units": "E38 MAR5"
  },
  {
    "id_str": "F200065561",
    "created_at": "7/4/2020 11:21:21 PM",
    "lat": 47.692792,
    "long": -122.360997,
    "timestamp": 1593930081000,
    "description": "Aid Response",
    "address": "338 Nw 88th St",
    "active": false,
    "unitCount": 1,
    "severity": 0,
    "neighborhood": "Greenwood/Phinney Ridge",
    "neighborhoodGroup": "Northwest",
    "units": "E21"
  },
  {
    "id_str": "F200065559",
    "created_at": "7/4/2020 11:19:41 PM",
    "lat": 47.616626,
    "long": -122.337719,
    "timestamp": 1593929981000,
    "description": "Aid Response",
    "address": "820 Lenora St",
    "active": false,
    "unitCount": 1,
    "severity": 0,
    "neighborhood": "Cascade/Eastlake",
    "neighborhoodGroup": "Lake Union",
    "units": "A2"
  },
  {
    "id_str": "F200065560",
    "created_at": "7/4/2020 11:19:31 PM",
    "lat": 47.662004,
    "long": -122.320724,
    "timestamp": 1593929971000,
    "description": "Aid Response",
    "address": "4544 7th Av Ne",
    "active": false,
    "unitCount": 1,
    "severity": 0,
    "neighborhood": "Wallingford",
    "neighborhoodGroup": "Lake Union",
    "units": "E31"
  },
  {
    "id_str": "F200065557",
    "created_at": "7/4/2020 11:16:31 PM",
    "lat": 47.553037,
    "long": -122.355947,
    "timestamp": 1593929791000,
    "description": "Aid Response",
    "address": "5455 17th Ave Sw",
    "active": false,
    "unitCount": 1,
    "severity": 0,
    "neighborhood": "Riverview",
    "neighborhoodGroup": "Delridge Neighborhoods",
    "units": "E36"
  },
  {
    "id_str": "F200065558",
    "created_at": "7/4/2020 11:16:18 PM",
    "lat": 47.598322,
    "long": -122.3134,
    "timestamp": 1593929778000,
    "description": "Aid Response",
    "address": "501 Rainier Av S",
    "active": false,
    "unitCount": 1,
    "severity": 0,
    "neighborhood": "Judkins Park",
    "neighborhoodGroup": "Central",
    "units": "E6"
  },
  {
    "id_str": "F200065556",
    "created_at": "7/4/2020 11:14:50 PM",
    "lat": 47.675964,
    "long": -122.385354,
    "timestamp": 1593929690000,
    "description": "Aid Response",
    "address": "23RD AVE NW / NW 65TH ST",
    "active": false,
    "unitCount": 1,
    "severity": 0,
    "neighborhood": "Whittier Heights",
    "neighborhoodGroup": "Ballard",
    "units": "E18"
  },
  {
    "id_str": "F200065555",
    "created_at": "7/4/2020 11:13:53 PM",
    "lat": 47.579509,
    "long": -122.409331,
    "timestamp": 1593929633000,
    "description": "Aid Response",
    "address": "Alki Ave Sw / 60th Ave Sw",
    "active": false,
    "unitCount": 1,
    "severity": 0,
    "neighborhood": "Alki/Admiral",
    "neighborhoodGroup": "Southwest",
    "units": "E29"
  },
  {
    "id_str": "F200065552",
    "created_at": "7/4/2020 11:12:41 PM",
    "lat": 47.569313,
    "long": -122.30733,
    "timestamp": 1593929561000,
    "description": "Medic Response",
    "address": "3801 BEACON AV S",
    "active": false,
    "unitCount": 2,
    "severity": 0,
    "neighborhood": "North Beacon Hill/Jefferson Park",
    "neighborhoodGroup": "Greater Duwamish",
    "units": "E13 M10"
  },
  {
    "id_str": "F200065546",
    "created_at": "7/4/2020 11:00:52 PM",
    "lat": 47.511721,
    "long": -122.373442,
    "timestamp": 1593928852000,
    "description": "Low Acuity Response",
    "address": "Sw 102nd St / 33rd Ave Sw",
    "active": false,
    "unitCount": 1,
    "severity": 0,
    "neighborhood": "Arbor Heights",
    "neighborhoodGroup": "Southwest",
    "units": "E37"
  },
  {
    "id_str": "F200065543",
    "created_at": "7/4/2020 10:55:30 PM",
    "lat": 47.581813,
    "long": -122.403964,
    "timestamp": 1593928530000,
    "description": "MVI - Motor Vehicle Incident",
    "address": "Alki Ave Sw / 56th Ave Sw",
    "active": false,
    "unitCount": 2,
    "severity": 0,
    "neighborhood": "Alki/Admiral",
    "neighborhoodGroup": "Southwest",
    "units": "E29 E36"
  },
  {
    "id_str": "F200065541",
    "created_at": "7/4/2020 10:54:36 PM",
    "lat": 47.526442,
    "long": -122.342926,
    "timestamp": 1593928476000,
    "description": "Car Fire",
    "address": "6TH AVE SW / SW CLOVERDALE ST",
    "active": false,
    "unitCount": 1,
    "severity": 0,
    "neighborhood": "Highland Park",
    "neighborhoodGroup": "Delridge Neighborhoods",
    "units": "E11"
  },
  {
    "id_str": "F200065539",
    "created_at": "7/4/2020 10:46:53 PM",
    "lat": 47.575113,
    "long": -122.317384,
    "timestamp": 1593928013000,
    "description": "Brush Fire",
    "address": "12th Ave S / S Hanford St",
    "active": false,
    "unitCount": 2,
    "severity": 0,
    "neighborhood": "Duwamish/SODO",
    "neighborhoodGroup": "Greater Duwamish",
    "units": "E13 SQ40"
  },
  {
    "id_str": "F200065537",
    "created_at": "7/4/2020 10:43:30 PM",
    "lat": 47.546057,
    "long": -122.285631,
    "timestamp": 1593927810000,
    "description": "MVI - Motor Vehicle Incident",
    "address": "M L King Jr Way S / S Graham St",
    "active": false,
    "unitCount": 1,
    "severity": 0,
    "neighborhood": "Beacon Hill",
    "neighborhoodGroup": "Greater Duwamish",
    "units": "L12"
  },
  {
    "id_str": "F200065536",
    "created_at": "7/4/2020 10:41:40 PM",
    "lat": 47.716877,
    "long": -122.296653,
    "timestamp": 1593927700000,
    "description": "Brush Fire",
    "address": "30th Ave Ne / Lake City Way Ne",
    "active": false,
    "unitCount": 1,
    "severity": 0,
    "neighborhood": "Olympic Hills/Victory Heights",
    "neighborhoodGroup": "North",
    "units": "E39"
  },
  {
    "id_str": "F200065535",
    "created_at": "7/4/2020 10:40:02 PM",
    "lat": 47.607661,
    "long": -122.322073,
    "timestamp": 1593927602000,
    "description": "Rubbish Fire",
    "address": "Minor Ave / Cherry St",
    "active": false,
    "unitCount": 1,
    "severity": 0,
    "neighborhood": "First Hill",
    "neighborhoodGroup": "East",
    "units": "E25"
  },
  {
    "id_str": "F200065534",
    "created_at": "7/4/2020 10:39:35 PM",
    "lat": 47.538889,
    "long": -122.280616,
    "timestamp": 1593927575000,
    "description": "1RED 1 Unit",
    "address": "42nd Ave S / S Myrtle St",
    "active": false,
    "unitCount": 1,
    "severity": 0,
    "neighborhood": "Columbia City",
    "neighborhoodGroup": "Southeast",
    "units": "E28"
  },
  {
    "id_str": "F200065533",
    "created_at": "7/4/2020 10:38:04 PM",
    "lat": 47.694683,
    "long": -122.379198,
    "timestamp": 1593927484000,
    "description": "4RED - 2 + 1 + 1",
    "address": "1590 Nw 90th St",
    "active": false,
    "unitCount": 5,
    "severity": 1,
    "neighborhood": "North Beach/Blue Ridge",
    "neighborhoodGroup": "Ballard",
    "units": "B4 E21 E35 L8 MAR5"
  },
  {
    "id_str": "F200065532",
    "created_at": "7/4/2020 10:34:30 PM",
    "lat": 47.52331,
    "long": -122.272754,
    "timestamp": 1593927270000,
    "description": "Aid Response",
    "address": "4811 S Henderson St",
    "active": false,
    "unitCount": 2,
    "severity": 0,
    "neighborhood": "Rainier Beach",
    "neighborhoodGroup": "Southeast",
    "units": "E33 L11"
  },
  {
    "id_str": "F200065531",
    "created_at": "7/4/2020 10:33:45 PM",
    "lat": 47.648964,
    "long": -122.364843,
    "timestamp": 1593927225000,
    "description": "Auto Fire Alarm",
    "address": "3231 6th Av W",
    "active": false,
    "unitCount": 2,
    "severity": 0,
    "neighborhood": "Queen Anne",
    "neighborhoodGroup": "Magnolia/Queen Anne",
    "units": "E20 L6"
  },
  {
    "id_str": "F200065529",
    "created_at": "7/4/2020 10:32:58 PM",
    "lat": 47.613497,
    "long": -122.346355,
    "timestamp": 1593927178000,
    "description": "Aid Response",
    "address": "118 Bell St",
    "active": false,
    "unitCount": 1,
    "severity": 0,
    "neighborhood": "Belltown",
    "neighborhoodGroup": "Downtown",
    "units": "A2"
  },
  {
    "id_str": "F200065525",
    "created_at": "7/4/2020 10:27:31 PM",
    "lat": 47.594222,
    "long": -122.389139,
    "timestamp": 1593926851000,
    "description": "Rescue Extrication",
    "address": "1238 Alki Av Sw",
    "active": false,
    "unitCount": 11,
    "severity": 2,
    "units": "A14 A5 B5 B7 E29 E36 L11 M32 M44 R1 SAFT2"
  },
  {
    "id_str": "F200065522",
    "created_at": "7/4/2020 10:24:21 PM",
    "lat": 47.688549,
    "long": -122.317315,
    "timestamp": 1593926661000,
    "description": "Brush Fire",
    "address": "1020 Ne 82nd St",
    "active": false,
    "unitCount": 1,
    "severity": 0,
    "neighborhood": "Northgate/Maple Leaf",
    "neighborhoodGroup": "North",
    "units": "E16"
  },
  {
    "id_str": "F200065519",
    "created_at": "7/4/2020 10:21:33 PM",
    "lat": 47.599184,
    "long": -122.319639,
    "timestamp": 1593926493000,
    "description": "Brush Fire",
    "address": "10th Ave S / S Jackson St",
    "active": false,
    "unitCount": 1,
    "severity": 0,
    "neighborhood": "Pioneer Square/International District",
    "neighborhoodGroup": "Downtown",
    "units": "E10"
  },
  {
    "id_str": "F200065518",
    "created_at": "7/4/2020 10:20:08 PM",
    "lat": 47.529963,
    "long": -122.34167,
    "timestamp": 1593926408000,
    "description": "Brush Fire",
    "address": "8121 5th Ave Sw",
    "active": false,
    "unitCount": 2,
    "severity": 0,
    "neighborhood": "Highland Park",
    "neighborhoodGroup": "Delridge Neighborhoods",
    "units": "E11 SQ40"
  },
  {
    "id_str": "F200065514",
    "created_at": "7/4/2020 10:13:46 PM",
    "lat": 47.580778,
    "long": -122.314714,
    "timestamp": 1593926026000,
    "description": "Aid Response",
    "address": "2531 14th Ave S",
    "active": false,
    "unitCount": 1,
    "severity": 0,
    "neighborhood": "North Beacon Hill/Jefferson Park",
    "neighborhoodGroup": "Greater Duwamish",
    "units": "E13"
  },
  {
    "id_str": "F200065511",
    "created_at": "7/4/2020 10:11:30 PM",
    "lat": 47.519055,
    "long": -122.275822,
    "timestamp": 1593925890000,
    "description": "Brush Fire",
    "address": "4512 S Fletcher St",
    "active": false,
    "unitCount": 2,
    "severity": 0,
    "neighborhood": "South Beacon Hill/NewHolly",
    "neighborhoodGroup": "Greater Duwamish",
    "units": "E27 SQ40"
  },
  {
    "id_str": "F200065510",
    "created_at": "7/4/2020 10:10:10 PM",
    "lat": 47.551781,
    "long": -122.346251,
    "timestamp": 1593925810000,
    "description": "1RED 1 Unit",
    "address": "5615 West Marginal Way Sw",
    "active": false,
    "unitCount": 1,
    "severity": 0,
    "neighborhood": "Riverview",
    "neighborhoodGroup": "Delridge Neighborhoods",
    "units": "E36"
  },
  {
    "id_str": "F200065507",
    "created_at": "7/4/2020 10:08:35 PM",
    "lat": 47.514445,
    "long": -122.259378,
    "timestamp": 1593925715000,
    "description": "Brush Fire",
    "address": "9732 59th Ave S",
    "active": false,
    "unitCount": 2,
    "severity": 0,
    "neighborhood": "Rainier Beach",
    "neighborhoodGroup": "Southeast",
    "units": "E33 SQ40"
  },
  {
    "id_str": "F200065505",
    "created_at": "7/4/2020 10:06:01 PM",
    "lat": 47.61945,
    "long": -122.360983,
    "timestamp": 1593925561000,
    "description": "Aid Response",
    "address": "Elliott Bay Trl / W Thomas St Overpass",
    "active": false,
    "unitCount": 1,
    "severity": 0,
    "neighborhood": "Belltown",
    "neighborhoodGroup": "Downtown",
    "units": "A2"
  },
  {
    "id_str": "F200065502",
    "created_at": "7/4/2020 10:04:31 PM",
    "lat": 47.582432,
    "long": -122.402601,
    "timestamp": 1593925471000,
    "description": "Illegal Burn",
    "address": "55th Ave Sw / Alki Ave Sw",
    "active": false,
    "unitCount": 1,
    "severity": 0,
    "neighborhood": "West Seattle Junction/Genesee Hill",
    "neighborhoodGroup": "Southwest",
    "units": "E29"
  },
  {
    "id_str": "F200065501",
    "created_at": "7/4/2020 10:01:51 PM",
    "lat": 47.708593,
    "long": -122.323047,
    "timestamp": 1593925311000,
    "description": "Unk Odor",
    "address": "525 Ne Northgate Way",
    "active": false,
    "unitCount": 1,
    "severity": 0,
    "neighborhood": "Northgate/Maple Leaf",
    "neighborhoodGroup": "North",
    "units": "E39"
  },
  {
    "id_str": "F200065500",
    "created_at": "7/4/2020 9:59:01 PM",
    "lat": 47.61842,
    "long": -122.30365,
    "timestamp": 1593925141000,
    "description": "Aid Response",
    "address": "2200 E Madison St",
    "active": false,
    "unitCount": 1,
    "severity": 0,
    "neighborhood": "Central Area/Squire Park",
    "neighborhoodGroup": "Central",
    "units": "E34"
  },
  {
    "id_str": "F200065496",
    "created_at": "7/4/2020 9:53:34 PM",
    "lat": 47.617563,
    "long": -122.322168,
    "timestamp": 1593924814000,
    "description": "Rubbish Fire",
    "address": "Harvard Ave / E Howell St",
    "active": false,
    "unitCount": 1,
    "severity": 0,
    "neighborhood": "Capitol Hill",
    "neighborhoodGroup": "East",
    "units": "E25"
  },
  {
    "id_str": "F200065497",
    "created_at": "7/4/2020 9:53:05 PM",
    "lat": 47.533662,
    "long": -122.272314,
    "timestamp": 1593924785000,
    "description": "Medic Response",
    "address": "4837 S Holden St",
    "active": false,
    "unitCount": 2,
    "severity": 0,
    "neighborhood": "Seward Park",
    "neighborhoodGroup": "Southeast",
    "units": "E28 M26"
  },
  {
    "id_str": "F200065494",
    "created_at": "7/4/2020 9:50:01 PM",
    "lat": 47.615231,
    "long": -122.323415,
    "timestamp": 1593924601000,
    "description": "Illegal Burn",
    "address": "700 E Pine St",
    "active": false,
    "unitCount": 1,
    "severity": 0,
    "neighborhood": "Capitol Hill",
    "neighborhoodGroup": "East",
    "units": "E25"
  },
  {
    "id_str": "F200065491",
    "created_at": "7/4/2020 9:46:02 PM",
    "lat": 47.601674,
    "long": -122.306352,
    "timestamp": 1593924362000,
    "description": "Car Fire",
    "address": "20th Ave / E Yesler Way",
    "active": false,
    "unitCount": 1,
    "severity": 0,
    "neighborhood": "Central Area/Squire Park",
    "neighborhoodGroup": "Central",
    "units": "E6"
  },
  {
    "id_str": "F200065487",
    "created_at": "7/4/2020 9:43:17 PM",
    "lat": 47.616171,
    "long": -122.331417,
    "timestamp": 1593924197000,
    "description": "Aid Response",
    "address": "Boren Ave / Howell St",
    "active": false,
    "unitCount": 1,
    "severity": 0,
    "neighborhood": "Cascade/Eastlake",
    "neighborhoodGroup": "Lake Union",
    "units": "A25"
  },
  {
    "id_str": "F200065483",
    "created_at": "7/4/2020 9:36:12 PM",
    "lat": 47.559283,
    "long": -122.382854,
    "timestamp": 1593923772000,
    "description": "1RED 1 Unit",
    "address": "40th Ave Sw / Sw Edmunds St",
    "active": false,
    "unitCount": 1,
    "severity": 0,
    "neighborhood": "West Seattle Junction/Genesee Hill",
    "neighborhoodGroup": "Southwest",
    "units": "E32"
  },
  {
    "id_str": "F200065482",
    "created_at": "7/4/2020 9:34:25 PM",
    "lat": 47.663269,
    "long": -122.284775,
    "timestamp": 1593923665000,
    "description": "Aid Response",
    "address": "4740 40th Av Ne",
    "active": false,
    "unitCount": 1,
    "severity": 0,
    "neighborhood": "Laurelhurst/Sand Point",
    "neighborhoodGroup": "Northeast",
    "units": "E38"
  },
  {
    "id_str": "F200065477",
    "created_at": "7/4/2020 9:25:48 PM",
    "lat": 47.620664,
    "long": -122.360928,
    "timestamp": 1593923148000,
    "description": "Aid Response",
    "address": "Elliott Ave W / W Thomas St",
    "active": false,
    "unitCount": 1,
    "severity": 0,
    "neighborhood": "Queen Anne",
    "neighborhoodGroup": "Magnolia/Queen Anne",
    "units": "E2"
  },
  {
    "id_str": "F200065475",
    "created_at": "7/4/2020 9:24:17 PM",
    "lat": 47.615877,
    "long": -122.35052,
    "timestamp": 1593923057000,
    "description": "Medic Response",
    "address": "111 Cedar St",
    "active": false,
    "unitCount": 2,
    "severity": 0,
    "neighborhood": "Belltown",
    "neighborhoodGroup": "Downtown",
    "units": "A2 M1"
  },
  {
    "id_str": "F200065474",
    "created_at": "7/4/2020 9:20:37 PM",
    "lat": 47.723218,
    "long": -122.348195,
    "timestamp": 1593922837000,
    "description": "Brush Fire",
    "address": "13000 Linden Av N",
    "active": false,
    "unitCount": 2,
    "severity": 0,
    "neighborhood": "Broadview/Bitter Lake",
    "neighborhoodGroup": "Northwest",
    "units": "E24 SQ40"
  },
  {
    "id_str": "F200065473",
    "created_at": "7/4/2020 9:15:50 PM",
    "lat": 47.688389,
    "long": -122.344511,
    "timestamp": 1593922550000,
    "description": "Aid Response",
    "address": "8201 Aurora Av N",
    "active": false,
    "unitCount": 1,
    "severity": 0,
    "neighborhood": "Green Lake",
    "neighborhoodGroup": "Northwest",
    "units": "E21"
  },
  {
    "id_str": "F200065468",
    "created_at": "7/4/2020 8:59:28 PM",
    "lat": 47.613329,
    "long": -122.340484,
    "timestamp": 1593921568000,
    "description": "Aid Response",
    "address": "2035 4th Av",
    "active": false,
    "unitCount": 1,
    "severity": 0,
    "neighborhood": "Cascade/Eastlake",
    "neighborhoodGroup": "Lake Union",
    "units": "A2"
  },
  {
    "id_str": "F200065467",
    "created_at": "7/4/2020 8:57:57 PM",
    "lat": 47.531685,
    "long": -122.288172,
    "timestamp": 1593921477000,
    "description": "Medic Response",
    "address": "7900 Beacon Ave S",
    "active": false,
    "unitCount": 2,
    "severity": 0,
    "neighborhood": "South Beacon Hill/NewHolly",
    "neighborhoodGroup": "Greater Duwamish",
    "units": "E28 M28"
  },
  {
    "id_str": "F200065466",
    "created_at": "7/4/2020 8:57:08 PM",
    "lat": 47.670976,
    "long": -122.368598,
    "timestamp": 1593921428000,
    "description": "Aid Response",
    "address": "5812 9th Ave Nw",
    "active": false,
    "unitCount": 1,
    "severity": 0,
    "neighborhood": "Ballard",
    "neighborhoodGroup": "Ballard",
    "units": "E18"
  },
  {
    "id_str": "F200065464",
    "created_at": "7/4/2020 8:50:21 PM",
    "lat": 47.502755,
    "long": -122.244765,
    "timestamp": 1593921021000,
    "description": "Aid Response",
    "address": "11221 Crestwood Dr S",
    "active": false,
    "unitCount": 1,
    "severity": 0,
    "units": "E33"
  },
  {
    "id_str": "F200065462",
    "created_at": "7/4/2020 8:38:53 PM",
    "lat": 47.618497,
    "long": -122.327854,
    "timestamp": 1593920333000,
    "description": "Medic Response",
    "address": "100 Melrose Av E",
    "active": false,
    "unitCount": 2,
    "severity": 0,
    "neighborhood": "Capitol Hill",
    "neighborhoodGroup": "East",
    "units": "A25 M10"
  },
  {
    "id_str": "F200065461",
    "created_at": "7/4/2020 8:34:53 PM",
    "lat": 47.615602,
    "long": -122.332488,
    "timestamp": 1593920093000,
    "description": "Auto Fire Alarm",
    "address": "1815 Terry Av",
    "active": false,
    "unitCount": 2,
    "severity": 0,
    "neighborhood": "Cascade/Eastlake",
    "neighborhoodGroup": "Lake Union",
    "units": "E25 L10"
  },
  {
    "id_str": "F200065459",
    "created_at": "7/4/2020 8:27:07 PM",
    "lat": 47.684754,
    "long": -122.33936,
    "timestamp": 1593919627000,
    "description": "Advised Incident",
    "address": "N 77th St / West Green Lake Dr N",
    "active": false,
    "unitCount": 1,
    "severity": 0,
    "neighborhood": "Green Lake",
    "neighborhoodGroup": "Northwest",
    "units": "E21"
  },
  {
    "id_str": "F200065458",
    "created_at": "7/4/2020 8:26:31 PM",
    "lat": 47.680293,
    "long": -122.325826,
    "timestamp": 1593919591000,
    "description": "Medic Response, 7 per Rule",
    "address": "7900 EAST GREEN LAKE DR N",
    "active": false,
    "unitCount": 3,
    "severity": 0,
    "neighborhood": "Green Lake",
    "neighborhoodGroup": "Northwest",
    "units": "E16 E31 M17"
  },
  {
    "id_str": "F200065456",
    "created_at": "7/4/2020 8:14:17 PM",
    "lat": 47.542265,
    "long": -122.280838,
    "timestamp": 1593918857000,
    "description": "Brush Fire",
    "address": "6719 42nd Ave S",
    "active": false,
    "unitCount": 1,
    "severity": 0,
    "neighborhood": "Columbia City",
    "neighborhoodGroup": "Southeast",
    "units": "E28"
  },
  {
    "id_str": "F200065455",
    "created_at": "7/4/2020 8:12:28 PM",
    "lat": 47.674551,
    "long": -122.379339,
    "timestamp": 1593918748000,
    "description": "Automatic Fire Alarm Resd",
    "address": "1743 Nw 63rd St",
    "active": false,
    "unitCount": 1,
    "severity": 0,
    "neighborhood": "Whittier Heights",
    "neighborhoodGroup": "Ballard",
    "units": "E18"
  },
  {
    "id_str": "F200065454",
    "created_at": "7/4/2020 8:00:05 PM",
    "lat": 47.579298,
    "long": -122.391961,
    "timestamp": 1593918005000,
    "description": "Medic Response",
    "address": "2709 47th Ave Sw",
    "active": false,
    "unitCount": 2,
    "severity": 0,
    "neighborhood": "West Seattle Junction/Genesee Hill",
    "neighborhoodGroup": "Southwest",
    "units": "E29 M32"
  },
  {
    "id_str": "F200065453",
    "created_at": "7/4/2020 7:58:50 PM",
    "lat": 47.537299,
    "long": -122.286862,
    "timestamp": 1593917930000,
    "description": "1RED 1 Unit",
    "address": "Holly Park Dr S / S Myrtle Pl",
    "active": false,
    "unitCount": 1,
    "severity": 0,
    "neighborhood": "South Beacon Hill/NewHolly",
    "neighborhoodGroup": "Greater Duwamish",
    "units": "E28"
  },
  {
    "id_str": "F200065450",
    "created_at": "7/4/2020 7:53:38 PM",
    "lat": 47.54337,
    "long": -122.273431,
    "timestamp": 1593917618000,
    "description": "Aid Response",
    "address": "6600 Rainier Av S",
    "active": false,
    "unitCount": 1,
    "severity": 0,
    "neighborhood": "Seward Park",
    "neighborhoodGroup": "Southeast",
    "units": "E28"
  },
  {
    "id_str": "F200065442",
    "created_at": "7/4/2020 7:33:50 PM",
    "lat": 47.560188,
    "long": -122.317134,
    "timestamp": 1593916430000,
    "description": "Brush Fire",
    "address": "Corson Ave S / S Angeline St",
    "active": false,
    "unitCount": 2,
    "severity": 0,
    "neighborhood": "Beacon Hill",
    "neighborhoodGroup": "Greater Duwamish",
    "units": "E27 SQ40"
  },
  {
    "id_str": "F200065438",
    "created_at": "7/4/2020 7:20:25 PM",
    "lat": 47.557232,
    "long": -122.384129,
    "timestamp": 1593915625000,
    "description": "Aid Response",
    "address": "5027 41st Ave Sw",
    "active": false,
    "unitCount": 1,
    "severity": 0,
    "neighborhood": "West Seattle Junction/Genesee Hill",
    "neighborhoodGroup": "Southwest",
    "units": "E13"
  },
  {
    "id_str": "F200065437",
    "created_at": "7/4/2020 7:16:25 PM",
    "lat": 47.615007,
    "long": -122.337781,
    "timestamp": 1593915385000,
    "description": "Aid Response",
    "address": "2008 Westlake Av",
    "active": false,
    "unitCount": 1,
    "severity": 0,
    "neighborhood": "Cascade/Eastlake",
    "neighborhoodGroup": "Lake Union",
    "units": "A4"
  },
  {
    "id_str": "F200065435",
    "created_at": "7/4/2020 7:12:03 PM",
    "lat": 47.613001,
    "long": -122.330025,
    "timestamp": 1593915123000,
    "description": "Low Acuity Response",
    "address": "Hubbell Pl / Pike St",
    "active": false,
    "unitCount": 1,
    "severity": 0,
    "neighborhood": "First Hill",
    "neighborhoodGroup": "East",
    "units": "L4"
  },
  {
    "id_str": "F200065433",
    "created_at": "7/4/2020 7:03:42 PM",
    "lat": 47.728338,
    "long": -122.297803,
    "timestamp": 1593914622000,
    "description": "Automatic Fire Alarm Resd",
    "address": "13744 28th Ave Ne",
    "active": false,
    "unitCount": 2,
    "severity": 0,
    "neighborhood": "Olympic Hills/Victory Heights",
    "neighborhoodGroup": "North",
    "units": "E39 L5"
  },
  {
    "id_str": "F200065430",
    "created_at": "7/4/2020 7:01:52 PM",
    "lat": 47.643158,
    "long": -122.303055,
    "timestamp": 1593914512000,
    "description": "Aid Response",
    "address": "E Roanoke St / East Montlake Pl E",
    "active": false,
    "unitCount": 1,
    "severity": 0,
    "neighborhood": "Montlake/Portage Bay",
    "neighborhoodGroup": "Northeast",
    "units": "E22"
  },
  {
    "id_str": "F200065429",
    "created_at": "7/4/2020 7:01:34 PM",
    "lat": 47.661486,
    "long": -122.357789,
    "timestamp": 1593914494000,
    "description": "Aid Response",
    "address": "4500 1st Av Nw",
    "active": false,
    "unitCount": 1,
    "severity": 0,
    "neighborhood": "Fremont",
    "neighborhoodGroup": "Lake Union",
    "units": "E9"
  },
  {
    "id_str": "F200065428",
    "created_at": "7/4/2020 6:59:15 PM",
    "lat": 47.600843,
    "long": -122.330271,
    "timestamp": 1593914355000,
    "description": "Aid Response",
    "address": "204 3rd Av S",
    "active": false,
    "unitCount": 1,
    "severity": 0,
    "neighborhood": "Pioneer Square/International District",
    "neighborhoodGroup": "Downtown",
    "units": "A10"
  },
  {
    "id_str": "F200065426",
    "created_at": "7/4/2020 6:56:13 PM",
    "lat": 47.610972,
    "long": -122.340465,
    "timestamp": 1593914173000,
    "description": "Auto Fire Alarm",
    "address": "1902 2nd Av",
    "active": false,
    "unitCount": 2,
    "severity": 0,
    "neighborhood": "Belltown",
    "neighborhoodGroup": "Downtown",
    "units": "E2 L4"
  },
  {
    "id_str": "F200065419",
    "created_at": "7/4/2020 6:51:07 PM",
    "lat": 47.722899,
    "long": -122.293194,
    "timestamp": 1593913867000,
    "description": "Low Acuity Response",
    "address": "13000 Lake City Way Ne",
    "active": false,
    "unitCount": 1,
    "severity": 0,
    "neighborhood": "Cedar Park/Meadowbrook",
    "neighborhoodGroup": "North",
    "units": "E39"
  },
  {
    "id_str": "F200065418",
    "created_at": "7/4/2020 6:47:15 PM",
    "lat": 47.625933,
    "long": -122.301024,
    "timestamp": 1593913635000,
    "description": "Aid Response",
    "address": "2409 E Valley St",
    "active": false,
    "unitCount": 1,
    "severity": 0,
    "neighborhood": "Miller Park",
    "neighborhoodGroup": "East",
    "units": "E34"
  },
  {
    "id_str": "F200065416",
    "created_at": "7/4/2020 6:43:09 PM",
    "lat": 47.610396,
    "long": -122.327328,
    "timestamp": 1593913389000,
    "description": "Aid Response",
    "address": "1020 Seneca St",
    "active": false,
    "unitCount": 1,
    "severity": 0,
    "neighborhood": "First Hill",
    "neighborhoodGroup": "East",
    "units": "A25"
  },
  {
    "id_str": "F200065415",
    "created_at": "7/4/2020 6:40:48 PM",
    "lat": 47.690203,
    "long": -122.290714,
    "timestamp": 1593913248000,
    "description": "Aid Response",
    "address": "Ne 85th St / 35th Ave Ne",
    "active": false,
    "unitCount": 1,
    "severity": 0,
    "neighborhood": "Wedgwood/View Ridge",
    "neighborhoodGroup": "Northeast",
    "units": "E40"
  },
  {
    "id_str": "F200065414",
    "created_at": "7/4/2020 6:39:47 PM",
    "lat": 47.531589,
    "long": -122.266026,
    "timestamp": 1593913187000,
    "description": "Investigate Out Of Service",
    "address": "5320 S Kenyon St",
    "active": false,
    "unitCount": 1,
    "severity": 0,
    "neighborhood": "Rainier Beach",
    "neighborhoodGroup": "Southeast",
    "units": "E33"
  },
  {
    "id_str": "F200065413",
    "created_at": "7/4/2020 6:38:45 PM",
    "lat": 47.61001,
    "long": -122.296048,
    "timestamp": 1593913125000,
    "description": "Illegal Burn",
    "address": "2814 E Marion St",
    "active": false,
    "unitCount": 1,
    "severity": 0,
    "neighborhood": "Central Area/Squire Park",
    "neighborhoodGroup": "Central",
    "units": "E25"
  },
  {
    "id_str": "F200065412",
    "created_at": "7/4/2020 6:37:33 PM",
    "lat": 47.538889,
    "long": -122.393088,
    "timestamp": 1593913053000,
    "description": "Aid Response",
    "address": "7124 47th Av Sw",
    "active": false,
    "unitCount": 1,
    "severity": 0,
    "neighborhood": "Fauntleroy/Seaview",
    "neighborhoodGroup": "Southwest",
    "units": "E26"
  },
  {
    "id_str": "F200065411",
    "created_at": "7/4/2020 6:37:31 PM",
    "lat": 47.703014,
    "long": -122.355431,
    "timestamp": 1593913051000,
    "description": "Aid Response",
    "address": "10215 Greenwood Av N",
    "active": false,
    "unitCount": 1,
    "severity": 0,
    "neighborhood": "Greenwood/Phinney Ridge",
    "neighborhoodGroup": "Northwest",
    "units": "E35"
  },
  {
    "id_str": "F200065409",
    "created_at": "7/4/2020 6:15:34 PM",
    "lat": 47.531589,
    "long": -122.266026,
    "timestamp": 1593911734000,
    "description": "Investigate Out Of Service",
    "address": "5320 S Kenyon St",
    "active": false,
    "unitCount": 1,
    "severity": 0,
    "neighborhood": "Rainier Beach",
    "neighborhoodGroup": "Southeast",
    "units": "E33"
  },
  {
    "id_str": "F200065407",
    "created_at": "7/4/2020 6:12:04 PM",
    "lat": 47.540318,
    "long": -122.282693,
    "timestamp": 1593911524000,
    "description": "Auto Fire Alarm",
    "address": "6940 M L King Jr Way S",
    "active": false,
    "unitCount": 2,
    "severity": 0,
    "neighborhood": "South Beacon Hill/NewHolly",
    "neighborhoodGroup": "Greater Duwamish",
    "units": "E28 L12"
  },
  {
    "id_str": "F200065406",
    "created_at": "7/4/2020 6:10:48 PM",
    "lat": 47.701687,
    "long": -122.335676,
    "timestamp": 1593911448000,
    "description": "Aid Response",
    "address": "10047 Wallingford Ave N",
    "active": false,
    "unitCount": 1,
    "severity": 0,
    "neighborhood": "Licton Springs",
    "neighborhoodGroup": "Northwest",
    "units": "A31"
  },
  {
    "id_str": "F200065401",
    "created_at": "7/4/2020 6:01:10 PM",
    "lat": 47.631855,
    "long": -122.315219,
    "timestamp": 1593910870000,
    "description": "Aid Response",
    "address": "1400 E Galer St",
    "active": false,
    "unitCount": 1,
    "severity": 0,
    "neighborhood": "North Capitol Hill",
    "neighborhoodGroup": "East",
    "units": "E22"
  },
  {
    "id_str": "F200065400",
    "created_at": "7/4/2020 6:00:12 PM",
    "lat": 47.656871,
    "long": -122.335046,
    "timestamp": 1593910812000,
    "description": "Aid Response",
    "address": "4106 Burke Ave N",
    "active": false,
    "unitCount": 1,
    "severity": 0,
    "neighborhood": "Wallingford",
    "neighborhoodGroup": "Lake Union",
    "units": "E9"
  },
  {
    "id_str": "F200065396",
    "created_at": "7/4/2020 5:58:49 PM",
    "lat": 47.7024,
    "long": -122.360743,
    "timestamp": 1593910729000,
    "description": "Aid Response",
    "address": "3rd Ave Nw / Holman Rd Nw",
    "active": false,
    "unitCount": 1,
    "severity": 0,
    "neighborhood": "North Beach/Blue Ridge",
    "neighborhoodGroup": "Ballard",
    "units": "E35"
  },
  {
    "id_str": "F200065391",
    "created_at": "7/4/2020 5:56:14 PM",
    "lat": 47.539922,
    "long": -122.387269,
    "timestamp": 1593910574000,
    "description": "Fire in Building",
    "address": "7100 CALIFORNIA AV SW",
    "active": false,
    "unitCount": 19,
    "severity": 2,
    "neighborhood": "Fauntleroy/Seaview",
    "neighborhoodGroup": "Southwest",
    "units": "A14 AIR10 B5 B7 DEP1 E11 E13 E32 E36 E37 L11 L13 M26 M44 MAR5 R1 REHAB1 SAFT2 STAF10"
  },
  {
    "id_str": "F200065390",
    "created_at": "7/4/2020 5:56:11 PM",
    "lat": 47.661343,
    "long": -122.313129,
    "timestamp": 1593910571000,
    "description": "Rubbish Fire",
    "address": "4509 University Way Ne",
    "active": false,
    "unitCount": 1,
    "severity": 0,
    "neighborhood": "University District",
    "neighborhoodGroup": "Northeast",
    "units": "E17"
  },
  {
    "id_str": "F200065389",
    "created_at": "7/4/2020 5:55:05 PM",
    "lat": 47.610278,
    "long": -122.339812,
    "timestamp": 1593910505000,
    "description": "Aid Response",
    "address": "1600 2nd Ave",
    "active": false,
    "unitCount": 1,
    "severity": 0,
    "neighborhood": "Downtown Commercial Core",
    "neighborhoodGroup": "Downtown",
    "units": "A4"
  },
  {
    "id_str": "F200065387",
    "created_at": "7/4/2020 5:50:54 PM",
    "lat": 47.675775,
    "long": -122.302579,
    "timestamp": 1593910254000,
    "description": "Aid Response",
    "address": "2315 Ne 65th St",
    "active": false,
    "unitCount": 1,
    "severity": 0,
    "neighborhood": "Ravenna/Bryant",
    "neighborhoodGroup": "Northeast",
    "units": "E16"
  },
  {
    "id_str": "F200065386",
    "created_at": "7/4/2020 5:50:02 PM",
    "lat": 47.61667,
    "long": -122.326802,
    "timestamp": 1593910202000,
    "description": "Aid Response",
    "address": "1707 Bellevue Av",
    "active": false,
    "unitCount": 1,
    "severity": 0,
    "neighborhood": "Capitol Hill",
    "neighborhoodGroup": "East",
    "units": "A25"
  },
  {
    "id_str": "F200065385",
    "created_at": "7/4/2020 5:48:52 PM",
    "lat": 47.608017,
    "long": -122.306319,
    "timestamp": 1593910132000,
    "description": "MVI - Motor Vehicle Incident",
    "address": "20th Ave / E Cherry St",
    "active": false,
    "unitCount": 1,
    "severity": 0,
    "neighborhood": "Central Area/Squire Park",
    "neighborhoodGroup": "Central",
    "units": "E25"
  },
  {
    "id_str": "F200065379",
    "created_at": "7/4/2020 5:31:22 PM",
    "lat": 47.608292,
    "long": -122.337995,
    "timestamp": 1593909082000,
    "description": "Aid Response",
    "address": "1401 2nd Av",
    "active": false,
    "unitCount": 1,
    "severity": 0,
    "neighborhood": "Downtown Commercial Core",
    "neighborhoodGroup": "Downtown",
    "units": "E5"
  },
  {
    "id_str": "F200065378",
    "created_at": "7/4/2020 5:31:10 PM",
    "lat": 47.573768,
    "long": -122.405386,
    "timestamp": 1593909070000,
    "description": "Aid Response",
    "address": "3331 Frater Ave Sw",
    "active": false,
    "unitCount": 1,
    "severity": 0,
    "neighborhood": "Alki/Admiral",
    "neighborhoodGroup": "Southwest",
    "units": "E29"
  },
  {
    "id_str": "F200065375",
    "created_at": "7/4/2020 5:23:41 PM",
    "lat": 47.554736,
    "long": -122.269838,
    "timestamp": 1593908621000,
    "description": "Automatic Fire Alarm Resd",
    "address": "5215 51st Ave S",
    "active": false,
    "unitCount": 1,
    "severity": 0,
    "neighborhood": "Seward Park",
    "neighborhoodGroup": "Southeast",
    "units": "E28"
  },
  {
    "id_str": "F200065373",
    "created_at": "7/4/2020 5:21:53 PM",
    "lat": 47.590775,
    "long": -122.297438,
    "timestamp": 1593908513000,
    "description": "Brush Fire",
    "address": "1400 M L King Jr Way S",
    "active": false,
    "unitCount": 2,
    "severity": 0,
    "neighborhood": "Mt. Baker/North Rainier",
    "neighborhoodGroup": "Southeast",
    "units": "E6 SQ40"
  },
  {
    "id_str": "F200065372",
    "created_at": "7/4/2020 5:21:01 PM",
    "lat": 47.623264,
    "long": -122.312623,
    "timestamp": 1593908461000,
    "description": "Aid Response",
    "address": "500 15th Av E",
    "active": false,
    "unitCount": 1,
    "severity": 0,
    "neighborhood": "Miller Park",
    "neighborhoodGroup": "East",
    "units": "A25"
  },
  {
    "id_str": "F200065370",
    "created_at": "7/4/2020 5:18:19 PM",
    "lat": 47.62579,
    "long": -122.337122,
    "timestamp": 1593908299000,
    "description": "Aid Response",
    "address": "1000 Valley St",
    "active": false,
    "unitCount": 1,
    "severity": 0,
    "neighborhood": "Cascade/Eastlake",
    "neighborhoodGroup": "Lake Union",
    "units": "A4"
  },
  {
    "id_str": "F200065367",
    "created_at": "7/4/2020 5:14:36 PM",
    "lat": 47.655305,
    "long": -122.307943,
    "timestamp": 1593908076000,
    "description": "Auto Fire Alarm",
    "address": "1840 Ne Grant Ln",
    "active": false,
    "unitCount": 2,
    "severity": 0,
    "neighborhood": "University District",
    "neighborhoodGroup": "Northeast",
    "units": "E31 L9"
  },
  {
    "id_str": "F200065366",
    "created_at": "7/4/2020 5:07:49 PM",
    "lat": 47.558988,
    "long": -122.376234,
    "timestamp": 1593907669000,
    "description": "Auto Fire Alarm",
    "address": "4831 35th Av Sw",
    "active": false,
    "unitCount": 2,
    "severity": 0,
    "neighborhood": "West Seattle Junction/Genesee Hill",
    "neighborhoodGroup": "Southwest",
    "units": "E32 L13"
  }
]