[
  {
    "id_str": "F200065054",
    "created_at": "7/3/2020 4:47:15 PM",
    "derived": {
      "lat": 47.725063,
      "long": -122.358236,
      "timestamp": 1593820035000,
      "description": "1RED 1 Unit",
      "address": "102 N 132ND ST",
      "active": false,
      "unitCount": 1,
      "severity": 0,
      "neighborhood": "Broadview/Bitter Lake",
      "neighborhoodGroup": "Northwest",
      "units": "E24"
    }
  },
  {
    "id_str": "F200065053",
    "created_at": "7/3/2020 4:46:42 PM",
    "derived": {
      "lat": 47.643193,
      "long": -122.320945,
      "timestamp": 1593820002000,
      "description": "Aid Response",
      "address": "901 E Roanoke St",
      "active": false,
      "unitCount": 1,
      "severity": 0,
      "neighborhood": "Montlake/Portage Bay",
      "neighborhoodGroup": "Northeast",
      "units": "E22"
    }
  },
  {
    "id_str": "F200065052",
    "created_at": "7/3/2020 4:46:27 PM",
    "derived": {
      "lat": 47.616442,
      "long": -122.309884,
      "timestamp": 1593819987000,
      "description": "Aid Response",
      "address": "1720 E Olive St",
      "active": false,
      "unitCount": 1,
      "severity": 0,
      "neighborhood": "Central Area/Squire Park",
      "neighborhoodGroup": "Central",
      "units": "A25"
    }
  },
  {
    "id_str": "F200065051",
    "created_at": "7/3/2020 4:43:12 PM",
    "derived": {
      "lat": 47.601986,
      "long": -122.32914,
      "timestamp": 1593819792000,
      "description": "Aid Response",
      "address": "420 4th Av",
      "active": false,
      "unitCount": 1,
      "severity": 0,
      "neighborhood": "Downtown Commercial Core",
      "neighborhoodGroup": "Downtown",
      "units": "A10"
    }
  },
  {
    "id_str": "F200065050",
    "created_at": "7/3/2020 4:38:33 PM",
    "derived": {
      "lat": 47.60799,
      "long": -122.293514,
      "timestamp": 1593819513000,
      "description": "Low Acuity Response",
      "address": "3011 E Cherry St",
      "active": false,
      "unitCount": 1,
      "severity": 0,
      "neighborhood": "Central Area/Squire Park",
      "neighborhoodGroup": "Central",
      "units": "A25"
    }
  },
  {
    "id_str": "F200065048",
    "created_at": "7/3/2020 4:23:59 PM",
    "derived": {
      "lat": 47.583528,
      "long": -122.302102,
      "timestamp": 1593818639000,
      "description": "Aid Response",
      "address": "2212 Rainier Ave S",
      "active": false,
      "unitCount": 1,
      "severity": 0,
      "neighborhood": "Mt. Baker/North Rainier",
      "neighborhoodGroup": "Southeast",
      "units": "L3"
    }
  },
  {
    "id_str": "F200065047",
    "created_at": "7/3/2020 4:22:28 PM",
    "derived": {
      "lat": 47.567667,
      "long": -122.270754,
      "timestamp": 1593818548000,
      "description": "Water Rescue Response",
      "address": "50th Ave S / Lake Washington Blvd S",
      "active": false,
      "unitCount": 16,
      "severity": 2,
      "neighborhood": "Columbia City",
      "neighborhoodGroup": "Southeast",
      "units": "A14 B2 B5 E10 E13 E5 E6 FB1 FIREBOAT FRB5 L12 M28 M44 PTRL4 R1 SAFT2"
    }
  },
  {
    "id_str": "F200065045",
    "created_at": "7/3/2020 4:09:56 PM",
    "derived": {
      "lat": 47.548596,
      "long": -122.298698,
      "timestamp": 1593817796000,
      "description": "Aid Response",
      "address": "2544 S Raymond St",
      "active": false,
      "unitCount": 1,
      "severity": 0,
      "neighborhood": "Beacon Hill",
      "neighborhoodGroup": "Greater Duwamish",
      "units": "E28"
    }
  },
  {
    "id_str": "F200065044",
    "created_at": "7/3/2020 4:08:52 PM",
    "derived": {
      "lat": 47.605387,
      "long": -122.327511,
      "timestamp": 1593817732000,
      "description": "Aid Response",
      "address": "710 Cherry St",
      "active": false,
      "unitCount": 1,
      "severity": 0,
      "neighborhood": "First Hill",
      "neighborhoodGroup": "East",
      "units": "A5"
    }
  },
  {
    "id_str": "F200065043",
    "created_at": "7/3/2020 4:05:45 PM",
    "derived": {
      "lat": 47.6141,
      "long": -122.307917,
      "timestamp": 1593817545000,
      "description": "Aid Response",
      "address": "1816 E Pike St",
      "active": false,
      "unitCount": 1,
      "severity": 0,
      "neighborhood": "Central Area/Squire Park",
      "neighborhoodGroup": "Central",
      "units": "A25"
    }
  },
  {
    "id_str": "F200065038",
    "created_at": "7/3/2020 3:58:27 PM",
    "derived": {
      "lat": 47.645803,
      "long": -122.360896,
      "timestamp": 1593817107000,
      "description": "Aid Response",
      "address": "2900 3rd Ave W",
      "active": false,
      "unitCount": 1,
      "severity": 0,
      "neighborhood": "Queen Anne",
      "neighborhoodGroup": "Magnolia/Queen Anne",
      "units": "E9"
    }
  },
  {
    "id_str": "F200065036",
    "created_at": "7/3/2020 3:57:12 PM",
    "derived": {
      "lat": 47.61404,
      "long": -122.345653,
      "timestamp": 1593817032000,
      "description": "Medic Response",
      "address": "2301 2ND AVE",
      "active": false,
      "unitCount": 4,
      "severity": 0,
      "neighborhood": "Belltown",
      "neighborhoodGroup": "Downtown",
      "units": "A4 E8 M1 M18"
    }
  },
  {
    "id_str": "F200065037",
    "created_at": "7/3/2020 3:56:46 PM",
    "derived": {
      "lat": 47.633499,
      "long": -122.376195,
      "timestamp": 1593817006000,
      "description": "Aid Response",
      "address": "1601 15th Ave W",
      "active": false,
      "unitCount": 1,
      "severity": 0,
      "neighborhood": "Interbay",
      "neighborhoodGroup": "Magnolia/Queen Anne",
      "units": "E41"
    }
  },
  {
    "id_str": "F200065034",
    "created_at": "7/3/2020 3:46:39 PM",
    "derived": {
      "lat": 47.546561,
      "long": -122.387196,
      "timestamp": 1593816399000,
      "description": "Aid Response",
      "address": "6312 California Av Sw",
      "active": false,
      "unitCount": 1,
      "severity": 0,
      "neighborhood": "Fauntleroy/Seaview",
      "neighborhoodGroup": "Southwest",
      "units": "E32"
    }
  },
  {
    "id_str": "F200065033",
    "created_at": "7/3/2020 3:41:15 PM",
    "derived": {
      "lat": 47.699468,
      "long": -122.280035,
      "timestamp": 1593816075000,
      "description": "Aid Response",
      "address": "9721 45th Ave Ne",
      "active": false,
      "unitCount": 1,
      "severity": 0,
      "neighborhood": "Wedgwood/View Ridge",
      "neighborhoodGroup": "Northeast",
      "units": "E40"
    }
  },
  {
    "id_str": "F200065032",
    "created_at": "7/3/2020 3:38:17 PM",
    "derived": {
      "lat": 47.633594,
      "long": -122.301592,
      "timestamp": 1593815897000,
      "description": "Aid Response",
      "address": "1600 Interlaken Pl E",
      "active": false,
      "unitCount": 1,
      "severity": 0,
      "neighborhood": "Montlake/Portage Bay",
      "neighborhoodGroup": "Northeast",
      "units": "L10"
    }
  },
  {
    "id_str": "F200065031",
    "created_at": "7/3/2020 3:35:01 PM",
    "derived": {
      "lat": 47.61762,
      "long": -122.310139,
      "timestamp": 1593815701000,
      "description": "Medic Response",
      "address": "1802 17th Av",
      "active": false,
      "unitCount": 2,
      "severity": 0,
      "neighborhood": "Central Area/Squire Park",
      "neighborhoodGroup": "Central",
      "units": "A25 M10"
    }
  },
  {
    "id_str": "F200065030",
    "created_at": "7/3/2020 3:33:31 PM",
    "derived": {
      "lat": 47.55451,
      "long": -122.309861,
      "timestamp": 1593815611000,
      "description": "Aid Response",
      "address": "5335 18th Ave S",
      "active": false,
      "unitCount": 1,
      "severity": 0,
      "neighborhood": "Beacon Hill",
      "neighborhoodGroup": "Greater Duwamish",
      "units": "E13"
    }
  },
  {
    "id_str": "F200065027",
    "created_at": "7/3/2020 3:11:27 PM",
    "derived": {
      "lat": 47.613497,
      "long": -122.346355,
      "timestamp": 1593814287000,
      "description": "Aid Response",
      "address": "118 Bell St",
      "active": false,
      "unitCount": 2,
      "severity": 0,
      "neighborhood": "Belltown",
      "neighborhoodGroup": "Downtown",
      "units": "A2 A4"
    }
  },
  {
    "id_str": "F200065028",
    "created_at": "7/3/2020 3:10:31 PM",
    "derived": {
      "lat": 47.679028,
      "long": -122.324828,
      "timestamp": 1593814231000,
      "description": "Aid Response",
      "address": "Ne Ravenna Blvd / Ne 70th St",
      "active": false,
      "unitCount": 1,
      "severity": 0,
      "neighborhood": "Green Lake",
      "neighborhoodGroup": "Northwest",
      "units": "E16"
    }
  },
  {
    "id_str": "F200065026",
    "created_at": "7/3/2020 3:02:59 PM",
    "derived": {
      "lat": 47.723218,
      "long": -122.348195,
      "timestamp": 1593813779000,
      "description": "Medic Response",
      "address": "13000 Linden Av N",
      "active": false,
      "unitCount": 2,
      "severity": 0,
      "neighborhood": "Broadview/Bitter Lake",
      "neighborhoodGroup": "Northwest",
      "units": "E24 M31"
    }
  },
  {
    "id_str": "F200065025",
    "created_at": "7/3/2020 2:59:04 PM",
    "derived": {
      "lat": 47.618517,
      "long": -122.334255,
      "timestamp": 1593813544000,
      "description": "Aid Response",
      "address": "Fairview Ave / Denny Way",
      "active": false,
      "unitCount": 1,
      "severity": 0,
      "neighborhood": "Cascade/Eastlake",
      "neighborhoodGroup": "Lake Union",
      "units": "A4"
    }
  },
  {
    "id_str": "F200065024",
    "created_at": "7/3/2020 2:54:28 PM",
    "derived": {
      "lat": 47.731677,
      "long": -122.347772,
      "timestamp": 1593813268000,
      "description": "Aid Response",
      "address": "14200 Linden Av N",
      "active": false,
      "unitCount": 1,
      "severity": 0,
      "neighborhood": "Broadview/Bitter Lake",
      "neighborhoodGroup": "Northwest",
      "units": "A31"
    }
  },
  {
    "id_str": "F200065020",
    "created_at": "7/3/2020 2:47:27 PM",
    "derived": {
      "lat": 47.709397,
      "long": -122.309982,
      "timestamp": 1593812847000,
      "description": "Aid Response",
      "address": "11039 17th Av Ne",
      "active": false,
      "unitCount": 1,
      "severity": 0,
      "neighborhood": "Olympic Hills/Victory Heights",
      "neighborhoodGroup": "North",
      "units": "L5"
    }
  },
  {
    "id_str": "F200065019",
    "created_at": "7/3/2020 2:46:06 PM",
    "derived": {
      "lat": 47.710205,
      "long": -122.296068,
      "timestamp": 1593812766000,
      "description": "Aid Response",
      "address": "3010 Ne 113th St",
      "active": false,
      "unitCount": 1,
      "severity": 0,
      "neighborhood": "Cedar Park/Meadowbrook",
      "neighborhoodGroup": "North",
      "units": "E39"
    }
  },
  {
    "id_str": "F200065017",
    "created_at": "7/3/2020 2:41:27 PM",
    "derived": {
      "lat": 47.690313,
      "long": -122.30817,
      "timestamp": 1593812487000,
      "description": "Aid Response",
      "address": "8500 Lake City Way Ne",
      "active": false,
      "unitCount": 1,
      "severity": 0,
      "neighborhood": "Northgate/Maple Leaf",
      "neighborhoodGroup": "North",
      "units": "E40"
    }
  },
  {
    "id_str": "F200065016",
    "created_at": "7/3/2020 2:37:22 PM",
    "derived": {
      "lat": 47.540722,
      "long": -122.294914,
      "timestamp": 1593812242000,
      "description": "Aid Response",
      "address": "2925 S Willow St",
      "active": false,
      "unitCount": 1,
      "severity": 0,
      "neighborhood": "South Beacon Hill/NewHolly",
      "neighborhoodGroup": "Greater Duwamish",
      "units": "E28"
    }
  },
  {
    "id_str": "F200065015",
    "created_at": "7/3/2020 2:36:40 PM",
    "derived": {
      "lat": 47.608573,
      "long": -122.343891,
      "timestamp": 1593812200000,
      "description": "AFA4 - Auto Alarm 2 + 1 + 1",
      "address": "1901 Alaskan Way",
      "active": false,
      "unitCount": 8,
      "severity": 1,
      "neighborhood": "Downtown Commercial Core",
      "neighborhoodGroup": "Downtown",
      "units": "B5 E10 E2 E39 E5 FB4 FIREBOAT L1"
    }
  },
  {
    "id_str": "F200065014",
    "created_at": "7/3/2020 2:35:11 PM",
    "derived": {
      "lat": 47.676343,
      "long": -122.331253,
      "timestamp": 1593812111000,
      "description": "Aid Response",
      "address": "6530 Woodlawn Ave N",
      "active": false,
      "unitCount": 1,
      "severity": 0,
      "neighborhood": "Green Lake",
      "neighborhoodGroup": "Northwest",
      "units": "E16"
    }
  },
  {
    "id_str": "F200065013",
    "created_at": "7/3/2020 2:32:27 PM",
    "derived": {
      "lat": 47.61988,
      "long": -122.356746,
      "timestamp": 1593811947000,
      "description": "Aid Response",
      "address": "210 Queen Anne Ave N",
      "active": false,
      "unitCount": 1,
      "severity": 0,
      "neighborhood": "Queen Anne",
      "neighborhoodGroup": "Magnolia/Queen Anne",
      "units": "A4"
    }
  },
  {
    "id_str": "F200065011",
    "created_at": "7/3/2020 2:23:59 PM",
    "derived": {
      "lat": 47.60975,
      "long": -122.337793,
      "timestamp": 1593811439000,
      "description": "Aid Response",
      "address": "3rd Ave / Pike St",
      "active": false,
      "unitCount": 2,
      "severity": 0,
      "neighborhood": "Downtown Commercial Core",
      "neighborhoodGroup": "Downtown",
      "units": "A4 B5"
    }
  },
  {
    "id_str": "F200065010",
    "created_at": "7/3/2020 2:16:46 PM",
    "derived": {
      "lat": 47.573806,
      "long": -122.373374,
      "timestamp": 1593811006000,
      "description": "MVI - Motor Vehicle Incident",
      "address": "Sw Admiral Way / Sw City View St",
      "active": false,
      "unitCount": 1,
      "severity": 0,
      "neighborhood": "North Delridge",
      "neighborhoodGroup": "Delridge Neighborhoods",
      "units": "E29"
    }
  },
  {
    "id_str": "F200065009",
    "created_at": "7/3/2020 2:15:24 PM",
    "derived": {
      "lat": 47.654341,
      "long": -122.343514,
      "timestamp": 1593810924000,
      "description": "Activated CO Detector",
      "address": "3920 Midvale Ave N",
      "active": false,
      "unitCount": 1,
      "severity": 0,
      "neighborhood": "Fremont",
      "neighborhoodGroup": "Lake Union",
      "units": "L9"
    }
  },
  {
    "id_str": "F200065008",
    "created_at": "7/3/2020 2:14:19 PM",
    "derived": {
      "lat": 47.622089,
      "long": -122.351371,
      "timestamp": 1593810859000,
      "description": "Medic Response",
      "address": "305 Harrison St",
      "active": false,
      "unitCount": 2,
      "severity": 0,
      "neighborhood": "Queen Anne",
      "neighborhoodGroup": "Magnolia/Queen Anne",
      "units": "A2 M17"
    }
  },
  {
    "id_str": "F200065007",
    "created_at": "7/3/2020 2:14:04 PM",
    "derived": {
      "lat": 47.612708,
      "long": -122.345081,
      "timestamp": 1593810844000,
      "description": "Aid Response",
      "address": "115 Blanchard St",
      "active": false,
      "unitCount": 1,
      "severity": 0,
      "neighborhood": "Belltown",
      "neighborhoodGroup": "Downtown",
      "units": "E2"
    }
  },
  {
    "id_str": "F200065006",
    "created_at": "7/3/2020 2:12:42 PM",
    "derived": {
      "lat": 47.721102,
      "long": -122.297679,
      "timestamp": 1593810762000,
      "description": "Aid Response",
      "address": "2806 Ne 127th St",
      "active": false,
      "unitCount": 1,
      "severity": 0,
      "neighborhood": "Olympic Hills/Victory Heights",
      "neighborhoodGroup": "North",
      "units": "L5"
    }
  },
  {
    "id_str": "F200065003",
    "created_at": "7/3/2020 2:07:25 PM",
    "derived": {
      "lat": 47.593232,
      "long": -122.334194,
      "timestamp": 1593810445000,
      "description": "MVI - Motor Vehicle Incident",
      "address": "1046 1st Av S",
      "active": false,
      "unitCount": 1,
      "severity": 0,
      "neighborhood": "Duwamish/SODO",
      "neighborhoodGroup": "Greater Duwamish",
      "units": "E10"
    }
  },
  {
    "id_str": "F200065002",
    "created_at": "7/3/2020 2:05:57 PM",
    "derived": {
      "lat": 47.702577,
      "long": -122.328518,
      "timestamp": 1593810357000,
      "description": "Aid Response",
      "address": "10200 1st Av Ne",
      "active": false,
      "unitCount": 1,
      "severity": 0,
      "neighborhood": "Northgate/Maple Leaf",
      "neighborhoodGroup": "North",
      "units": "A31"
    }
  },
  {
    "id_str": "F200065000",
    "created_at": "7/3/2020 2:03:57 PM",
    "derived": {
      "lat": 47.719524,
      "long": -122.328968,
      "timestamp": 1593810237000,
      "description": "MVI - Motor Vehicle Incident",
      "address": "1st Ave Ne / Ne 125th St",
      "active": false,
      "unitCount": 1,
      "severity": 0,
      "neighborhood": "Haller Lake",
      "neighborhoodGroup": "Northwest",
      "units": "E24"
    }
  },
  {
    "id_str": "F200064999",
    "created_at": "7/3/2020 2:01:37 PM",
    "derived": {
      "lat": 47.702577,
      "long": -122.328518,
      "timestamp": 1593810097000,
      "description": "Aid Response",
      "address": "10200 1ST AV NE",
      "active": false,
      "unitCount": 1,
      "severity": 0,
      "neighborhood": "Northgate/Maple Leaf",
      "neighborhoodGroup": "North",
      "units": "E24"
    }
  },
  {
    "id_str": "F200064997",
    "created_at": "7/3/2020 1:57:37 PM",
    "derived": {
      "lat": 47.60975,
      "long": -122.337793,
      "timestamp": 1593809857000,
      "description": "Aid Response",
      "address": "3rd Ave / Pike St",
      "active": false,
      "unitCount": 3,
      "severity": 0,
      "neighborhood": "Downtown Commercial Core",
      "neighborhoodGroup": "Downtown",
      "units": "A2 A4 E2"
    }
  },
  {
    "id_str": "F200064996",
    "created_at": "7/3/2020 1:50:13 PM",
    "derived": {
      "lat": 47.614431,
      "long": -122.320786,
      "timestamp": 1593809413000,
      "description": "Aid Response",
      "address": "1531 BROADWAY",
      "active": false,
      "unitCount": 3,
      "severity": 0,
      "neighborhood": "Capitol Hill",
      "neighborhoodGroup": "East",
      "units": "A25 B5 E25"
    }
  },
  {
    "id_str": "F200064995",
    "created_at": "7/3/2020 1:42:55 PM",
    "derived": {
      "lat": 47.558661,
      "long": -122.287528,
      "timestamp": 1593808975000,
      "description": "Medic Response",
      "address": "3610 S Edmunds St",
      "active": false,
      "unitCount": 2,
      "severity": 0,
      "neighborhood": "Columbia City",
      "neighborhoodGroup": "Southeast",
      "units": "E28 M28"
    }
  },
  {
    "id_str": "F200064994",
    "created_at": "7/3/2020 1:38:01 PM",
    "derived": {
      "lat": 47.69402,
      "long": -122.274497,
      "timestamp": 1593808681000,
      "description": "Aid Response",
      "address": "Sand Point Way Ne / Matthews Ave Ne",
      "active": false,
      "unitCount": 1,
      "severity": 0,
      "neighborhood": "Wedgwood/View Ridge",
      "neighborhoodGroup": "Northeast",
      "units": "E39"
    }
  },
  {
    "id_str": "F200064993",
    "created_at": "7/3/2020 1:35:31 PM",
    "derived": {
      "lat": 47.607742,
      "long": -122.326595,
      "timestamp": 1593808531000,
      "description": "Medic Response",
      "address": "910 Marion St",
      "active": false,
      "unitCount": 2,
      "severity": 0,
      "neighborhood": "First Hill",
      "neighborhoodGroup": "East",
      "units": "A5 M10"
    }
  },
  {
    "id_str": "F200064992",
    "created_at": "7/3/2020 1:35:03 PM",
    "derived": {
      "lat": 47.601722,
      "long": -122.333899,
      "timestamp": 1593808503000,
      "description": "Aid Response",
      "address": "YESLER WAY / JAMES ST",
      "active": false,
      "unitCount": 1,
      "severity": 0,
      "neighborhood": "Downtown Commercial Core",
      "neighborhoodGroup": "Downtown",
      "units": "A10"
    }
  },
  {
    "id_str": "F200064988",
    "created_at": "7/3/2020 1:18:09 PM",
    "derived": {
      "lat": 47.608292,
      "long": -122.337995,
      "timestamp": 1593807489000,
      "description": "Aid Response",
      "address": "1401 2nd Av",
      "active": false,
      "unitCount": 1,
      "severity": 0,
      "neighborhood": "Downtown Commercial Core",
      "neighborhoodGroup": "Downtown",
      "units": "E5"
    }
  },
  {
    "id_str": "F200064986",
    "created_at": "7/3/2020 1:16:24 PM",
    "derived": {
      "lat": 47.571853,
      "long": -122.293193,
      "timestamp": 1593807384000,
      "description": "Aid Response",
      "address": "3501 Rainier Av S",
      "active": false,
      "unitCount": 3,
      "severity": 0,
      "neighborhood": "Columbia City",
      "neighborhoodGroup": "Southeast",
      "units": "E2 E27 E28"
    }
  },
  {
    "id_str": "F200064985",
    "created_at": "7/3/2020 1:13:13 PM",
    "derived": {
      "lat": 47.631378,
      "long": -122.359203,
      "timestamp": 1593807193000,
      "description": "Medic Response",
      "address": "1407 2nd Av W",
      "active": false,
      "unitCount": 2,
      "severity": 0,
      "neighborhood": "Queen Anne",
      "neighborhoodGroup": "Magnolia/Queen Anne",
      "units": "E8 M1"
    }
  },
  {
    "id_str": "F200064987",
    "created_at": "7/3/2020 1:10:58 PM",
    "derived": {
      "lat": 47.619219,
      "long": -122.326346,
      "timestamp": 1593807058000,
      "description": "Aid Response",
      "address": "418 E Loretta Pl",
      "active": false,
      "unitCount": 1,
      "severity": 0,
      "neighborhood": "Capitol Hill",
      "neighborhoodGroup": "East",
      "units": "A25"
    }
  },
  {
    "id_str": "F200064984",
    "created_at": "7/3/2020 1:10:18 PM",
    "derived": {
      "lat": 47.721102,
      "long": -122.297679,
      "timestamp": 1593807018000,
      "description": "Aid Response",
      "address": "2806 Ne 127th St",
      "active": false,
      "unitCount": 1,
      "severity": 0,
      "neighborhood": "Olympic Hills/Victory Heights",
      "neighborhoodGroup": "North",
      "units": "E39"
    }
  },
  {
    "id_str": "F200064982",
    "created_at": "7/3/2020 1:08:18 PM",
    "derived": {
      "lat": 47.709995,
      "long": -122.32304,
      "timestamp": 1593806898000,
      "description": "1RED 1 Unit",
      "address": "524 Ne 112th St",
      "active": false,
      "unitCount": 2,
      "severity": 0,
      "neighborhood": "Northgate/Maple Leaf",
      "neighborhoodGroup": "North",
      "units": "E24 E39"
    }
  },
  {
    "id_str": "F200064980",
    "created_at": "7/3/2020 1:06:27 PM",
    "derived": {
      "lat": 47.623593,
      "long": -122.358022,
      "timestamp": 1593806787000,
      "description": "Rescue Elevator",
      "address": "525 1st Av W",
      "active": false,
      "unitCount": 1,
      "severity": 0,
      "neighborhood": "Queen Anne",
      "neighborhoodGroup": "Magnolia/Queen Anne",
      "units": "L6"
    }
  },
  {
    "id_str": "F200064979",
    "created_at": "7/3/2020 1:05:56 PM",
    "derived": {
      "lat": 47.685115,
      "long": -122.367279,
      "timestamp": 1593806756000,
      "description": "Automatic Fire Alarm Resd",
      "address": "7704 Dibble Ave Nw",
      "active": false,
      "unitCount": 1,
      "severity": 0,
      "neighborhood": "Whittier Heights",
      "neighborhoodGroup": "Ballard",
      "units": "E21"
    }
  },
  {
    "id_str": "F200064978",
    "created_at": "7/3/2020 1:05:21 PM",
    "derived": {
      "lat": 47.56938,
      "long": -122.404956,
      "timestamp": 1593806721000,
      "description": "Automatic Fire Alarm Resd",
      "address": "5701 Sw Bradford St",
      "active": false,
      "unitCount": 1,
      "severity": 0,
      "neighborhood": "Alki/Admiral",
      "neighborhoodGroup": "Southwest",
      "units": "E32"
    }
  },
  {
    "id_str": "F200064977",
    "created_at": "7/3/2020 1:03:23 PM",
    "derived": {
      "lat": 47.663664,
      "long": -122.376515,
      "timestamp": 1593806603000,
      "description": "Rescue Elevator",
      "address": "1515 Nw Leary Way",
      "active": false,
      "unitCount": 1,
      "severity": 0,
      "neighborhood": "Ballard",
      "neighborhoodGroup": "Ballard",
      "units": "L8"
    }
  },
  {
    "id_str": "F200064976",
    "created_at": "7/3/2020 12:54:18 PM",
    "derived": {
      "lat": 47.542841,
      "long": -122.372365,
      "timestamp": 1593806058000,
      "description": "Auto Fire Alarm",
      "address": "3107 Sw Holly St",
      "active": false,
      "unitCount": 2,
      "severity": 0,
      "neighborhood": "High Point",
      "neighborhoodGroup": "Delridge Neighborhoods",
      "units": "E11 L13"
    }
  },
  {
    "id_str": "F200064975",
    "created_at": "7/3/2020 12:52:09 PM",
    "derived": {
      "lat": 47.600591,
      "long": -122.335915,
      "timestamp": 1593805929000,
      "description": "Auto Fire Alarm",
      "address": "212 Alaskan Way S",
      "active": false,
      "unitCount": 2,
      "severity": 0,
      "neighborhood": "Pioneer Square/International District",
      "neighborhoodGroup": "Downtown",
      "units": "E5 L1"
    }
  },
  {
    "id_str": "F200064974",
    "created_at": "7/3/2020 12:48:40 PM",
    "derived": {
      "lat": 47.535387,
      "long": -122.267284,
      "timestamp": 1593805720000,
      "description": "Auto Fire Alarm",
      "address": "7500 Seward Park Av S",
      "active": false,
      "unitCount": 2,
      "severity": 0,
      "neighborhood": "Seward Park",
      "neighborhoodGroup": "Southeast",
      "units": "E33 L12"
    }
  },
  {
    "id_str": "F200064972",
    "created_at": "7/3/2020 12:33:15 PM",
    "derived": {
      "lat": 47.669452,
      "long": -122.309321,
      "timestamp": 1593804795000,
      "description": "Aid Response",
      "address": "1713 Ne 56th St",
      "active": false,
      "unitCount": 1,
      "severity": 0,
      "neighborhood": "University District",
      "neighborhoodGroup": "Northeast",
      "units": "E16"
    }
  },
  {
    "id_str": "F200064969",
    "created_at": "7/3/2020 12:23:28 PM",
    "derived": {
      "lat": 47.606176,
      "long": -122.310249,
      "timestamp": 1593804208000,
      "description": "Medic Response",
      "address": "E Jefferson St / 17th Ave",
      "active": false,
      "unitCount": 2,
      "severity": 0,
      "neighborhood": "Central Area/Squire Park",
      "neighborhoodGroup": "Central",
      "units": "A5 M1"
    }
  },
  {
    "id_str": "F200064967",
    "created_at": "7/3/2020 12:20:30 PM",
    "derived": {
      "lat": 47.60902,
      "long": -122.337126,
      "timestamp": 1593804030000,
      "description": "Medic Response",
      "address": "1427 3rd Av",
      "active": false,
      "unitCount": 2,
      "severity": 0,
      "neighborhood": "Downtown Commercial Core",
      "neighborhoodGroup": "Downtown",
      "units": "A10 M10"
    }
  },
  {
    "id_str": "F200064966",
    "created_at": "7/3/2020 12:17:20 PM",
    "derived": {
      "lat": 47.730569,
      "long": -122.347758,
      "timestamp": 1593803840000,
      "description": "Medic Response",
      "address": "14002 Linden Av N",
      "active": false,
      "unitCount": 2,
      "severity": 0,
      "neighborhood": "Broadview/Bitter Lake",
      "neighborhoodGroup": "Northwest",
      "units": "E24 M31"
    }
  },
  {
    "id_str": "F200064965",
    "created_at": "7/3/2020 12:15:05 PM",
    "derived": {
      "lat": 47.647519,
      "long": -122.324414,
      "timestamp": 1593803705000,
      "description": "Aid Response",
      "address": "2920 Eastlake Av E",
      "active": false,
      "unitCount": 2,
      "severity": 0,
      "neighborhood": "Montlake/Portage Bay",
      "neighborhoodGroup": "Northeast",
      "units": "E17 E31"
    }
  },
  {
    "id_str": "F200064964",
    "created_at": "7/3/2020 12:11:08 PM",
    "derived": {
      "lat": 47.708611,
      "long": -122.325928,
      "timestamp": 1593803468000,
      "description": "Aid Response",
      "address": "302 Ne Northgate Way",
      "active": false,
      "unitCount": 1,
      "severity": 0,
      "neighborhood": "Northgate/Maple Leaf",
      "neighborhoodGroup": "North",
      "units": "A31"
    }
  },
  {
    "id_str": "F200064963",
    "created_at": "7/3/2020 12:06:31 PM",
    "derived": {
      "lat": 47.612937,
      "long": -122.300004,
      "timestamp": 1593803191000,
      "description": "Aid Response",
      "address": "2508 E Union St",
      "active": false,
      "unitCount": 1,
      "severity": 0,
      "neighborhood": "Central Area/Squire Park",
      "neighborhoodGroup": "Central",
      "units": "E25"
    }
  },
  {
    "id_str": "F200064962",
    "created_at": "7/3/2020 11:58:34 AM",
    "derived": {
      "lat": 47.622089,
      "long": -122.351371,
      "timestamp": 1593802714000,
      "description": "Aid Response",
      "address": "305 Harrison St",
      "active": false,
      "unitCount": 1,
      "severity": 0,
      "neighborhood": "Queen Anne",
      "neighborhoodGroup": "Magnolia/Queen Anne",
      "units": "A4"
    }
  },
  {
    "id_str": "F200064961",
    "created_at": "7/3/2020 11:42:44 AM",
    "derived": {
      "lat": 47.600875,
      "long": -122.328963,
      "timestamp": 1593801764000,
      "description": "Medic Response",
      "address": "Prefontaine Pl S / 4th Ave S",
      "active": false,
      "unitCount": 2,
      "severity": 0,
      "neighborhood": "Pioneer Square/International District",
      "neighborhoodGroup": "Downtown",
      "units": "A10 M17"
    }
  },
  {
    "id_str": "F200064960",
    "created_at": "7/3/2020 11:41:23 AM",
    "derived": {
      "lat": 47.617752,
      "long": -122.338344,
      "timestamp": 1593801683000,
      "description": "Aid Response",
      "address": "Westlake Ave / Blanchard St",
      "active": false,
      "unitCount": 1,
      "severity": 0,
      "neighborhood": "Cascade/Eastlake",
      "neighborhoodGroup": "Lake Union",
      "units": "A4"
    }
  },
  {
    "id_str": "F200064959",
    "created_at": "7/3/2020 11:40:32 AM",
    "derived": {
      "lat": 47.546215,
      "long": -122.375056,
      "timestamp": 1593801632000,
      "description": "Aid Response",
      "address": "6339 34th Av Sw",
      "active": false,
      "unitCount": 1,
      "severity": 0,
      "neighborhood": "High Point",
      "neighborhoodGroup": "Delridge Neighborhoods",
      "units": "E32"
    }
  },
  {
    "id_str": "F200064958",
    "created_at": "7/3/2020 11:39:19 AM",
    "derived": {
      "lat": 47.62118,
      "long": -122.314685,
      "timestamp": 1593801559000,
      "description": "Aid Response",
      "address": "308 14th Av E",
      "active": false,
      "unitCount": 2,
      "severity": 0,
      "neighborhood": "Capitol Hill",
      "neighborhoodGroup": "East",
      "units": "A25 R1"
    }
  },
  {
    "id_str": "F200064955",
    "created_at": "7/3/2020 11:28:22 AM",
    "derived": {
      "lat": 47.652407,
      "long": -122.388741,
      "timestamp": 1593800902000,
      "description": "Aid Response",
      "address": "3616 26th Pl W",
      "active": false,
      "unitCount": 1,
      "severity": 0,
      "neighborhood": "Interbay",
      "neighborhoodGroup": "Magnolia/Queen Anne",
      "units": "E41"
    }
  },
  {
    "id_str": "F200064954",
    "created_at": "7/3/2020 11:27:03 AM",
    "derived": {
      "lat": 47.600871,
      "long": -122.326354,
      "timestamp": 1593800823000,
      "description": "MVI - Motor Vehicle Incident",
      "address": "6th Ave S / S Washington St",
      "active": false,
      "unitCount": 1,
      "severity": 0,
      "neighborhood": "Pioneer Square/International District",
      "neighborhoodGroup": "Downtown",
      "units": "L1"
    }
  },
  {
    "id_str": "F200064953",
    "created_at": "7/3/2020 11:22:02 AM",
    "derived": {
      "lat": 47.601663,
      "long": -122.299799,
      "timestamp": 1593800522000,
      "description": "Scenes Of Violence 7",
      "address": "2516 E Yesler Way",
      "active": false,
      "unitCount": 6,
      "severity": 1,
      "neighborhood": "Central Area/Squire Park",
      "neighborhoodGroup": "Central",
      "units": "A5 B2 B5 E10 M1 M44"
    }
  },
  {
    "id_str": "F200064952",
    "created_at": "7/3/2020 11:20:18 AM",
    "derived": {
      "lat": 47.503659,
      "long": -122.251622,
      "timestamp": 1593800418000,
      "description": "Medic Response, 7 per Rule",
      "address": "10800 Renton Ave S",
      "active": false,
      "unitCount": 3,
      "severity": 0,
      "neighborhood": "Rainier Beach",
      "neighborhoodGroup": "Southeast",
      "units": "E28 E33 M28"
    }
  },
  {
    "id_str": "F200064949",
    "created_at": "7/3/2020 11:15:19 AM",
    "derived": {
      "lat": 47.574388,
      "long": -122.339934,
      "timestamp": 1593800119000,
      "description": "Aid Response",
      "address": "East Marginal Way S / S Horton St",
      "active": false,
      "unitCount": 1,
      "severity": 0,
      "neighborhood": "Duwamish/SODO",
      "neighborhoodGroup": "Greater Duwamish",
      "units": "E13"
    }
  },
  {
    "id_str": "F200064946",
    "created_at": "7/3/2020 11:04:51 AM",
    "derived": {
      "lat": 47.683124,
      "long": -122.400412,
      "timestamp": 1593799491000,
      "description": "Aid Response",
      "address": "Nw 75th St / 34th Ave Nw",
      "active": false,
      "unitCount": 1,
      "severity": 0,
      "neighborhood": "Sunset Hill/Loyal Heights",
      "neighborhoodGroup": "Ballard",
      "units": "E35"
    }
  },
  {
    "id_str": "F200064944",
    "created_at": "7/3/2020 11:01:50 AM",
    "derived": {
      "lat": 47.620886,
      "long": -122.341811,
      "timestamp": 1593799310000,
      "description": "Aid Response",
      "address": "771 Thomas St",
      "active": false,
      "unitCount": 1,
      "severity": 0,
      "neighborhood": "Cascade/Eastlake",
      "neighborhoodGroup": "Lake Union",
      "units": "A4"
    }
  },
  {
    "id_str": "F200064943",
    "created_at": "7/3/2020 10:59:17 AM",
    "derived": {
      "lat": 47.675975,
      "long": -122.368972,
      "timestamp": 1593799157000,
      "description": "Aid Response",
      "address": "923 Nw 65th St",
      "active": false,
      "unitCount": 1,
      "severity": 0,
      "neighborhood": "Whittier Heights",
      "neighborhoodGroup": "Ballard",
      "units": "E18"
    }
  },
  {
    "id_str": "F200064942",
    "created_at": "7/3/2020 10:57:16 AM",
    "derived": {
      "lat": 47.65932,
      "long": -122.347386,
      "timestamp": 1593799036000,
      "description": "Low Acuity Response",
      "address": "4251 Aurora Ave N",
      "active": false,
      "unitCount": 1,
      "severity": 0,
      "neighborhood": "Fremont",
      "neighborhoodGroup": "Lake Union",
      "units": "E9"
    }
  },
  {
    "id_str": "F200064941",
    "created_at": "7/3/2020 10:54:12 AM",
    "derived": {
      "lat": 47.528165,
      "long": -122.322781,
      "timestamp": 1593798852000,
      "description": "Aid Response",
      "address": "808 S Thistle St",
      "active": false,
      "unitCount": 1,
      "severity": 0,
      "neighborhood": "South Park",
      "neighborhoodGroup": "Greater Duwamish",
      "units": "E26"
    }
  },
  {
    "id_str": "F200064939",
    "created_at": "7/3/2020 10:48:15 AM",
    "derived": {
      "lat": 47.619739,
      "long": -122.347611,
      "timestamp": 1593798495000,
      "description": "Aid Response",
      "address": "201 5th Av N",
      "active": false,
      "unitCount": 1,
      "severity": 0,
      "neighborhood": "Cascade/Eastlake",
      "neighborhoodGroup": "Lake Union",
      "units": "A2"
    }
  },
  {
    "id_str": "F200064938",
    "created_at": "7/3/2020 10:48:13 AM",
    "derived": {
      "lat": 47.655963,
      "long": -122.339821,
      "timestamp": 1593798493000,
      "description": "Low Acuity Response",
      "address": "4026 Ashworth Ave N",
      "active": false,
      "unitCount": 1,
      "severity": 0,
      "neighborhood": "Fremont",
      "neighborhoodGroup": "Lake Union",
      "units": "E9"
    }
  },
  {
    "id_str": "F200064937",
    "created_at": "7/3/2020 10:39:46 AM",
    "derived": {
      "lat": 47.676481,
      "long": -122.368704,
      "timestamp": 1593797986000,
      "description": "Low Acuity Response",
      "address": "6558 9th Ave Nw",
      "active": false,
      "unitCount": 2,
      "severity": 0,
      "neighborhood": "Whittier Heights",
      "neighborhoodGroup": "Ballard",
      "units": "E18 L4"
    }
  },
  {
    "id_str": "F200064935",
    "created_at": "7/3/2020 10:10:29 AM",
    "derived": {
      "lat": 47.571408,
      "long": -122.291001,
      "timestamp": 1593796229000,
      "description": "Aid Response",
      "address": "3621 33rd Av S",
      "active": false,
      "unitCount": 1,
      "severity": 0,
      "neighborhood": "Columbia City",
      "neighborhoodGroup": "Southeast",
      "units": "E30"
    }
  },
  {
    "id_str": "F200064933",
    "created_at": "7/3/2020 10:06:25 AM",
    "derived": {
      "lat": 47.724172,
      "long": -122.342285,
      "timestamp": 1593795985000,
      "description": "MVI - Motor Vehicle Incident",
      "address": "13102 Stone Av N",
      "active": false,
      "unitCount": 1,
      "severity": 0,
      "neighborhood": "Haller Lake",
      "neighborhoodGroup": "Northwest",
      "units": "E24"
    }
  },
  {
    "id_str": "F200064931",
    "created_at": "7/3/2020 10:03:08 AM",
    "derived": {
      "lat": 47.567999,
      "long": -122.326756,
      "timestamp": 1593795788000,
      "description": "AFA4 - Auto Alarm 2 + 1 + 1",
      "address": "4005 6th Av S",
      "active": false,
      "unitCount": 4,
      "severity": 0,
      "neighborhood": "Duwamish/SODO",
      "neighborhoodGroup": "Greater Duwamish",
      "units": "B7 E13 E36 R1"
    }
  },
  {
    "id_str": "F200064929",
    "created_at": "7/3/2020 9:52:03 AM",
    "derived": {
      "lat": 47.667247,
      "long": -122.317378,
      "timestamp": 1593795123000,
      "description": "Aid Response",
      "address": "5320 Roosevelt Way Ne",
      "active": false,
      "unitCount": 1,
      "severity": 0,
      "neighborhood": "University District",
      "neighborhoodGroup": "Northeast",
      "units": "E17"
    }
  },
  {
    "id_str": "F200064927",
    "created_at": "7/3/2020 9:47:28 AM",
    "derived": {
      "lat": 47.624561,
      "long": -122.347571,
      "timestamp": 1593794848000,
      "description": "Aid Response",
      "address": "500 Mercer St",
      "active": false,
      "unitCount": 2,
      "severity": 0,
      "neighborhood": "Cascade/Eastlake",
      "neighborhoodGroup": "Lake Union",
      "units": "A2 A4"
    }
  },
  {
    "id_str": "F200064926",
    "created_at": "7/3/2020 9:39:56 AM",
    "derived": {
      "lat": 47.621288,
      "long": -122.322118,
      "timestamp": 1593794396000,
      "description": "Rescue Elevator",
      "address": "325 Harvard Av E",
      "active": false,
      "unitCount": 3,
      "severity": 0,
      "neighborhood": "Capitol Hill",
      "neighborhoodGroup": "East",
      "units": "A14 L10 R1"
    }
  },
  {
    "id_str": "F200064925",
    "created_at": "7/3/2020 9:38:51 AM",
    "derived": {
      "lat": 47.581214,
      "long": -122.391903,
      "timestamp": 1593794331000,
      "description": "Aid Response",
      "address": "4700 Sw Admiral Way",
      "active": false,
      "unitCount": 1,
      "severity": 0,
      "neighborhood": "West Seattle Junction/Genesee Hill",
      "neighborhoodGroup": "Southwest",
      "units": "E29"
    }
  },
  {
    "id_str": "F200064924",
    "created_at": "7/3/2020 9:34:37 AM",
    "derived": {
      "lat": 47.520451,
      "long": -122.336003,
      "timestamp": 1593794077000,
      "description": "Aid Response",
      "address": "9240 2nd Av Sw",
      "active": false,
      "unitCount": 1,
      "severity": 0,
      "units": "E26"
    }
  },
  {
    "id_str": "F200064923",
    "created_at": "7/3/2020 9:30:01 AM",
    "derived": {
      "lat": 47.57922,
      "long": -122.298814,
      "timestamp": 1593793801000,
      "description": "Aid Response",
      "address": "2700 Rainier Av S",
      "active": false,
      "unitCount": 1,
      "severity": 0,
      "neighborhood": "Mt. Baker/North Rainier",
      "neighborhoodGroup": "Southeast",
      "units": "E30"
    }
  },
  {
    "id_str": "F200064922",
    "created_at": "7/3/2020 9:29:28 AM",
    "derived": {
      "lat": 47.625231,
      "long": -122.322383,
      "timestamp": 1593793768000,
      "description": "Aid Response",
      "address": "714 Harvard Av E",
      "active": false,
      "unitCount": 1,
      "severity": 0,
      "neighborhood": "North Capitol Hill",
      "neighborhoodGroup": "East",
      "units": "A25"
    }
  },
  {
    "id_str": "F200064921",
    "created_at": "7/3/2020 9:20:57 AM",
    "derived": {
      "lat": 47.602926,
      "long": -122.298911,
      "timestamp": 1593793257000,
      "description": "Aid Response",
      "address": "175 26th Ave",
      "active": false,
      "unitCount": 1,
      "severity": 0,
      "neighborhood": "Central Area/Squire Park",
      "neighborhoodGroup": "Central",
      "units": "L3"
    }
  },
  {
    "id_str": "F200064918",
    "created_at": "7/3/2020 9:10:08 AM",
    "derived": {
      "lat": 47.653549,
      "long": -122.369549,
      "timestamp": 1593792608000,
      "description": "Aid Response",
      "address": "965 W Nickerson St",
      "active": false,
      "unitCount": 1,
      "severity": 0,
      "neighborhood": "Queen Anne",
      "neighborhoodGroup": "Magnolia/Queen Anne",
      "units": "E18"
    }
  },
  {
    "id_str": "F200064919",
    "created_at": "7/3/2020 9:09:42 AM",
    "derived": {
      "lat": 47.604841,
      "long": -122.324097,
      "timestamp": 1593792582000,
      "description": "Aid Response",
      "address": "9th Ave / Jefferson St",
      "active": false,
      "unitCount": 1,
      "severity": 0,
      "neighborhood": "First Hill",
      "neighborhoodGroup": "East",
      "units": "A25"
    }
  },
  {
    "id_str": "F200064916",
    "created_at": "7/3/2020 9:06:25 AM",
    "derived": {
      "lat": 47.658301,
      "long": -122.312071,
      "timestamp": 1593792385000,
      "description": "Aid Response",
      "address": "15th Ave Ne / Ne 42nd St",
      "active": false,
      "unitCount": 1,
      "severity": 0,
      "neighborhood": "University District",
      "neighborhoodGroup": "Northeast",
      "units": "E31"
    }
  },
  {
    "id_str": "F200064917",
    "created_at": "7/3/2020 9:06:21 AM",
    "derived": {
      "lat": 47.601723,
      "long": -122.33488,
      "timestamp": 1593792381000,
      "description": "Aid Response",
      "address": "89 Yesler Way",
      "active": false,
      "unitCount": 1,
      "severity": 0,
      "neighborhood": "Downtown Commercial Core",
      "neighborhoodGroup": "Downtown",
      "units": "E10"
    }
  },
  {
    "id_str": "F200064915",
    "created_at": "7/3/2020 9:04:34 AM",
    "derived": {
      "lat": 47.687904,
      "long": -122.325651,
      "timestamp": 1593792274000,
      "description": "Aid Response",
      "address": "8113 Latona Ave Ne",
      "active": false,
      "unitCount": 1,
      "severity": 0,
      "neighborhood": "Green Lake",
      "neighborhoodGroup": "Northwest",
      "units": "E17"
    }
  },
  {
    "id_str": "F200064914",
    "created_at": "7/3/2020 8:59:28 AM",
    "derived": {
      "lat": 47.590732,
      "long": -122.337336,
      "timestamp": 1593791968000,
      "description": "Aid Response",
      "address": "S Atlantic St / Alaskan Way S",
      "active": false,
      "unitCount": 2,
      "severity": 0,
      "neighborhood": "Duwamish/SODO",
      "neighborhoodGroup": "Greater Duwamish",
      "units": "A10 A5"
    }
  },
  {
    "id_str": "F200064911",
    "created_at": "7/3/2020 8:49:47 AM",
    "derived": {
      "lat": 47.613247,
      "long": -122.327187,
      "timestamp": 1593791387000,
      "description": "Aid Response",
      "address": "1431 Minor Av",
      "active": false,
      "unitCount": 2,
      "severity": 0,
      "neighborhood": "Capitol Hill",
      "neighborhoodGroup": "East",
      "units": "A25 M1"
    }
  },
  {
    "id_str": "F200064907",
    "created_at": "7/3/2020 8:41:26 AM",
    "derived": {
      "lat": 47.719716,
      "long": -122.312678,
      "timestamp": 1593790886000,
      "description": "Aid Response",
      "address": "12534 15th Av Ne",
      "active": false,
      "unitCount": 2,
      "severity": 0,
      "neighborhood": "Olympic Hills/Victory Heights",
      "neighborhoodGroup": "North",
      "units": "E39 L5"
    }
  },
  {
    "id_str": "F200064905",
    "created_at": "7/3/2020 8:15:09 AM",
    "derived": {
      "lat": 47.733943,
      "long": -122.311979,
      "timestamp": 1593789309000,
      "description": "Aid Response",
      "address": "1557 Ne 145th St",
      "active": false,
      "unitCount": 1,
      "severity": 0,
      "units": "E39"
    }
  },
  {
    "id_str": "F200064904",
    "created_at": "7/3/2020 8:06:21 AM",
    "derived": {
      "lat": 47.626585,
      "long": -122.368357,
      "timestamp": 1593788781000,
      "description": "Illegal Burn",
      "address": "W Roy St / Elliott Ave W",
      "active": false,
      "unitCount": 1,
      "severity": 0,
      "neighborhood": "Queen Anne",
      "neighborhoodGroup": "Magnolia/Queen Anne",
      "units": "E8"
    }
  },
  {
    "id_str": "F200064902",
    "created_at": "7/3/2020 8:04:54 AM",
    "derived": {
      "lat": 47.614085,
      "long": -122.326188,
      "timestamp": 1593788694000,
      "description": "Aid Response",
      "address": "415 E Pike St",
      "active": false,
      "unitCount": 1,
      "severity": 0,
      "neighborhood": "Capitol Hill",
      "neighborhoodGroup": "East",
      "units": "A25"
    }
  },
  {
    "id_str": "F200064899",
    "created_at": "7/3/2020 7:50:13 AM",
    "derived": {
      "lat": 47.617316,
      "long": -122.347229,
      "timestamp": 1593787813000,
      "description": "Aid Response",
      "address": "2614 4th Av",
      "active": false,
      "unitCount": 2,
      "severity": 0,
      "neighborhood": "Cascade/Eastlake",
      "neighborhoodGroup": "Lake Union",
      "units": "A2 M17"
    }
  },
  {
    "id_str": "F200064898",
    "created_at": "7/3/2020 7:41:59 AM",
    "derived": {
      "lat": 47.542203,
      "long": -122.272617,
      "timestamp": 1593787319000,
      "description": "Medic Response",
      "address": "6730 Rainier Av S",
      "active": false,
      "unitCount": 2,
      "severity": 0,
      "neighborhood": "Seward Park",
      "neighborhoodGroup": "Southeast",
      "units": "E28 M28"
    }
  },
  {
    "id_str": "F200064896",
    "created_at": "7/3/2020 7:33:48 AM",
    "derived": {
      "lat": 47.523041,
      "long": -122.313356,
      "timestamp": 1593786828000,
      "description": "Auto Fire Alarm",
      "address": "1600 S Henderson St",
      "active": false,
      "unitCount": 2,
      "severity": 0,
      "neighborhood": "South Park",
      "neighborhoodGroup": "Greater Duwamish",
      "units": "E26 R1"
    }
  },
  {
    "id_str": "F200064893",
    "created_at": "7/3/2020 7:31:40 AM",
    "derived": {
      "lat": 47.603061,
      "long": -122.337788,
      "timestamp": 1593786700000,
      "description": "4RED - 2 + 1 + 1",
      "address": "Marion St / Alaskan Way",
      "active": false,
      "unitCount": 4,
      "severity": 0,
      "neighborhood": "Downtown Commercial Core",
      "neighborhoodGroup": "Downtown",
      "units": "B5 E10 E5 L1"
    }
  },
  {
    "id_str": "F200064890",
    "created_at": "7/3/2020 7:13:03 AM",
    "derived": {
      "lat": 47.611943,
      "long": -122.325987,
      "timestamp": 1593785583000,
      "description": "Medic Response",
      "address": "1200 University St",
      "active": false,
      "unitCount": 2,
      "severity": 0,
      "neighborhood": "First Hill",
      "neighborhoodGroup": "East",
      "units": "A25 M1"
    }
  },
  {
    "id_str": "F200064887",
    "created_at": "7/3/2020 6:46:25 AM",
    "derived": {
      "lat": 47.555293,
      "long": -122.38973,
      "timestamp": 1593783985000,
      "description": "Activated CO Detector",
      "address": "5251 45th Ave Sw",
      "active": false,
      "unitCount": 1,
      "severity": 0,
      "neighborhood": "West Seattle Junction/Genesee Hill",
      "neighborhoodGroup": "Southwest",
      "units": "L11"
    }
  },
  {
    "id_str": "F200064885",
    "created_at": "7/3/2020 6:42:43 AM",
    "derived": {
      "lat": 47.649847,
      "long": -122.344754,
      "timestamp": 1593783763000,
      "description": "Aid Response",
      "address": "3512 Albion Pl N",
      "active": false,
      "unitCount": 2,
      "severity": 0,
      "neighborhood": "Fremont",
      "neighborhoodGroup": "Lake Union",
      "units": "E9 M17"
    }
  },
  {
    "id_str": "F200064882",
    "created_at": "7/3/2020 6:14:05 AM",
    "derived": {
      "lat": 47.626825,
      "long": -122.303387,
      "timestamp": 1593782045000,
      "description": "Rescue Standby",
      "address": "2215 E Aloha St",
      "active": false,
      "unitCount": 6,
      "severity": 1,
      "neighborhood": "Miller Park",
      "neighborhoodGroup": "East",
      "units": "A14 B2 E34 L10 M10 R1"
    }
  },
  {
    "id_str": "F200064878",
    "created_at": "7/3/2020 5:36:41 AM",
    "derived": {
      "lat": 47.690184,
      "long": -122.284956,
      "timestamp": 1593779801000,
      "description": "Aid Response",
      "address": "4038 Ne 85th St",
      "active": false,
      "unitCount": 2,
      "severity": 0,
      "neighborhood": "Wedgwood/View Ridge",
      "neighborhoodGroup": "Northeast",
      "units": "E40 M17"
    }
  },
  {
    "id_str": "F200064876",
    "created_at": "7/3/2020 5:20:19 AM",
    "derived": {
      "lat": 47.510113,
      "long": -122.377011,
      "timestamp": 1593778819000,
      "description": "Aid Response",
      "address": "10386 36th Ave Sw",
      "active": false,
      "unitCount": 1,
      "severity": 0,
      "neighborhood": "Arbor Heights",
      "neighborhoodGroup": "Southwest",
      "units": "E37"
    }
  },
  {
    "id_str": "F200064874",
    "created_at": "7/3/2020 5:11:41 AM",
    "derived": {
      "lat": 47.665705,
      "long": -122.376421,
      "timestamp": 1593778301000,
      "description": "Aid Response",
      "address": "1516 Nw 51st St",
      "active": false,
      "unitCount": 1,
      "severity": 0,
      "neighborhood": "Ballard",
      "neighborhoodGroup": "Ballard",
      "units": "E18"
    }
  },
  {
    "id_str": "F200064873",
    "created_at": "7/3/2020 5:00:40 AM",
    "derived": {
      "lat": 47.671012,
      "long": -122.256974,
      "timestamp": 1593777640000,
      "description": "1RED 1 Unit",
      "address": "6551 Ne Windermere Rd",
      "active": false,
      "unitCount": 1,
      "severity": 0,
      "neighborhood": "Laurelhurst/Sand Point",
      "neighborhoodGroup": "Northeast",
      "units": "E38"
    }
  },
  {
    "id_str": "F200064872",
    "created_at": "7/3/2020 4:53:41 AM",
    "derived": {
      "lat": 47.701698,
      "long": -122.362125,
      "timestamp": 1593777221000,
      "description": "Aid Response",
      "address": "9999 Holman Rd Nw",
      "active": false,
      "unitCount": 1,
      "severity": 0,
      "neighborhood": "North Beach/Blue Ridge",
      "neighborhoodGroup": "Ballard",
      "units": "E35"
    }
  },
  {
    "id_str": "F200064871",
    "created_at": "7/3/2020 4:51:54 AM",
    "derived": {
      "lat": 47.654462,
      "long": -122.347201,
      "timestamp": 1593777114000,
      "description": "Aid Response",
      "address": "3926 Aurora Av N",
      "active": false,
      "unitCount": 1,
      "severity": 0,
      "neighborhood": "Fremont",
      "neighborhoodGroup": "Lake Union",
      "units": "E9"
    }
  },
  {
    "id_str": "F200064868",
    "created_at": "7/3/2020 4:37:25 AM",
    "derived": {
      "lat": 47.577768,
      "long": -122.310806,
      "timestamp": 1593776245000,
      "description": "Alarm Bell",
      "address": "2902 Beacon Av S",
      "active": false,
      "unitCount": 2,
      "severity": 0,
      "neighborhood": "North Beacon Hill/Jefferson Park",
      "neighborhoodGroup": "Greater Duwamish",
      "units": "E13 R1"
    }
  },
  {
    "id_str": "F200064864",
    "created_at": "7/3/2020 4:30:54 AM",
    "derived": {
      "lat": 47.614089,
      "long": -122.325514,
      "timestamp": 1593775854000,
      "description": "Aid Response",
      "address": "E Pike St / Summit Ave",
      "active": false,
      "unitCount": 1,
      "severity": 0,
      "neighborhood": "Capitol Hill",
      "neighborhoodGroup": "East",
      "units": "A25"
    }
  },
  {
    "id_str": "F200064863",
    "created_at": "7/3/2020 3:53:45 AM",
    "derived": {
      "lat": 47.613308,
      "long": -122.342432,
      "timestamp": 1593773625000,
      "description": "Aid Response",
      "address": "2119 3rd Av",
      "active": false,
      "unitCount": 1,
      "severity": 0,
      "neighborhood": "Cascade/Eastlake",
      "neighborhoodGroup": "Lake Union",
      "units": "A2"
    }
  },
  {
    "id_str": "F200064862",
    "created_at": "7/3/2020 3:49:55 AM",
    "derived": {
      "lat": 47.600013,
      "long": -122.302235,
      "timestamp": 1593773395000,
      "description": "Alarm Bell",
      "address": "329 23rd Ave S",
      "active": false,
      "unitCount": 2,
      "severity": 0,
      "neighborhood": "Madrona/Leschi",
      "neighborhoodGroup": "Central",
      "units": "E10 L1"
    }
  },
  {
    "id_str": "F200064861",
    "created_at": "7/3/2020 3:49:11 AM",
    "derived": {
      "lat": 47.599276,
      "long": -122.303156,
      "timestamp": 1593773351000,
      "description": "Auto Fire Alarm",
      "address": "2212 S Jackson St",
      "active": false,
      "unitCount": 2,
      "severity": 0,
      "neighborhood": "Judkins Park",
      "neighborhoodGroup": "Central",
      "units": "E6 L3"
    }
  },
  {
    "id_str": "F200064860",
    "created_at": "7/3/2020 3:43:12 AM",
    "derived": {
      "lat": 47.601719,
      "long": -122.331966,
      "timestamp": 1593772992000,
      "description": "Aid Response",
      "address": "201 Yesler Way",
      "active": false,
      "unitCount": 1,
      "severity": 0,
      "neighborhood": "Downtown Commercial Core",
      "neighborhoodGroup": "Downtown",
      "units": "A10"
    }
  },
  {
    "id_str": "F200064857",
    "created_at": "7/3/2020 3:14:36 AM",
    "derived": {
      "lat": 47.690625,
      "long": -122.360648,
      "timestamp": 1593771276000,
      "description": "Aid Response",
      "address": "3rd Ave Nw / Nw 85th St",
      "active": false,
      "unitCount": 1,
      "severity": 0,
      "neighborhood": "Greenwood/Phinney Ridge",
      "neighborhoodGroup": "Northwest",
      "units": "E21"
    }
  },
  {
    "id_str": "F200064855",
    "created_at": "7/3/2020 3:07:59 AM",
    "derived": {
      "lat": 47.576766,
      "long": -122.386721,
      "timestamp": 1593770879000,
      "description": "Auto Fire Alarm",
      "address": "3033 California Av Sw",
      "active": false,
      "unitCount": 2,
      "severity": 0,
      "neighborhood": "West Seattle Junction/Genesee Hill",
      "neighborhoodGroup": "Southwest",
      "units": "E29 L11"
    }
  },
  {
    "id_str": "F200064854",
    "created_at": "7/3/2020 2:47:21 AM",
    "derived": {
      "lat": 47.608197,
      "long": -122.298866,
      "timestamp": 1593769641000,
      "description": "Medic Response",
      "address": "720 26th Ave",
      "active": false,
      "unitCount": 2,
      "severity": 0,
      "neighborhood": "Central Area/Squire Park",
      "neighborhoodGroup": "Central",
      "units": "E6 M1"
    }
  },
  {
    "id_str": "F200064853",
    "created_at": "7/3/2020 2:38:39 AM",
    "derived": {
      "lat": 47.592396,
      "long": -122.334195,
      "timestamp": 1593769119000,
      "description": "Aid Response",
      "address": "1st Ave S / S Royal Brougham Way",
      "active": false,
      "unitCount": 1,
      "severity": 0,
      "neighborhood": "Duwamish/SODO",
      "neighborhoodGroup": "Greater Duwamish",
      "units": "A5"
    }
  },
  {
    "id_str": "F200064850",
    "created_at": "7/3/2020 2:16:16 AM",
    "derived": {
      "lat": 47.52101,
      "long": -122.269997,
      "timestamp": 1593767776000,
      "description": "MVI - Motor Vehicle Incident",
      "address": "9201 Rainier Av S",
      "active": false,
      "unitCount": 1,
      "severity": 0,
      "neighborhood": "Rainier Beach",
      "neighborhoodGroup": "Southeast",
      "units": "E33"
    }
  },
  {
    "id_str": "F200064849",
    "created_at": "7/3/2020 2:01:30 AM",
    "derived": {
      "lat": 47.622242,
      "long": -122.332995,
      "timestamp": 1593766890000,
      "description": "Aid Response",
      "address": "424 Minor Av N",
      "active": false,
      "unitCount": 1,
      "severity": 0,
      "neighborhood": "Cascade/Eastlake",
      "neighborhoodGroup": "Lake Union",
      "units": "A2"
    }
  },
  {
    "id_str": "F200064847",
    "created_at": "7/3/2020 1:58:20 AM",
    "derived": {
      "lat": 47.544495,
      "long": -122.380512,
      "timestamp": 1593766700000,
      "description": "Medic Response",
      "address": "6521 38th Ave Sw",
      "active": false,
      "unitCount": 2,
      "severity": 0,
      "neighborhood": "Fauntleroy/Seaview",
      "neighborhoodGroup": "Southwest",
      "units": "E37 M32"
    }
  },
  {
    "id_str": "F200064844",
    "created_at": "7/3/2020 1:28:03 AM",
    "derived": {
      "lat": 47.605624,
      "long": -122.334019,
      "timestamp": 1593764883000,
      "description": "Aid Response",
      "address": "3RD AVE / MADISON ST",
      "active": false,
      "unitCount": 1,
      "severity": 0,
      "neighborhood": "Downtown Commercial Core",
      "neighborhoodGroup": "Downtown",
      "units": "A10"
    }
  },
  {
    "id_str": "F200064843",
    "created_at": "7/3/2020 1:27:25 AM",
    "derived": {
      "lat": 47.562472,
      "long": -122.385455,
      "timestamp": 1593764845000,
      "description": "Low Acuity Response",
      "address": "4545 42nd Av Sw",
      "active": false,
      "unitCount": 1,
      "severity": 0,
      "neighborhood": "West Seattle Junction/Genesee Hill",
      "neighborhoodGroup": "Southwest",
      "units": "E32"
    }
  },
  {
    "id_str": "F200064842",
    "created_at": "7/3/2020 1:26:24 AM",
    "derived": {
      "lat": 47.690626,
      "long": -122.360747,
      "timestamp": 1593764784000,
      "description": "Aid Response",
      "address": "312 Nw 85th St",
      "active": false,
      "unitCount": 1,
      "severity": 0,
      "neighborhood": "Greenwood/Phinney Ridge",
      "neighborhoodGroup": "Northwest",
      "units": "E21"
    }
  },
  {
    "id_str": "F200064841",
    "created_at": "7/3/2020 1:25:15 AM",
    "derived": {
      "lat": 47.599195,
      "long": -122.327667,
      "timestamp": 1593764715000,
      "description": "Aid Response",
      "address": "5th Ave S / S Jackson St",
      "active": false,
      "unitCount": 1,
      "severity": 0,
      "neighborhood": "Pioneer Square/International District",
      "neighborhoodGroup": "Downtown",
      "units": "A5"
    }
  },
  {
    "id_str": "F200064837",
    "created_at": "7/3/2020 12:56:52 AM",
    "derived": {
      "lat": 47.617717,
      "long": -122.330057,
      "timestamp": 1593763012000,
      "description": "Aid Response",
      "address": "1828 Yale Av",
      "active": false,
      "unitCount": 2,
      "severity": 0,
      "neighborhood": "Cascade/Eastlake",
      "neighborhoodGroup": "Lake Union",
      "units": "A2 M10"
    }
  },
  {
    "id_str": "F200064836",
    "created_at": "7/3/2020 12:37:36 AM",
    "derived": {
      "lat": 47.667464,
      "long": -122.399817,
      "timestamp": 1593761856000,
      "description": "Aid Response",
      "address": "3244 NW 54TH ST",
      "active": false,
      "unitCount": 1,
      "severity": 0,
      "neighborhood": "Sunset Hill/Loyal Heights",
      "neighborhoodGroup": "Ballard",
      "units": "E18"
    }
  },
  {
    "id_str": "F200064835",
    "created_at": "7/3/2020 12:29:28 AM",
    "derived": {
      "lat": 47.697565,
      "long": -122.275333,
      "timestamp": 1593761368000,
      "description": "Aid Response",
      "address": "9515 49th Ave Ne",
      "active": false,
      "unitCount": 1,
      "severity": 0,
      "neighborhood": "Cedar Park/Meadowbrook",
      "neighborhoodGroup": "North",
      "units": "E40"
    }
  },
  {
    "id_str": "F200064834",
    "created_at": "7/3/2020 12:11:25 AM",
    "derived": {
      "lat": 47.613247,
      "long": -122.327187,
      "timestamp": 1593760285000,
      "description": "Aid Response",
      "address": "1431 Minor Av",
      "active": false,
      "unitCount": 2,
      "severity": 0,
      "neighborhood": "Capitol Hill",
      "neighborhoodGroup": "East",
      "units": "A25 E25"
    }
  },
  {
    "id_str": "F200064832",
    "created_at": "7/2/2020 11:55:56 PM",
    "derived": {
      "lat": 47.616499,
      "long": -122.325545,
      "timestamp": 1593759356000,
      "description": "Aid Response",
      "address": "1712 Summit Av",
      "active": false,
      "unitCount": 3,
      "severity": 0,
      "neighborhood": "Capitol Hill",
      "neighborhoodGroup": "East",
      "units": "A2 A25 M1"
    }
  },
  {
    "id_str": "F200064831",
    "created_at": "7/2/2020 11:55:16 PM",
    "derived": {
      "lat": 47.553321,
      "long": -122.362969,
      "timestamp": 1593759316000,
      "description": "Aid Response",
      "address": "5444 Delridge Way Sw",
      "active": false,
      "unitCount": 1,
      "severity": 0,
      "neighborhood": "High Point",
      "neighborhoodGroup": "Delridge Neighborhoods",
      "units": "E36"
    }
  },
  {
    "id_str": "F200064828",
    "created_at": "7/2/2020 11:32:16 PM",
    "derived": {
      "lat": 47.634237,
      "long": -122.322398,
      "timestamp": 1593757936000,
      "description": "Aid Response",
      "address": "1603 Lakeview Blvd E",
      "active": false,
      "unitCount": 1,
      "severity": 0,
      "neighborhood": "Cascade/Eastlake",
      "neighborhoodGroup": "Lake Union",
      "units": "A2"
    }
  },
  {
    "id_str": "F200064823",
    "created_at": "7/2/2020 11:17:37 PM",
    "derived": {
      "lat": 47.610396,
      "long": -122.327328,
      "timestamp": 1593757057000,
      "description": "Aid Response",
      "address": "1020 Seneca St",
      "active": false,
      "unitCount": 1,
      "severity": 0,
      "neighborhood": "First Hill",
      "neighborhoodGroup": "East",
      "units": "A10"
    }
  },
  {
    "id_str": "F200064822",
    "created_at": "7/2/2020 11:16:45 PM",
    "derived": {
      "lat": 47.623222,
      "long": -122.333001,
      "timestamp": 1593757005000,
      "description": "Medic Response, 7 per Rule",
      "address": "510 MINOR AV N",
      "active": false,
      "unitCount": 6,
      "severity": 1,
      "neighborhood": "Cascade/Eastlake",
      "neighborhoodGroup": "Lake Union",
      "units": "A2 A25 E2 E25 L4 M10"
    }
  },
  {
    "id_str": "F200064820",
    "created_at": "7/2/2020 11:14:28 PM",
    "derived": {
      "lat": 47.621968,
      "long": -122.331711,
      "timestamp": 1593756868000,
      "description": "1RED 1 Unit",
      "address": "Harrison St / Pontius Ave N",
      "active": false,
      "unitCount": 1,
      "severity": 0,
      "neighborhood": "Cascade/Eastlake",
      "neighborhoodGroup": "Lake Union",
      "units": "E2"
    }
  },
  {
    "id_str": "F200064819",
    "created_at": "7/2/2020 11:13:30 PM",
    "derived": {
      "lat": 47.53705,
      "long": -122.280473,
      "timestamp": 1593756810000,
      "description": "Aid Response",
      "address": "4219 S OTHELLO ST",
      "active": false,
      "unitCount": 1,
      "severity": 0,
      "neighborhood": "Columbia City",
      "neighborhoodGroup": "Southeast",
      "units": "E28"
    }
  },
  {
    "id_str": "F200064818",
    "created_at": "7/2/2020 11:09:44 PM",
    "derived": {
      "lat": 47.642016,
      "long": -122.370063,
      "timestamp": 1593756584000,
      "description": "Aid Response",
      "address": "W Halladay St / 10th Ave W",
      "active": false,
      "unitCount": 1,
      "severity": 0,
      "neighborhood": "Queen Anne",
      "neighborhoodGroup": "Magnolia/Queen Anne",
      "units": "E20"
    }
  },
  {
    "id_str": "F200064815",
    "created_at": "7/2/2020 10:44:25 PM",
    "derived": {
      "lat": 47.650855,
      "long": -122.346644,
      "timestamp": 1593755065000,
      "description": "Investigate Out Of Service",
      "address": "916 N 36th St",
      "active": false,
      "unitCount": 1,
      "severity": 0,
      "neighborhood": "Fremont",
      "neighborhoodGroup": "Lake Union",
      "units": "E9"
    }
  },
  {
    "id_str": "F200064813",
    "created_at": "7/2/2020 10:41:16 PM",
    "derived": {
      "lat": 47.562517,
      "long": -122.385455,
      "timestamp": 1593754876000,
      "description": "Aid Response",
      "address": "4540 42nd Av Sw",
      "active": false,
      "unitCount": 1,
      "severity": 0,
      "neighborhood": "West Seattle Junction/Genesee Hill",
      "neighborhoodGroup": "Southwest",
      "units": "E32"
    }
  },
  {
    "id_str": "F200064812",
    "created_at": "7/2/2020 10:33:45 PM",
    "derived": {
      "lat": 47.604377,
      "long": -122.325207,
      "timestamp": 1593754425000,
      "description": "Medic Response",
      "address": "800 Jefferson St",
      "active": false,
      "unitCount": 2,
      "severity": 0,
      "neighborhood": "First Hill",
      "neighborhoodGroup": "East",
      "units": "A5 M1"
    }
  },
  {
    "id_str": "F200064811",
    "created_at": "7/2/2020 10:32:07 PM",
    "derived": {
      "lat": 47.580994,
      "long": -122.300167,
      "timestamp": 1593754327000,
      "description": "MVI - Motor Vehicle Incident",
      "address": "S BAYVIEW ST / RAINIER AVE S",
      "active": false,
      "unitCount": 1,
      "severity": 0,
      "neighborhood": "Mt. Baker/North Rainier",
      "neighborhoodGroup": "Southeast",
      "units": "E30"
    }
  },
  {
    "id_str": "F200064810",
    "created_at": "7/2/2020 10:31:40 PM",
    "derived": {
      "lat": 47.618497,
      "long": -122.327854,
      "timestamp": 1593754300000,
      "description": "Low Acuity Response",
      "address": "100 Melrose Av E",
      "active": false,
      "unitCount": 1,
      "severity": 0,
      "neighborhood": "Capitol Hill",
      "neighborhoodGroup": "East",
      "units": "A25"
    }
  },
  {
    "id_str": "F200064809",
    "created_at": "7/2/2020 10:16:51 PM",
    "derived": {
      "lat": 47.610964,
      "long": -122.340452,
      "timestamp": 1593753411000,
      "description": "Rubbish Fire",
      "address": "2nd Ave / Stewart St",
      "active": false,
      "unitCount": 1,
      "severity": 0,
      "neighborhood": "Belltown",
      "neighborhoodGroup": "Downtown",
      "units": "E5"
    }
  },
  {
    "id_str": "F200064807",
    "created_at": "7/2/2020 10:02:06 PM",
    "derived": {
      "lat": 47.708899,
      "long": -122.320568,
      "timestamp": 1593752526000,
      "description": "Aid Response",
      "address": "11045 8th Av Ne",
      "active": false,
      "unitCount": 1,
      "severity": 0,
      "neighborhood": "Northgate/Maple Leaf",
      "neighborhoodGroup": "North",
      "units": "E39"
    }
  },
  {
    "id_str": "F200064808",
    "created_at": "7/2/2020 10:01:31 PM",
    "derived": {
      "lat": 47.610003,
      "long": -122.338025,
      "timestamp": 1593752491000,
      "description": "Alarm Bell",
      "address": "1526 3rd Av",
      "active": false,
      "unitCount": 2,
      "severity": 0,
      "neighborhood": "Downtown Commercial Core",
      "neighborhoodGroup": "Downtown",
      "units": "E5 L4"
    }
  },
  {
    "id_str": "F200064805",
    "created_at": "7/2/2020 9:54:24 PM",
    "derived": {
      "lat": 47.612524,
      "long": -122.341104,
      "timestamp": 1593752064000,
      "description": "Medic Response",
      "address": "2017 3rd Ave",
      "active": false,
      "unitCount": 2,
      "severity": 0,
      "neighborhood": "Cascade/Eastlake",
      "neighborhoodGroup": "Lake Union",
      "units": "A2 M10"
    }
  },
  {
    "id_str": "F200064804",
    "created_at": "7/2/2020 9:39:06 PM",
    "derived": {
      "lat": 47.609088,
      "long": -122.330457,
      "timestamp": 1593751146000,
      "description": "Auto Fire Alarm",
      "address": "720 Seneca St",
      "active": false,
      "unitCount": 2,
      "severity": 0,
      "neighborhood": "First Hill",
      "neighborhoodGroup": "East",
      "units": "E5 L1"
    }
  },
  {
    "id_str": "F200064803",
    "created_at": "7/2/2020 9:32:41 PM",
    "derived": {
      "lat": 47.581022,
      "long": -122.316019,
      "timestamp": 1593750761000,
      "description": "Illegal Burn",
      "address": "13th Av S / S Bayview St",
      "active": false,
      "unitCount": 1,
      "severity": 0,
      "neighborhood": "Duwamish/SODO",
      "neighborhoodGroup": "Greater Duwamish",
      "units": "E13"
    }
  },
  {
    "id_str": "F200064802",
    "created_at": "7/2/2020 9:30:27 PM",
    "derived": {
      "lat": 47.636693,
      "long": -122.371636,
      "timestamp": 1593750627000,
      "description": "Low Acuity Response",
      "address": "1925 11th Av W",
      "active": false,
      "unitCount": 1,
      "severity": 0,
      "neighborhood": "Queen Anne",
      "neighborhoodGroup": "Magnolia/Queen Anne",
      "units": "E20"
    }
  },
  {
    "id_str": "F200064801",
    "created_at": "7/2/2020 9:24:22 PM",
    "derived": {
      "lat": 47.641501,
      "long": -122.349136,
      "timestamp": 1593750262000,
      "description": "Medic Response",
      "address": "421 Smith St",
      "active": false,
      "unitCount": 2,
      "severity": 0,
      "neighborhood": "Queen Anne",
      "neighborhoodGroup": "Magnolia/Queen Anne",
      "units": "E9 M18"
    }
  },
  {
    "id_str": "F200064800",
    "created_at": "7/2/2020 9:23:04 PM",
    "derived": {
      "lat": 47.620219,
      "long": -122.304739,
      "timestamp": 1593750184000,
      "description": "Illegal Burn",
      "address": "21ST AVE E / E JOHN ST",
      "active": false,
      "unitCount": 1,
      "severity": 0,
      "neighborhood": "Miller Park",
      "neighborhoodGroup": "East",
      "units": "E25"
    }
  },
  {
    "id_str": "F200064799",
    "created_at": "7/2/2020 9:23:04 PM",
    "derived": {
      "lat": 47.60252,
      "long": -122.329645,
      "timestamp": 1593750184000,
      "description": "Aid Response",
      "address": "4th Ave / Jefferson St",
      "active": false,
      "unitCount": 1,
      "severity": 0,
      "neighborhood": "Downtown Commercial Core",
      "neighborhoodGroup": "Downtown",
      "units": "A10"
    }
  },
  {
    "id_str": "F200064798",
    "created_at": "7/2/2020 9:20:16 PM",
    "derived": {
      "lat": 47.638458,
      "long": -122.325894,
      "timestamp": 1593750016000,
      "description": "Medic Response",
      "address": "2215 Eastlake Av E",
      "active": false,
      "unitCount": 2,
      "severity": 0,
      "neighborhood": "Cascade/Eastlake",
      "neighborhoodGroup": "Lake Union",
      "units": "E22 M17"
    }
  },
  {
    "id_str": "F200064797",
    "created_at": "7/2/2020 9:17:32 PM",
    "derived": {
      "lat": 47.548793,
      "long": -122.315055,
      "timestamp": 1593749852000,
      "description": "MVI - Motor Vehicle Incident",
      "address": "Nb I5 Fr Michigan",
      "active": false,
      "unitCount": 3,
      "severity": 0,
      "neighborhood": "Beacon Hill",
      "neighborhoodGroup": "Greater Duwamish",
      "units": "A14 E26 E27"
    }
  },
  {
    "id_str": "F200064795",
    "created_at": "7/2/2020 9:05:43 PM",
    "derived": {
      "lat": 47.556035,
      "long": -122.292953,
      "timestamp": 1593749143000,
      "description": "Aid Response",
      "address": "5039 31st Av S",
      "active": false,
      "unitCount": 1,
      "severity": 0,
      "neighborhood": "Beacon Hill",
      "neighborhoodGroup": "Greater Duwamish",
      "units": "E28"
    }
  },
  {
    "id_str": "F200064794",
    "created_at": "7/2/2020 8:58:10 PM",
    "derived": {
      "lat": 47.53325,
      "long": -122.283311,
      "timestamp": 1593748690000,
      "description": "Medic Response",
      "address": "7710 39th Ave S",
      "active": false,
      "unitCount": 2,
      "severity": 0,
      "neighborhood": "South Beacon Hill/NewHolly",
      "neighborhoodGroup": "Greater Duwamish",
      "units": "E33 M28"
    }
  },
  {
    "id_str": "F200064793",
    "created_at": "7/2/2020 8:56:05 PM",
    "derived": {
      "lat": 47.645803,
      "long": -122.360896,
      "timestamp": 1593748565000,
      "description": "Aid Response",
      "address": "2900 3rd Av W",
      "active": false,
      "unitCount": 1,
      "severity": 0,
      "neighborhood": "Queen Anne",
      "neighborhoodGroup": "Magnolia/Queen Anne",
      "units": "E9"
    }
  },
  {
    "id_str": "F200064791",
    "created_at": "7/2/2020 8:40:45 PM",
    "derived": {
      "lat": 47.537475,
      "long": -122.395079,
      "timestamp": 1593747645000,
      "description": "Medic Response",
      "address": "7307 View Ln Sw",
      "active": false,
      "unitCount": 2,
      "severity": 0,
      "neighborhood": "Fauntleroy/Seaview",
      "neighborhoodGroup": "Southwest",
      "units": "E37 M32"
    }
  },
  {
    "id_str": "F200064790",
    "created_at": "7/2/2020 8:40:04 PM",
    "derived": {
      "lat": 47.708558,
      "long": -122.317387,
      "timestamp": 1593747604000,
      "description": "Aid Response",
      "address": "1031 Ne Northgate Way",
      "active": false,
      "unitCount": 1,
      "severity": 0,
      "neighborhood": "Northgate/Maple Leaf",
      "neighborhoodGroup": "North",
      "units": "L5"
    }
  },
  {
    "id_str": "F200064789",
    "created_at": "7/2/2020 8:31:08 PM",
    "derived": {
      "lat": 47.708528,
      "long": -122.31243,
      "timestamp": 1593747068000,
      "description": "Aid Response",
      "address": "15th Ave Ne / Ne Northgate Way",
      "active": false,
      "unitCount": 1,
      "severity": 0,
      "neighborhood": "Northgate/Maple Leaf",
      "neighborhoodGroup": "North",
      "units": "E39"
    }
  },
  {
    "id_str": "F200064788",
    "created_at": "7/2/2020 8:19:25 PM",
    "derived": {
      "lat": 47.609685,
      "long": -122.334666,
      "timestamp": 1593746365000,
      "description": "Aid Response",
      "address": "1401 5TH AV",
      "active": false,
      "unitCount": 1,
      "severity": 0,
      "neighborhood": "Downtown Commercial Core",
      "neighborhoodGroup": "Downtown",
      "units": "A25"
    }
  },
  {
    "id_str": "F200064787",
    "created_at": "7/2/2020 8:09:03 PM",
    "derived": {
      "lat": 47.515651,
      "long": -122.266526,
      "timestamp": 1593745743000,
      "description": "Aid Response",
      "address": "9635 53rd Ave S",
      "active": false,
      "unitCount": 1,
      "severity": 0,
      "neighborhood": "Rainier Beach",
      "neighborhoodGroup": "Southeast",
      "units": "E33"
    }
  },
  {
    "id_str": "F200064785",
    "created_at": "7/2/2020 7:54:56 PM",
    "derived": {
      "lat": 47.731677,
      "long": -122.347772,
      "timestamp": 1593744896000,
      "description": "Aid Response",
      "address": "14200 LINDEN AV N",
      "active": false,
      "unitCount": 1,
      "severity": 0,
      "neighborhood": "Broadview/Bitter Lake",
      "neighborhoodGroup": "Northwest",
      "units": "E24"
    }
  },
  {
    "id_str": "F200064783",
    "created_at": "7/2/2020 7:52:37 PM",
    "derived": {
      "lat": 47.510019,
      "long": -122.380216,
      "timestamp": 1593744757000,
      "description": "Aid Response",
      "address": "3809 Sw 104th St",
      "active": false,
      "unitCount": 1,
      "severity": 0,
      "neighborhood": "Arbor Heights",
      "neighborhoodGroup": "Southwest",
      "units": "L13"
    }
  },
  {
    "id_str": "F200064781",
    "created_at": "7/2/2020 7:50:11 PM",
    "derived": {
      "lat": 47.544025,
      "long": -122.369848,
      "timestamp": 1593744611000,
      "description": "Medic Response",
      "address": "6535 30th Ave Sw",
      "active": false,
      "unitCount": 2,
      "severity": 0,
      "neighborhood": "High Point",
      "neighborhoodGroup": "Delridge Neighborhoods",
      "units": "E37 M32"
    }
  },
  {
    "id_str": "F200064780",
    "created_at": "7/2/2020 7:45:00 PM",
    "derived": {
      "lat": 47.613042,
      "long": -122.322094,
      "timestamp": 1593744300000,
      "description": "Aid Response",
      "address": "1406 Harvard Av",
      "active": false,
      "unitCount": 1,
      "severity": 0,
      "neighborhood": "Capitol Hill",
      "neighborhoodGroup": "East",
      "units": "A25"
    }
  },
  {
    "id_str": "F200064779",
    "created_at": "7/2/2020 7:32:16 PM",
    "derived": {
      "lat": 47.571408,
      "long": -122.291001,
      "timestamp": 1593743536000,
      "description": "Medic Response",
      "address": "3621 33rd Av S",
      "active": false,
      "unitCount": 2,
      "severity": 0,
      "neighborhood": "Columbia City",
      "neighborhoodGroup": "Southeast",
      "units": "E30 M28"
    }
  },
  {
    "id_str": "F200064778",
    "created_at": "7/2/2020 7:31:23 PM",
    "derived": {
      "lat": 47.633523,
      "long": -122.277157,
      "timestamp": 1593743483000,
      "description": "Unk Odor",
      "address": "1630 43rd Av E",
      "active": false,
      "unitCount": 1,
      "severity": 0,
      "neighborhood": "Madison Park",
      "neighborhoodGroup": "East",
      "units": "E34"
    }
  },
  {
    "id_str": "F200064776",
    "created_at": "7/2/2020 7:20:04 PM",
    "derived": {
      "lat": 47.601718,
      "long": -122.331581,
      "timestamp": 1593742804000,
      "description": "Aid Response",
      "address": "223 Yesler Way",
      "active": false,
      "unitCount": 1,
      "severity": 0,
      "neighborhood": "Downtown Commercial Core",
      "neighborhoodGroup": "Downtown",
      "units": "A5"
    }
  },
  {
    "id_str": "F200064768",
    "created_at": "7/2/2020 7:10:13 PM",
    "derived": {
      "lat": 47.618493,
      "long": -122.326726,
      "timestamp": 1593742213000,
      "description": "Rubbish Fire",
      "address": "Bellevue Ave / E Denny Way",
      "active": false,
      "unitCount": 1,
      "severity": 0,
      "neighborhood": "Capitol Hill",
      "neighborhoodGroup": "East",
      "units": "E25"
    }
  },
  {
    "id_str": "F200064766",
    "created_at": "7/2/2020 6:58:01 PM",
    "derived": {
      "lat": 47.536395,
      "long": -122.347089,
      "timestamp": 1593741481000,
      "description": "MVI - Motor Vehicle Incident",
      "address": "Sw Othello St / Highland Park Way Sw",
      "active": false,
      "unitCount": 1,
      "severity": 0,
      "neighborhood": "Highland Park",
      "neighborhoodGroup": "Delridge Neighborhoods",
      "units": "E11"
    }
  },
  {
    "id_str": "F200064763",
    "created_at": "7/2/2020 6:50:48 PM",
    "derived": {
      "lat": 47.601643,
      "long": -122.327656,
      "timestamp": 1593741048000,
      "description": "TEST - MIS TEST",
      "address": "105 5th Av S",
      "active": false,
      "unitCount": 1,
      "severity": 0,
      "neighborhood": "Pioneer Square/International District",
      "neighborhoodGroup": "Downtown",
      "units": "E32"
    }
  },
  {
    "id_str": "F200064762",
    "created_at": "7/2/2020 6:38:01 PM",
    "derived": {
      "lat": 47.601722,
      "long": -122.334179,
      "timestamp": 1593740281000,
      "description": "Aid Response",
      "address": "1st Ave / Yesler Way",
      "active": false,
      "unitCount": 2,
      "severity": 0,
      "neighborhood": "Downtown Commercial Core",
      "neighborhoodGroup": "Downtown",
      "units": "A10 A5"
    }
  },
  {
    "id_str": "F200064761",
    "created_at": "7/2/2020 6:22:20 PM",
    "derived": {
      "lat": 47.546004,
      "long": -122.38315,
      "timestamp": 1593739340000,
      "description": "Aid Response",
      "address": "6341 40th Ave Sw",
      "active": false,
      "unitCount": 1,
      "severity": 0,
      "neighborhood": "Fauntleroy/Seaview",
      "neighborhoodGroup": "Southwest",
      "units": "E32"
    }
  },
  {
    "id_str": "F200064760",
    "created_at": "7/2/2020 6:19:35 PM",
    "derived": {
      "lat": 47.667456,
      "long": -122.320677,
      "timestamp": 1593739175000,
      "description": "Automatic Fire Alarm Resd",
      "address": "5345 7th Ave Ne",
      "active": false,
      "unitCount": 1,
      "severity": 0,
      "neighborhood": "Wallingford",
      "neighborhoodGroup": "Lake Union",
      "units": "E31"
    }
  },
  {
    "id_str": "F200064759",
    "created_at": "7/2/2020 6:12:22 PM",
    "derived": {
      "lat": 47.602114,
      "long": -122.330809,
      "timestamp": 1593738742000,
      "description": "Aid Response",
      "address": "509 3rd Av",
      "active": false,
      "unitCount": 1,
      "severity": 0,
      "neighborhood": "Downtown Commercial Core",
      "neighborhoodGroup": "Downtown",
      "units": "A10"
    }
  },
  {
    "id_str": "F200064758",
    "created_at": "7/2/2020 6:11:25 PM",
    "derived": {
      "lat": 47.691287,
      "long": -122.344531,
      "timestamp": 1593738685000,
      "description": "Aid Response",
      "address": "8600 Aurora Av N",
      "active": false,
      "unitCount": 3,
      "severity": 0,
      "neighborhood": "Licton Springs",
      "neighborhoodGroup": "Northwest",
      "units": "E16 E21 M31"
    }
  },
  {
    "id_str": "F200064756",
    "created_at": "7/2/2020 6:06:00 PM",
    "derived": {
      "lat": 47.50141,
      "long": -122.267102,
      "timestamp": 1593738360000,
      "description": "Medic Response",
      "address": "5326 S Avon St",
      "active": false,
      "unitCount": 2,
      "severity": 0,
      "neighborhood": "Rainier Beach",
      "neighborhoodGroup": "Southeast",
      "units": "E33 M26"
    }
  },
  {
    "id_str": "F200064755",
    "created_at": "7/2/2020 6:03:48 PM",
    "derived": {
      "lat": 47.709488,
      "long": -122.323301,
      "timestamp": 1593738228000,
      "description": "Aid Response",
      "address": "11030 5th Av Ne",
      "active": false,
      "unitCount": 1,
      "severity": 0,
      "neighborhood": "Northgate/Maple Leaf",
      "neighborhoodGroup": "North",
      "units": "E39"
    }
  },
  {
    "id_str": "F200064754",
    "created_at": "7/2/2020 5:47:38 PM",
    "derived": {
      "lat": 47.571853,
      "long": -122.293193,
      "timestamp": 1593737258000,
      "description": "Aid Response",
      "address": "3501 Rainier Av S",
      "active": false,
      "unitCount": 2,
      "severity": 0,
      "neighborhood": "Columbia City",
      "neighborhoodGroup": "Southeast",
      "units": "E30 M28"
    }
  },
  {
    "id_str": "F200064753",
    "created_at": "7/2/2020 5:47:21 PM",
    "derived": {
      "lat": 47.546215,
      "long": -122.375056,
      "timestamp": 1593737241000,
      "description": "Aid Response",
      "address": "6339 34th Av Sw",
      "active": false,
      "unitCount": 1,
      "severity": 0,
      "neighborhood": "High Point",
      "neighborhoodGroup": "Delridge Neighborhoods",
      "units": "E37"
    }
  },
  {
    "id_str": "F200064752",
    "created_at": "7/2/2020 5:42:07 PM",
    "derived": {
      "lat": 47.718989,
      "long": -122.295405,
      "timestamp": 1593736927000,
      "description": "Aid Response",
      "address": "12360 Lake City Way Ne",
      "active": false,
      "unitCount": 1,
      "severity": 0,
      "neighborhood": "Olympic Hills/Victory Heights",
      "neighborhoodGroup": "North",
      "units": "E40"
    }
  },
  {
    "id_str": "F200064749",
    "created_at": "7/2/2020 5:36:31 PM",
    "derived": {
      "lat": 47.699471,
      "long": -122.317636,
      "timestamp": 1593736591000,
      "description": "Automatic Fire Alarm False",
      "address": "9700 Roosevelt Way Ne",
      "active": false,
      "unitCount": 1,
      "severity": 0,
      "neighborhood": "Northgate/Maple Leaf",
      "neighborhoodGroup": "North",
      "units": "E16"
    }
  },
  {
    "id_str": "F200064748",
    "created_at": "7/2/2020 5:35:38 PM",
    "derived": {
      "lat": 47.633523,
      "long": -122.277157,
      "timestamp": 1593736538000,
      "description": "Aid Response",
      "address": "1630 43rd Av E",
      "active": false,
      "unitCount": 1,
      "severity": 0,
      "neighborhood": "Madison Park",
      "neighborhoodGroup": "East",
      "units": "E34"
    }
  },
  {
    "id_str": "F200064750",
    "created_at": "7/2/2020 5:32:05 PM",
    "derived": {
      "lat": 47.710481,
      "long": -122.326004,
      "timestamp": 1593736325000,
      "description": "Activated CO Detector",
      "address": "11300 3rd Av Ne",
      "active": false,
      "unitCount": 1,
      "severity": 0,
      "neighborhood": "Northgate/Maple Leaf",
      "neighborhoodGroup": "North",
      "units": "L5"
    }
  },
  {
    "id_str": "F200064747",
    "created_at": "7/2/2020 5:30:15 PM",
    "derived": {
      "lat": 47.53162,
      "long": -122.360443,
      "timestamp": 1593736215000,
      "description": "Aid Response",
      "address": "7928 Delridge Way Sw",
      "active": false,
      "unitCount": 1,
      "severity": 0,
      "neighborhood": "Roxhill/Westwood",
      "neighborhoodGroup": "Delridge Neighborhoods",
      "units": "E11"
    }
  },
  {
    "id_str": "F200064746",
    "created_at": "7/2/2020 5:29:48 PM",
    "derived": {
      "lat": 47.732409,
      "long": -122.292388,
      "timestamp": 1593736188000,
      "description": "Aid Response",
      "address": "14352 Lake City Way Ne",
      "active": false,
      "unitCount": 2,
      "severity": 0,
      "neighborhood": "Cedar Park/Meadowbrook",
      "neighborhoodGroup": "North",
      "units": "E39 M17"
    }
  },
  {
    "id_str": "F200064745",
    "created_at": "7/2/2020 5:25:39 PM",
    "derived": {
      "lat": 47.653549,
      "long": -122.369549,
      "timestamp": 1593735939000,
      "description": "Aid Response",
      "address": "965 W Nickerson St",
      "active": false,
      "unitCount": 1,
      "severity": 0,
      "neighborhood": "Queen Anne",
      "neighborhoodGroup": "Magnolia/Queen Anne",
      "units": "E18"
    }
  },
  {
    "id_str": "F200064743",
    "created_at": "7/2/2020 5:16:18 PM",
    "derived": {
      "lat": 47.572163,
      "long": -122.296173,
      "timestamp": 1593735378000,
      "description": "Aid Response",
      "address": "2821 S Walden St",
      "active": false,
      "unitCount": 1,
      "severity": 0,
      "neighborhood": "Columbia City",
      "neighborhoodGroup": "Southeast",
      "units": "E30"
    }
  },
  {
    "id_str": "F200064742",
    "created_at": "7/2/2020 5:09:20 PM",
    "derived": {
      "lat": 47.637661,
      "long": -122.376143,
      "timestamp": 1593734960000,
      "description": "Aid Response",
      "address": "2061 15th Av W",
      "active": false,
      "unitCount": 1,
      "severity": 0,
      "neighborhood": "Interbay",
      "neighborhoodGroup": "Magnolia/Queen Anne",
      "units": "E20"
    }
  },
  {
    "id_str": "F200064741",
    "created_at": "7/2/2020 5:08:16 PM",
    "derived": {
      "lat": 47.600001,
      "long": -122.308966,
      "timestamp": 1593734896000,
      "description": "Aid Response",
      "address": "18th Ave S / S Main St",
      "active": false,
      "unitCount": 1,
      "severity": 0,
      "neighborhood": "Judkins Park",
      "neighborhoodGroup": "Central",
      "units": "E6"
    }
  },
  {
    "id_str": "F200064739",
    "created_at": "7/2/2020 5:00:46 PM",
    "derived": {
      "lat": 47.649404,
      "long": -122.304574,
      "timestamp": 1593734446000,
      "description": "Aid Response",
      "address": "3720 Montlake Blvd Ne",
      "active": false,
      "unitCount": 1,
      "severity": 0,
      "neighborhood": "University District",
      "neighborhoodGroup": "Northeast",
      "units": "E17"
    }
  }
]