[
  {
    "id_str": "F200027401",
    "created_at": "3/17/2020 4:54:44 PM",
    "derived": {
      "lat": 47.618497,
      "long": -122.327854,
      "timestamp": 1584489284000,
      "description": "Aid Response",
      "address": "100 Melrose Av E,Seattle,WA",
      "units": "A2",
      "entries": 1,
      "neighborhood": "Capitol Hill",
      "neighborhoodGroup": "East"
    }
  },
  {
    "id_str": "F200027399",
    "created_at": "3/17/2020 4:50:35 PM",
    "derived": {
      "lat": 47.613382,
      "long": -122.315452,
      "timestamp": 1584489035000,
      "description": "Aid Response",
      "address": "1305 E MADISON ST,Seattle,WA",
      "units": "A25",
      "entries": 1,
      "neighborhood": "Capitol Hill",
      "neighborhoodGroup": "East"
    }
  },
  {
    "id_str": "F200027397",
    "created_at": "3/17/2020 4:36:43 PM",
    "derived": {
      "lat": 47.666121,
      "long": -122.407768,
      "timestamp": 1584488203000,
      "description": "Aid Response",
      "address": "3724 W Commodore Way,Seattle,WA",
      "units": "E20",
      "entries": 1,
      "neighborhood": "Magnolia",
      "neighborhoodGroup": "Magnolia/Queen Anne"
    }
  },
  {
    "id_str": "F200027396",
    "created_at": "3/17/2020 4:32:24 PM",
    "derived": {
      "lat": 47.55011,
      "long": -122.370874,
      "timestamp": 1584487944000,
      "description": "Medic Response, 7 per Rule",
      "address": "5910 HIGH POINT DR SW,Seattle,WA",
      "units": "B7 E32 L11 M10",
      "entries": 3,
      "neighborhood": "High Point",
      "neighborhoodGroup": "Delridge Neighborhoods"
    }
  },
  {
    "id_str": "F200027395",
    "created_at": "3/17/2020 4:26:02 PM",
    "derived": {
      "lat": 47.726406,
      "long": -122.354068,
      "timestamp": 1584487562000,
      "description": "Investigate Out Of Service",
      "address": "N 134th St / Bitter Pl N,Seattle,WA",
      "units": "E24",
      "entries": 1,
      "neighborhood": "Broadview/Bitter Lake",
      "neighborhoodGroup": "Northwest"
    }
  },
  {
    "id_str": "F200027394",
    "created_at": "3/17/2020 4:19:59 PM",
    "derived": {
      "lat": 47.699627,
      "long": -122.376781,
      "timestamp": 1584487199000,
      "description": "Aid Response",
      "address": "9701 15th Av Nw,Seattle,WA",
      "units": "E35",
      "entries": 1,
      "neighborhood": "North Beach/Blue Ridge",
      "neighborhoodGroup": "Ballard"
    }
  },
  {
    "id_str": "F200027393",
    "created_at": "3/17/2020 4:17:40 PM",
    "derived": {
      "lat": 47.727916,
      "long": -122.296226,
      "timestamp": 1584487060000,
      "description": "Illegal Burn",
      "address": "3014 Ne 137th St,Seattle,WA",
      "units": "E39",
      "entries": 1,
      "neighborhood": "Cedar Park/Meadowbrook",
      "neighborhoodGroup": "North"
    }
  },
  {
    "id_str": "F200027391",
    "created_at": "3/17/2020 4:08:05 PM",
    "derived": {
      "lat": 47.537372,
      "long": -122.27037,
      "timestamp": 1584486485000,
      "description": "MVI - Motor Vehicle Incident",
      "address": "7269 RAINIER AV S,Seattle,WA",
      "units": "E28",
      "entries": 1,
      "neighborhood": "Seward Park",
      "neighborhoodGroup": "Southeast"
    }
  },
  {
    "id_str": "F200027390",
    "created_at": "3/17/2020 4:05:09 PM",
    "derived": {
      "lat": 47.564579,
      "long": -122.363318,
      "timestamp": 1584486309000,
      "description": "Medic Response",
      "address": "4408 Delridge Way Sw,Seattle,WA",
      "units": "E36 M32",
      "entries": 1,
      "neighborhood": "North Delridge",
      "neighborhoodGroup": "Delridge Neighborhoods"
    }
  },
  {
    "id_str": "F200027389",
    "created_at": "3/17/2020 3:52:13 PM",
    "derived": {
      "lat": 47.72467,
      "long": -122.344993,
      "timestamp": 1584485533000,
      "description": "Aid Response",
      "address": "13200 Aurora Av N,Seattle,WA",
      "units": "E24",
      "entries": 1,
      "neighborhood": "Haller Lake",
      "neighborhoodGroup": "Northwest"
    }
  },
  {
    "id_str": "F200027388",
    "created_at": "3/17/2020 3:45:38 PM",
    "derived": {
      "lat": 47.568341,
      "long": -122.370771,
      "timestamp": 1584485138000,
      "description": "Auto Fire Alarm",
      "address": "2980 Sw Avalon Way,Seattle,WA",
      "units": "E36 L11",
      "entries": 1,
      "neighborhood": "North Delridge",
      "neighborhoodGroup": "Delridge Neighborhoods"
    }
  },
  {
    "id_str": "F200027387",
    "created_at": "3/17/2020 3:44:07 PM",
    "derived": {
      "lat": 47.72923,
      "long": -122.343692,
      "timestamp": 1584485047000,
      "description": "Aid Response",
      "address": "13732 Midvale Av N,Seattle,WA",
      "units": "A31",
      "entries": 1,
      "neighborhood": "Haller Lake",
      "neighborhoodGroup": "Northwest"
    }
  },
  {
    "id_str": "F200027386",
    "created_at": "3/17/2020 3:43:45 PM",
    "derived": {
      "lat": 47.601722,
      "long": -122.334179,
      "timestamp": 1584485025000,
      "description": "Aid Response",
      "address": "99 Yesler Way,Seattle,WA",
      "units": "E5",
      "entries": 1,
      "neighborhood": "Downtown Commercial Core",
      "neighborhoodGroup": "Downtown"
    }
  },
  {
    "id_str": "F200027385",
    "created_at": "3/17/2020 3:41:11 PM",
    "derived": {
      "lat": 47.599197,
      "long": -122.328968,
      "timestamp": 1584484871000,
      "description": "Aid Response",
      "address": "4th Ave S / S Jackson St,Seattle,WA",
      "units": "E10",
      "entries": 1,
      "neighborhood": "Pioneer Square/International District",
      "neighborhoodGroup": "Downtown"
    }
  },
  {
    "id_str": "F200027384",
    "created_at": "3/17/2020 3:38:33 PM",
    "derived": {
      "lat": 47.663215,
      "long": -122.315262,
      "timestamp": 1584484713000,
      "description": "Aid Response",
      "address": "4719 12th Av Ne,Seattle,WA",
      "units": "E31",
      "entries": 1,
      "neighborhood": "University District",
      "neighborhoodGroup": "Northeast"
    }
  },
  {
    "id_str": "F200027383",
    "created_at": "3/17/2020 3:34:17 PM",
    "derived": {
      "lat": 47.588027,
      "long": -122.386277,
      "timestamp": 1584484457000,
      "description": "Aid Response",
      "address": "1703 California Av Sw,Seattle,WA",
      "units": "E29",
      "entries": 1,
      "neighborhood": "Alki/Admiral",
      "neighborhoodGroup": "Southwest"
    }
  },
  {
    "id_str": "F200027381",
    "created_at": "3/17/2020 3:30:26 PM",
    "derived": {
      "lat": 47.599197,
      "long": -122.328968,
      "timestamp": 1584484226000,
      "description": "Aid Response",
      "address": "4th Ave S / S Jackson St,Seattle,WA",
      "units": "A5",
      "entries": 1,
      "neighborhood": "Pioneer Square/International District",
      "neighborhoodGroup": "Downtown"
    }
  },
  {
    "id_str": "F200027380",
    "created_at": "3/17/2020 3:26:29 PM",
    "derived": {
      "lat": 47.66464,
      "long": -122.399639,
      "timestamp": 1584483989000,
      "description": "Medic Response",
      "address": "3300 W Commodore Way,Seattle,WA",
      "units": "E20 M18",
      "entries": 2,
      "neighborhood": "Magnolia",
      "neighborhoodGroup": "Magnolia/Queen Anne"
    }
  },
  {
    "id_str": "F200027379",
    "created_at": "3/17/2020 3:24:12 PM",
    "derived": {
      "lat": 47.616989,
      "long": -122.330811,
      "timestamp": 1584483852000,
      "description": "Auto Fire Alarm",
      "address": "1820 Minor Av,Seattle,WA",
      "units": "E25 L10",
      "entries": 1,
      "neighborhood": "Cascade/Eastlake",
      "neighborhoodGroup": "Lake Union"
    }
  },
  {
    "id_str": "F200027376",
    "created_at": "3/17/2020 3:09:04 PM",
    "derived": {
      "lat": 47.548231,
      "long": -122.376372,
      "timestamp": 1584482944000,
      "description": "Aid Response",
      "address": "6020 35th Av Sw,Seattle,WA",
      "units": "E37 M32",
      "entries": 1,
      "neighborhood": "High Point",
      "neighborhoodGroup": "Delridge Neighborhoods"
    }
  },
  {
    "id_str": "F200027375",
    "created_at": "3/17/2020 3:08:57 PM",
    "derived": {
      "lat": 47.72321,
      "long": -122.339583,
      "timestamp": 1584482937000,
      "description": "MVI - Motor Vehicle Incident",
      "address": "Ashworth Ave N / N 130th St,Seattle,WA",
      "units": "E24",
      "entries": 1,
      "neighborhood": "Haller Lake",
      "neighborhoodGroup": "Northwest"
    }
  },
  {
    "id_str": "F200027374",
    "created_at": "3/17/2020 3:06:25 PM",
    "derived": {
      "lat": 47.694193,
      "long": -122.346852,
      "timestamp": 1584482785000,
      "description": "Aid Response",
      "address": "929 N 90th St,Seattle,WA",
      "units": "E21",
      "entries": 1,
      "neighborhood": "Licton Springs",
      "neighborhoodGroup": "Northwest"
    }
  },
  {
    "id_str": "F200027373",
    "created_at": "3/17/2020 3:06:06 PM",
    "derived": {
      "lat": 47.616998,
      "long": -122.352642,
      "timestamp": 1584482766000,
      "description": "Aid Response",
      "address": "2911 1ST AV,Seattle,WA",
      "units": "A10 A4",
      "entries": 2,
      "neighborhood": "Belltown",
      "neighborhoodGroup": "Downtown"
    }
  },
  {
    "id_str": "F200027364",
    "created_at": "3/17/2020 2:47:17 PM",
    "derived": {
      "lat": 47.620061,
      "long": -122.341084,
      "timestamp": 1584481637000,
      "description": "Aid Response",
      "address": "230 8th Av N,Seattle,WA",
      "units": "A2",
      "entries": 1,
      "neighborhood": "Cascade/Eastlake",
      "neighborhoodGroup": "Lake Union"
    }
  },
  {
    "id_str": "F200027363",
    "created_at": "3/17/2020 2:41:54 PM",
    "derived": {
      "lat": 47.513561,
      "long": -122.285208,
      "timestamp": 1584481314000,
      "description": "Aid Response",
      "address": "3701 S Norfolk St,Seattle,WA",
      "units": "E33",
      "entries": 1,
      "neighborhood": "South Beacon Hill/NewHolly",
      "neighborhoodGroup": "Greater Duwamish"
    }
  },
  {
    "id_str": "F200027361",
    "created_at": "3/17/2020 2:31:37 PM",
    "derived": {
      "lat": 47.563954,
      "long": -122.294845,
      "timestamp": 1584480697000,
      "description": "Aid Response",
      "address": "3020 S Genesee St,Seattle,WA",
      "units": "E30",
      "entries": 1,
      "neighborhood": "Columbia City",
      "neighborhoodGroup": "Southeast"
    }
  },
  {
    "id_str": "F200027358",
    "created_at": "3/17/2020 2:27:46 PM",
    "derived": {
      "lat": 47.622312,
      "long": -122.332995,
      "timestamp": 1584480466000,
      "description": "Aid Response",
      "address": "430 Minor Av N,Seattle,WA",
      "units": "A4",
      "entries": 1,
      "neighborhood": "Cascade/Eastlake",
      "neighborhoodGroup": "Lake Union"
    }
  },
  {
    "id_str": "F200027357",
    "created_at": "3/17/2020 2:25:32 PM",
    "derived": {
      "lat": 47.648812,
      "long": -122.374887,
      "timestamp": 1584480332000,
      "description": "Aid Response",
      "address": "3237 14th Av W,Seattle,WA",
      "units": "E20",
      "entries": 1,
      "neighborhood": "Queen Anne",
      "neighborhoodGroup": "Magnolia/Queen Anne"
    }
  },
  {
    "id_str": "F200027356",
    "created_at": "3/17/2020 2:25:27 PM",
    "derived": {
      "lat": 47.622174,
      "long": -122.320909,
      "timestamp": 1584480327000,
      "description": "Aid Response",
      "address": "417 Broadway E,Seattle,WA",
      "units": "A25",
      "entries": 1,
      "neighborhood": "Capitol Hill",
      "neighborhoodGroup": "East"
    }
  },
  {
    "id_str": "F200027355",
    "created_at": "3/17/2020 2:24:48 PM",
    "derived": {
      "lat": 47.58617,
      "long": -122.329062,
      "timestamp": 1584480288000,
      "description": "Aid Response",
      "address": "4th Ave S / S Holgate St,Seattle,WA",
      "units": "A14",
      "entries": 1,
      "neighborhood": "Duwamish/SODO",
      "neighborhoodGroup": "Greater Duwamish"
    }
  },
  {
    "id_str": "F200027354",
    "created_at": "3/17/2020 2:17:04 PM",
    "derived": {
      "lat": 47.666264,
      "long": -122.378887,
      "timestamp": 1584479824000,
      "description": "Investigate Out Of Service",
      "address": "5121 17th Av Nw,Seattle,WA",
      "units": "E18 L8",
      "entries": 2,
      "neighborhood": "Ballard",
      "neighborhoodGroup": "Ballard"
    }
  },
  {
    "id_str": "F200027350",
    "created_at": "3/17/2020 2:03:15 PM",
    "derived": {
      "lat": 47.694823,
      "long": -122.3035,
      "timestamp": 1584478995000,
      "description": "Aid Response Yellow",
      "address": "2344 Ne 91st St,Seattle,WA",
      "units": "E39 E40",
      "entries": 2,
      "neighborhood": "Wedgwood/View Ridge",
      "neighborhoodGroup": "Northeast"
    }
  },
  {
    "id_str": "F200027349",
    "created_at": "3/17/2020 1:58:16 PM",
    "derived": {
      "lat": 47.614076,
      "long": -122.32078,
      "timestamp": 1584478696000,
      "description": "Aid Response",
      "address": "Broadway / E Pike St,Seattle,WA",
      "units": "A25",
      "entries": 1,
      "neighborhood": "Capitol Hill",
      "neighborhoodGroup": "East"
    }
  },
  {
    "id_str": "F200027346",
    "created_at": "3/17/2020 1:51:56 PM",
    "derived": {
      "lat": 47.704764,
      "long": -122.28909,
      "timestamp": 1584478316000,
      "description": "Aid Response Yellow",
      "address": "3625 Ne 105th St,Seattle,WA",
      "units": "E40",
      "entries": 1,
      "neighborhood": "Cedar Park/Meadowbrook",
      "neighborhoodGroup": "North"
    }
  },
  {
    "id_str": "F200027345",
    "created_at": "3/17/2020 1:51:40 PM",
    "derived": {
      "lat": 47.622312,
      "long": -122.332995,
      "timestamp": 1584478300000,
      "description": "Aid Response",
      "address": "430 Minor Av N,Seattle,WA",
      "units": "A4",
      "entries": 1,
      "neighborhood": "Cascade/Eastlake",
      "neighborhoodGroup": "Lake Union"
    }
  },
  {
    "id_str": "F200027343",
    "created_at": "3/17/2020 1:44:41 PM",
    "derived": {
      "lat": 47.550474,
      "long": -122.324953,
      "timestamp": 1584477881000,
      "description": "Rubbish Fire",
      "address": "713 S FIDALGO ST,Seattle,WA",
      "units": "E13 E27",
      "entries": 2,
      "neighborhood": "Georgetown",
      "neighborhoodGroup": "Greater Duwamish"
    }
  },
  {
    "id_str": "F200027341",
    "created_at": "3/17/2020 1:40:45 PM",
    "derived": {
      "lat": 47.719726,
      "long": -122.338537,
      "timestamp": 1584477645000,
      "description": "Aid Response",
      "address": "12520 Densmore Ave N,Seattle,WA",
      "units": "A31",
      "entries": 1,
      "neighborhood": "Haller Lake",
      "neighborhoodGroup": "Northwest"
    }
  },
  {
    "id_str": "F200027340",
    "created_at": "3/17/2020 1:32:08 PM",
    "derived": {
      "lat": 47.520451,
      "long": -122.336003,
      "timestamp": 1584477128000,
      "description": "Medic Response",
      "address": "9240 2nd Av Sw,Seattle,WA",
      "units": "E26 M32",
      "entries": 2
    }
  },
  {
    "id_str": "F200027339",
    "created_at": "3/17/2020 1:30:51 PM",
    "derived": {
      "lat": 47.659795,
      "long": -122.313168,
      "timestamp": 1584477051000,
      "description": "Aid Response",
      "address": "Ne 43rd St / University Way Ne,Seattle,WA",
      "units": "E31",
      "entries": 1,
      "neighborhood": "University District",
      "neighborhoodGroup": "Northeast"
    }
  },
  {
    "id_str": "F200027337",
    "created_at": "3/17/2020 1:23:59 PM",
    "derived": {
      "lat": 47.519176,
      "long": -122.362605,
      "timestamp": 1584476639000,
      "description": "Aid Response Yellow",
      "address": "9402 23rd Ave Sw,Seattle,WA",
      "units": "E11",
      "entries": 1,
      "neighborhood": "Roxhill/Westwood",
      "neighborhoodGroup": "Delridge Neighborhoods"
    }
  },
  {
    "id_str": "F200027336",
    "created_at": "3/17/2020 1:17:44 PM",
    "derived": {
      "lat": 47.652005,
      "long": -122.353411,
      "timestamp": 1584476264000,
      "description": "Alarm Bell",
      "address": "Francis Ave N / N 36th St,Seattle,WA",
      "units": "E9 L8",
      "entries": 1,
      "neighborhood": "Fremont",
      "neighborhoodGroup": "Lake Union"
    }
  },
  {
    "id_str": "F200027335",
    "created_at": "3/17/2020 1:16:46 PM",
    "derived": {
      "lat": 47.666267,
      "long": -122.300605,
      "timestamp": 1584476206000,
      "description": "Aid Response",
      "address": "Ne Blakeley St / 25th Ave Ne,Seattle,WA",
      "units": "E38 M1",
      "entries": 2,
      "neighborhood": "Ravenna/Bryant",
      "neighborhoodGroup": "Northeast"
    }
  },
  {
    "id_str": "F200027333",
    "created_at": "3/17/2020 1:05:00 PM",
    "derived": {
      "lat": 47.531453,
      "long": -122.274475,
      "timestamp": 1584475500000,
      "description": "Auto Fire Alarm",
      "address": "7917 46th Ave S,Seattle,WA",
      "units": "E33 L12",
      "entries": 1,
      "neighborhood": "Rainier Beach",
      "neighborhoodGroup": "Southeast"
    }
  },
  {
    "id_str": "F200027332",
    "created_at": "3/17/2020 1:02:16 PM",
    "derived": {
      "lat": 47.60739,
      "long": -122.332564,
      "timestamp": 1584475336000,
      "description": "Activated CO Detector",
      "address": "1118 5th Av,Seattle,WA",
      "units": "L1",
      "entries": 1,
      "neighborhood": "Downtown Commercial Core",
      "neighborhoodGroup": "Downtown"
    }
  },
  {
    "id_str": "F200027330",
    "created_at": "3/17/2020 12:58:01 PM",
    "derived": {
      "lat": 47.612716,
      "long": -122.345399,
      "timestamp": 1584475081000,
      "description": "Auto Fire Alarm",
      "address": "2215 1st Av,Seattle,WA",
      "units": "E2 L4",
      "entries": 1,
      "neighborhood": "Belltown",
      "neighborhoodGroup": "Downtown"
    }
  },
  {
    "id_str": "F200027328",
    "created_at": "3/17/2020 12:49:51 PM",
    "derived": {
      "lat": 47.584296,
      "long": -122.306857,
      "timestamp": 1584474591000,
      "description": "Unk Odor",
      "address": "2126 20th Ave S,Seattle,WA",
      "units": "R1",
      "entries": 1,
      "neighborhood": "North Beacon Hill/Jefferson Park",
      "neighborhoodGroup": "Greater Duwamish"
    }
  },
  {
    "id_str": "F200027326",
    "created_at": "3/17/2020 12:45:55 PM",
    "derived": {
      "lat": 47.712465,
      "long": -122.311104,
      "timestamp": 1584474355000,
      "description": "Medic Response",
      "address": "11535 16th Ave Ne,Seattle,WA",
      "units": "E39 L5 M31",
      "entries": 3,
      "neighborhood": "Olympic Hills/Victory Heights",
      "neighborhoodGroup": "North"
    }
  },
  {
    "id_str": "F200027324",
    "created_at": "3/17/2020 12:44:24 PM",
    "derived": {
      "lat": 47.61551,
      "long": -122.347694,
      "timestamp": 1584474264000,
      "description": "Aid Response",
      "address": "222 Wall St,Seattle,WA",
      "units": "A4",
      "entries": 1,
      "neighborhood": "Belltown",
      "neighborhoodGroup": "Downtown"
    }
  },
  {
    "id_str": "F200027322",
    "created_at": "3/17/2020 12:32:21 PM",
    "derived": {
      "lat": 47.66108,
      "long": -122.344562,
      "timestamp": 1584473541000,
      "description": "Aid Response",
      "address": "4460 Woodland Park Av N,Seattle,WA",
      "units": "E17 M18",
      "entries": 1,
      "neighborhood": "Wallingford",
      "neighborhoodGroup": "Lake Union"
    }
  },
  {
    "id_str": "F200027321",
    "created_at": "3/17/2020 12:15:30 PM",
    "derived": {
      "lat": 47.585444,
      "long": -122.317286,
      "timestamp": 1584472530000,
      "description": "Natural Gas Odor",
      "address": "2010 12th Ave S,Seattle,WA",
      "units": "R1",
      "entries": 1,
      "neighborhood": "Duwamish/SODO",
      "neighborhoodGroup": "Greater Duwamish"
    }
  },
  {
    "id_str": "F200027320",
    "created_at": "3/17/2020 12:12:04 PM",
    "derived": {
      "lat": 47.66129,
      "long": -122.316335,
      "timestamp": 1584472324000,
      "description": "Aid Response",
      "address": "1121 Ne 45th St,Seattle,WA",
      "units": "E17",
      "entries": 1,
      "neighborhood": "University District",
      "neighborhoodGroup": "Northeast"
    }
  },
  {
    "id_str": "F200027319",
    "created_at": "3/17/2020 12:09:02 PM",
    "derived": {
      "lat": 47.721329,
      "long": -122.296339,
      "timestamp": 1584472142000,
      "description": "Aid Response",
      "address": "12740 30th Av Ne,Seattle,WA",
      "units": "E39",
      "entries": 1,
      "neighborhood": "Cedar Park/Meadowbrook",
      "neighborhoodGroup": "North"
    }
  },
  {
    "id_str": "F200027317",
    "created_at": "3/17/2020 12:07:18 PM",
    "derived": {
      "lat": 47.722899,
      "long": -122.293194,
      "timestamp": 1584472038000,
      "description": "Aid Response",
      "address": "13000 Lake City Way Ne,Seattle,WA",
      "units": "L5",
      "entries": 1,
      "neighborhood": "Cedar Park/Meadowbrook",
      "neighborhoodGroup": "North"
    }
  },
  {
    "id_str": "F200027315",
    "created_at": "3/17/2020 12:00:41 PM",
    "derived": {
      "lat": 47.679478,
      "long": -122.322726,
      "timestamp": 1584471641000,
      "description": "Medic Response, 7 per Rule",
      "address": "505 Ne 70th St,Seattle,WA",
      "units": "E16 E31 M17",
      "entries": 2,
      "neighborhood": "Green Lake",
      "neighborhoodGroup": "Northwest"
    }
  },
  {
    "id_str": "F200027314",
    "created_at": "3/17/2020 11:50:20 AM",
    "derived": {
      "lat": 47.587169,
      "long": -122.310548,
      "timestamp": 1584471020000,
      "description": "Natural Gas Odor",
      "address": "1810 17th Ave S,Seattle,WA",
      "units": "L3",
      "entries": 1,
      "neighborhood": "North Beacon Hill/Jefferson Park",
      "neighborhoodGroup": "Greater Duwamish"
    }
  },
  {
    "id_str": "F200027313",
    "created_at": "3/17/2020 11:47:18 AM",
    "derived": {
      "lat": 47.595741,
      "long": -122.325068,
      "timestamp": 1584470838000,
      "description": "Aid Response",
      "address": "811 Maynard Av S,Seattle,WA",
      "units": "A5",
      "entries": 1,
      "neighborhood": "Duwamish/SODO",
      "neighborhoodGroup": "Greater Duwamish"
    }
  },
  {
    "id_str": "F200027311",
    "created_at": "3/17/2020 11:42:55 AM",
    "derived": {
      "lat": 47.600875,
      "long": -122.328963,
      "timestamp": 1584470575000,
      "description": "Aid Response Yellow",
      "address": "400 S Washington St,Seattle,WA",
      "units": "HEALTH1",
      "entries": 1,
      "neighborhood": "Pioneer Square/International District",
      "neighborhoodGroup": "Downtown"
    }
  },
  {
    "id_str": "F200027310",
    "created_at": "3/17/2020 11:41:29 AM",
    "derived": {
      "lat": 47.688428,
      "long": -122.365998,
      "timestamp": 1584470489000,
      "description": "Aid Response",
      "address": "8207 8th Ave Nw,Seattle,WA",
      "units": "E35",
      "entries": 1,
      "neighborhood": "Greenwood/Phinney Ridge",
      "neighborhoodGroup": "Northwest"
    }
  },
  {
    "id_str": "F200027309",
    "created_at": "3/17/2020 11:39:43 AM",
    "derived": {
      "lat": 47.521022,
      "long": -122.365894,
      "timestamp": 1584470383000,
      "description": "Medic Response",
      "address": "26th Ave Sw / Sw Barton St,Seattle,WA",
      "units": "E11 M32",
      "entries": 2,
      "neighborhood": "Roxhill/Westwood",
      "neighborhoodGroup": "Delridge Neighborhoods"
    }
  },
  {
    "id_str": "F200027307",
    "created_at": "3/17/2020 11:31:59 AM",
    "derived": {
      "lat": 47.572784,
      "long": -122.379241,
      "timestamp": 1584469919000,
      "description": "Aid Response Yellow",
      "address": "3455 Belvidere Ave Sw,Seattle,WA",
      "units": "E29",
      "entries": 1,
      "neighborhood": "West Seattle Junction/Genesee Hill",
      "neighborhoodGroup": "Southwest"
    }
  },
  {
    "id_str": "F200027306",
    "created_at": "3/17/2020 11:24:29 AM",
    "derived": {
      "lat": 47.58603,
      "long": -122.329061,
      "timestamp": 1584469469000,
      "description": "Aid Response",
      "address": "1919 4th Av S,Seattle,WA",
      "units": "A14",
      "entries": 1,
      "neighborhood": "Duwamish/SODO",
      "neighborhoodGroup": "Greater Duwamish"
    }
  },
  {
    "id_str": "F200027304",
    "created_at": "3/17/2020 11:15:40 AM",
    "derived": {
      "lat": 47.61842,
      "long": -122.30365,
      "timestamp": 1584468940000,
      "description": "Aid Response",
      "address": "2200 E Madison St,Seattle,WA",
      "units": "L10",
      "entries": 1,
      "neighborhood": "Central Area/Squire Park",
      "neighborhoodGroup": "Central"
    }
  },
  {
    "id_str": "F200027302",
    "created_at": "3/17/2020 11:12:35 AM",
    "derived": {
      "lat": 47.61109,
      "long": -122.323671,
      "timestamp": 1584468755000,
      "description": "Trans to AMR",
      "address": "1116 Summit Av,Seattle,WA",
      "units": "E25",
      "entries": 1,
      "neighborhood": "Capitol Hill",
      "neighborhoodGroup": "East"
    }
  },
  {
    "id_str": "F200027301",
    "created_at": "3/17/2020 11:11:14 AM",
    "derived": {
      "lat": 47.584234,
      "long": -122.299024,
      "timestamp": 1584468674000,
      "description": "Aid Response Yellow",
      "address": "2121 26th Av S,Seattle,WA",
      "units": "E30",
      "entries": 1,
      "neighborhood": "Mt. Baker/North Rainier",
      "neighborhoodGroup": "Southeast"
    }
  },
  {
    "id_str": "F200027299",
    "created_at": "3/17/2020 11:09:14 AM",
    "derived": {
      "lat": 47.599258,
      "long": -122.305807,
      "timestamp": 1584468554000,
      "description": "Aid Response",
      "address": "2010 S Jackson St,Seattle,WA",
      "units": "E6",
      "entries": 1,
      "neighborhood": "Judkins Park",
      "neighborhoodGroup": "Central"
    }
  },
  {
    "id_str": "F200027300",
    "created_at": "3/17/2020 11:09:12 AM",
    "derived": {
      "lat": 47.541593,
      "long": -122.269269,
      "timestamp": 1584468552000,
      "description": "Aid Response",
      "address": "5123 S Brighton St,Seattle,WA",
      "units": "E28 M28",
      "entries": 1,
      "neighborhood": "Seward Park",
      "neighborhoodGroup": "Southeast"
    }
  },
  {
    "id_str": "F200027298",
    "created_at": "3/17/2020 11:01:26 AM",
    "derived": {
      "lat": 47.600875,
      "long": -122.328963,
      "timestamp": 1584468086000,
      "description": "Aid Response",
      "address": "400 S Washington St,Seattle,WA",
      "units": "A10 HEALTH1",
      "entries": 2,
      "neighborhood": "Pioneer Square/International District",
      "neighborhoodGroup": "Downtown"
    }
  },
  {
    "id_str": "F200027297",
    "created_at": "3/17/2020 11:01:09 AM",
    "derived": {
      "lat": 47.616443,
      "long": -122.310151,
      "timestamp": 1584468069000,
      "description": "Medic Response",
      "address": "1700 17th Av,Seattle,WA",
      "units": "A25 M10",
      "entries": 1,
      "neighborhood": "Central Area/Squire Park",
      "neighborhoodGroup": "Central"
    }
  },
  {
    "id_str": "F200027295",
    "created_at": "3/17/2020 10:54:40 AM",
    "derived": {
      "lat": 47.599772,
      "long": -122.332881,
      "timestamp": 1584467680000,
      "description": "Auto Fire Alarm",
      "address": "316 Occidental Av S,Seattle,WA",
      "units": "E10 L3",
      "entries": 1,
      "neighborhood": "Pioneer Square/International District",
      "neighborhoodGroup": "Downtown"
    }
  },
  {
    "id_str": "F200027293",
    "created_at": "3/17/2020 10:54:13 AM",
    "derived": {
      "lat": 47.610214,
      "long": -122.336683,
      "timestamp": 1584467653000,
      "description": "Aid Response",
      "address": "400 Pike St,Seattle,WA",
      "units": "A4 E27",
      "entries": 2,
      "neighborhood": "Downtown Commercial Core",
      "neighborhoodGroup": "Downtown"
    }
  },
  {
    "id_str": "F200027292",
    "created_at": "3/17/2020 10:51:19 AM",
    "derived": {
      "lat": 47.73104,
      "long": -122.347764,
      "timestamp": 1584467479000,
      "description": "Aid Response",
      "address": "14100 Linden Av N,Seattle,WA",
      "units": "A31",
      "entries": 1,
      "neighborhood": "Broadview/Bitter Lake",
      "neighborhoodGroup": "Northwest"
    }
  },
  {
    "id_str": "F200027291",
    "created_at": "3/17/2020 10:49:52 AM",
    "derived": {
      "lat": 47.599197,
      "long": -122.328968,
      "timestamp": 1584467392000,
      "description": "Aid Response",
      "address": "4th Ave S / S Jackson St,Seattle,WA",
      "units": "A5",
      "entries": 1,
      "neighborhood": "Pioneer Square/International District",
      "neighborhoodGroup": "Downtown"
    }
  },
  {
    "id_str": "F200027290",
    "created_at": "3/17/2020 10:35:23 AM",
    "derived": {
      "lat": 47.580054,
      "long": -122.408009,
      "timestamp": 1584466523000,
      "description": "Aid Response",
      "address": "2601 59th Ave Sw,Seattle,WA",
      "units": "E29 R1",
      "entries": 3,
      "neighborhood": "Alki/Admiral",
      "neighborhoodGroup": "Southwest"
    }
  },
  {
    "id_str": "F200027289",
    "created_at": "3/17/2020 10:35:05 AM",
    "derived": {
      "lat": 47.553339,
      "long": -122.326875,
      "timestamp": 1584466505000,
      "description": "AFA4 - Auto Alarm 2 + 1 + 1",
      "address": "5506 6th Av S,Seattle,WA",
      "units": "B5 E13 E26 E29 R1",
      "entries": 3,
      "neighborhood": "Georgetown",
      "neighborhoodGroup": "Greater Duwamish"
    }
  },
  {
    "id_str": "F200027286",
    "created_at": "3/17/2020 10:23:56 AM",
    "derived": {
      "lat": 47.558167,
      "long": -122.365526,
      "timestamp": 1584465836000,
      "description": "Medic Response, 7 per Rule",
      "address": "5023 26th Ave Sw,Seattle,WA",
      "units": "E11 E36 M32",
      "entries": 2,
      "neighborhood": "Riverview",
      "neighborhoodGroup": "Delridge Neighborhoods"
    }
  },
  {
    "id_str": "F200027287",
    "created_at": "3/17/2020 10:23:50 AM",
    "derived": {
      "lat": 47.716184,
      "long": -122.355524,
      "timestamp": 1584465830000,
      "description": "Aid Response",
      "address": "12024 Greenwood Ave N,Seattle,WA",
      "units": "E24",
      "entries": 1,
      "neighborhood": "Broadview/Bitter Lake",
      "neighborhoodGroup": "Northwest"
    }
  },
  {
    "id_str": "F200027285",
    "created_at": "3/17/2020 10:21:42 AM",
    "derived": {
      "lat": 47.613345,
      "long": -122.306235,
      "timestamp": 1584465702000,
      "description": "Automatic Fire Alarm Resd",
      "address": "1437 20th Ave,Seattle,WA",
      "units": "E25",
      "entries": 1,
      "neighborhood": "Central Area/Squire Park",
      "neighborhoodGroup": "Central"
    }
  },
  {
    "id_str": "F200027284",
    "created_at": "3/17/2020 10:17:50 AM",
    "derived": {
      "lat": 47.518178,
      "long": -122.367277,
      "timestamp": 1584465470000,
      "description": "Aid Response Yellow",
      "address": "9455 27th Av Sw,Seattle,WA",
      "units": "E37",
      "entries": 1,
      "neighborhood": "Roxhill/Westwood",
      "neighborhoodGroup": "Delridge Neighborhoods"
    }
  },
  {
    "id_str": "F200027283",
    "created_at": "3/17/2020 10:16:28 AM",
    "derived": {
      "lat": 47.698721,
      "long": -122.34681,
      "timestamp": 1584465388000,
      "description": "Aid Response",
      "address": "937 N 96th St,Seattle,WA",
      "units": "A31",
      "entries": 1,
      "neighborhood": "Licton Springs",
      "neighborhoodGroup": "Northwest"
    }
  },
  {
    "id_str": "F200027282",
    "created_at": "3/17/2020 10:14:18 AM",
    "derived": {
      "lat": 47.557342,
      "long": -122.378906,
      "timestamp": 1584465258000,
      "description": "Aid Response",
      "address": "5011 37th Ave Sw,Seattle,WA",
      "units": "L11",
      "entries": 1,
      "neighborhood": "West Seattle Junction/Genesee Hill",
      "neighborhoodGroup": "Southwest"
    }
  },
  {
    "id_str": "F200027279",
    "created_at": "3/17/2020 9:57:17 AM",
    "derived": {
      "lat": 47.614431,
      "long": -122.320786,
      "timestamp": 1584464237000,
      "description": "Aid Response",
      "address": "1531 Broadway,Seattle,WA",
      "units": "A25",
      "entries": 1,
      "neighborhood": "Capitol Hill",
      "neighborhoodGroup": "East"
    }
  },
  {
    "id_str": "F200027273",
    "created_at": "3/17/2020 9:21:12 AM",
    "derived": {
      "lat": 47.66025,
      "long": -122.396101,
      "timestamp": 1584462072000,
      "description": "Aid Response",
      "address": "4417 30th Ave W,Seattle,WA",
      "units": "E41",
      "entries": 1,
      "neighborhood": "Interbay",
      "neighborhoodGroup": "Magnolia/Queen Anne"
    }
  },
  {
    "id_str": "F200027271",
    "created_at": "3/17/2020 9:20:43 AM",
    "derived": {
      "lat": 47.561674,
      "long": -122.293783,
      "timestamp": 1584462043000,
      "description": "Aid Response",
      "address": "4616 M L King Jr Way S,Seattle,WA",
      "units": "E30",
      "entries": 1,
      "neighborhood": "Columbia City",
      "neighborhoodGroup": "Southeast"
    }
  },
  {
    "id_str": "F200027270",
    "created_at": "3/17/2020 9:19:33 AM",
    "derived": {
      "lat": 47.673048,
      "long": -122.392977,
      "timestamp": 1584461973000,
      "description": "Investigate Out Of Service",
      "address": "6110 28th Av Nw,Seattle,WA",
      "units": "E18",
      "entries": 1,
      "neighborhood": "Sunset Hill/Loyal Heights",
      "neighborhoodGroup": "Ballard"
    }
  },
  {
    "id_str": "F200027269",
    "created_at": "3/17/2020 9:17:53 AM",
    "derived": {
      "lat": 47.531007,
      "long": -122.290751,
      "timestamp": 1584461873000,
      "description": "Aid Response",
      "address": "3201 S Monroe St,Seattle,WA",
      "units": "E33",
      "entries": 1,
      "neighborhood": "South Beacon Hill/NewHolly",
      "neighborhoodGroup": "Greater Duwamish"
    }
  },
  {
    "id_str": "F200027268",
    "created_at": "3/17/2020 9:13:42 AM",
    "derived": {
      "lat": 47.708675,
      "long": -122.290753,
      "timestamp": 1584461622000,
      "description": "Aid Response",
      "address": "11051 35th Ave Ne,Seattle,WA",
      "units": "E40",
      "entries": 1,
      "neighborhood": "Cedar Park/Meadowbrook",
      "neighborhoodGroup": "North"
    }
  },
  {
    "id_str": "F200027267",
    "created_at": "3/17/2020 9:10:57 AM",
    "derived": {
      "lat": 47.551753,
      "long": -122.382987,
      "timestamp": 1584461457000,
      "description": "Medic Response",
      "address": "5650 40th Ave Sw,Seattle,WA",
      "units": "E32 M32",
      "entries": 2,
      "neighborhood": "Fauntleroy/Seaview",
      "neighborhoodGroup": "Southwest"
    }
  },
  {
    "id_str": "F200027264",
    "created_at": "3/17/2020 9:03:33 AM",
    "derived": {
      "lat": 47.664275,
      "long": -122.283475,
      "timestamp": 1584461013000,
      "description": "Medic Response, 6 per Rule",
      "address": "4800 Sand Point Way Ne,Seattle,WA",
      "units": "E31 E38 M17",
      "entries": 1,
      "neighborhood": "Laurelhurst/Sand Point",
      "neighborhoodGroup": "Northeast"
    }
  },
  {
    "id_str": "F200027262",
    "created_at": "3/17/2020 8:56:26 AM",
    "derived": {
      "lat": 47.623466,
      "long": -122.320929,
      "timestamp": 1584460586000,
      "description": "Automatic Fire Alarm False",
      "address": "530 Broadway E,Seattle,WA",
      "units": "E25",
      "entries": 1,
      "neighborhood": "Capitol Hill",
      "neighborhoodGroup": "East"
    }
  },
  {
    "id_str": "F200027260",
    "created_at": "3/17/2020 8:56:20 AM",
    "derived": {
      "lat": 47.669459,
      "long": -122.311887,
      "timestamp": 1584460580000,
      "description": "Aid Response",
      "address": "5602 15th Av Ne,Seattle,WA",
      "units": "L9",
      "entries": 1,
      "neighborhood": "University District",
      "neighborhoodGroup": "Northeast"
    }
  },
  {
    "id_str": "F200027259",
    "created_at": "3/17/2020 8:48:58 AM",
    "derived": {
      "lat": 47.617717,
      "long": -122.330057,
      "timestamp": 1584460138000,
      "description": "Aid Response",
      "address": "1828 Yale Av,Seattle,WA",
      "units": "A2",
      "entries": 1,
      "neighborhood": "Cascade/Eastlake",
      "neighborhoodGroup": "Lake Union"
    }
  },
  {
    "id_str": "F200027257",
    "created_at": "3/17/2020 8:38:23 AM",
    "derived": {
      "lat": 47.663215,
      "long": -122.315262,
      "timestamp": 1584459503000,
      "description": "Aid Response",
      "address": "4719 12th Av Ne,Seattle,WA",
      "units": "E31",
      "entries": 1,
      "neighborhood": "University District",
      "neighborhoodGroup": "Northeast"
    }
  },
  {
    "id_str": "F200027256",
    "created_at": "3/17/2020 8:34:29 AM",
    "derived": {
      "lat": 47.65996,
      "long": -122.342217,
      "timestamp": 1584459269000,
      "description": "Aid Response",
      "address": "4400 Stone Way N,Seattle,WA",
      "units": "E9",
      "entries": 1,
      "neighborhood": "Wallingford",
      "neighborhoodGroup": "Lake Union"
    }
  },
  {
    "id_str": "F200027254",
    "created_at": "3/17/2020 8:32:22 AM",
    "derived": {
      "lat": 47.539435,
      "long": -122.325673,
      "timestamp": 1584459142000,
      "description": "Rubbish Fire",
      "address": "601 S Myrtle St,Seattle,WA",
      "units": "E26",
      "entries": 1,
      "neighborhood": "Georgetown",
      "neighborhoodGroup": "Greater Duwamish"
    }
  },
  {
    "id_str": "F200027253",
    "created_at": "3/17/2020 8:23:53 AM",
    "derived": {
      "lat": 47.615796,
      "long": -122.334741,
      "timestamp": 1584458633000,
      "description": "Aid Response",
      "address": "1924 9th Av,Seattle,WA",
      "units": "A2",
      "entries": 1,
      "neighborhood": "Cascade/Eastlake",
      "neighborhoodGroup": "Lake Union"
    }
  },
  {
    "id_str": "F200027252",
    "created_at": "3/17/2020 8:12:14 AM",
    "derived": {
      "lat": 47.599197,
      "long": -122.328968,
      "timestamp": 1584457934000,
      "description": "Aid Response",
      "address": "400 S Jackson St,Seattle,WA",
      "units": "A10",
      "entries": 1,
      "neighborhood": "Pioneer Square/International District",
      "neighborhoodGroup": "Downtown"
    }
  },
  {
    "id_str": "F200027250",
    "created_at": "3/17/2020 8:02:51 AM",
    "derived": {
      "lat": 47.65042,
      "long": -122.276612,
      "timestamp": 1584457371000,
      "description": "Automatic Fire Alarm Resd",
      "address": "3112 East Laurelhurst Dr Ne,Seattle,WA",
      "units": "E38",
      "entries": 1,
      "neighborhood": "Laurelhurst/Sand Point",
      "neighborhoodGroup": "Northeast"
    }
  },
  {
    "id_str": "F200027249",
    "created_at": "3/17/2020 7:54:55 AM",
    "derived": {
      "lat": 47.718624,
      "long": -122.314016,
      "timestamp": 1584456895000,
      "description": "Aid Response",
      "address": "12358 14th Ave Ne,Seattle,WA",
      "units": "E39",
      "entries": 1,
      "neighborhood": "Haller Lake",
      "neighborhoodGroup": "Northwest"
    }
  },
  {
    "id_str": "F200027244",
    "created_at": "3/17/2020 7:52:09 AM",
    "derived": {
      "lat": 47.689238,
      "long": -122.376801,
      "timestamp": 1584456729000,
      "description": "Dumpster Fire W/Exp.",
      "address": "8355 15TH AV NW,Seattle,WA",
      "units": "B4 E16 E18 E35 L8 MAR5 SAFT2",
      "entries": 3,
      "neighborhood": "Whittier Heights",
      "neighborhoodGroup": "Ballard"
    }
  },
  {
    "id_str": "F200027242",
    "created_at": "3/17/2020 7:48:39 AM",
    "derived": {
      "lat": 47.603048,
      "long": -122.333199,
      "timestamp": 1584456519000,
      "description": "Auto Fire Alarm",
      "address": "705 2nd Av,Seattle,WA",
      "units": "E10 L1",
      "entries": 1,
      "neighborhood": "Downtown Commercial Core",
      "neighborhoodGroup": "Downtown"
    }
  },
  {
    "id_str": "F200027240",
    "created_at": "3/17/2020 7:36:45 AM",
    "derived": {
      "lat": 47.612578,
      "long": -122.341197,
      "timestamp": 1584455805000,
      "description": "Aid Response",
      "address": "2024 3rd Av,Seattle,WA",
      "units": "A2",
      "entries": 1,
      "neighborhood": "Cascade/Eastlake",
      "neighborhoodGroup": "Lake Union"
    }
  },
  {
    "id_str": "F200027239",
    "created_at": "3/17/2020 7:33:41 AM",
    "derived": {
      "lat": 47.558988,
      "long": -122.376234,
      "timestamp": 1584455621000,
      "description": "Medic Response",
      "address": "4831 35th Av Sw,Seattle,WA",
      "units": "E32 M32",
      "entries": 1,
      "neighborhood": "West Seattle Junction/Genesee Hill",
      "neighborhoodGroup": "Southwest"
    }
  },
  {
    "id_str": "F200027237",
    "created_at": "3/17/2020 7:32:23 AM",
    "derived": {
      "lat": 47.603048,
      "long": -122.333199,
      "timestamp": 1584455543000,
      "description": "Auto Fire Alarm",
      "address": "705 2nd Av,Seattle,WA",
      "units": "E10 L1",
      "entries": 1,
      "neighborhood": "Downtown Commercial Core",
      "neighborhoodGroup": "Downtown"
    }
  },
  {
    "id_str": "F200027235",
    "created_at": "3/17/2020 7:31:04 AM",
    "derived": {
      "lat": 47.507819,
      "long": -122.261264,
      "timestamp": 1584455464000,
      "description": "Aid Response Yellow",
      "address": "10438 57th Ave S,Seattle,WA",
      "units": "E33",
      "entries": 1,
      "neighborhood": "Rainier Beach",
      "neighborhoodGroup": "Southeast"
    }
  },
  {
    "id_str": "F200027234",
    "created_at": "3/17/2020 7:26:22 AM",
    "derived": {
      "lat": 47.54133,
      "long": -122.390043,
      "timestamp": 1584455182000,
      "description": "Auto Fire Alarm",
      "address": "6935 Fauntleroy Way Sw,Seattle,WA",
      "units": "E37 L11",
      "entries": 1,
      "neighborhood": "Fauntleroy/Seaview",
      "neighborhoodGroup": "Southwest"
    }
  },
  {
    "id_str": "F200027233",
    "created_at": "3/17/2020 7:22:30 AM",
    "derived": {
      "lat": 47.599195,
      "long": -122.327667,
      "timestamp": 1584454950000,
      "description": "Aid Response",
      "address": "5th Ave S / S Jackson St,Seattle,WA",
      "units": "A5",
      "entries": 1,
      "neighborhood": "Pioneer Square/International District",
      "neighborhoodGroup": "Downtown"
    }
  },
  {
    "id_str": "F200027232",
    "created_at": "3/17/2020 7:20:28 AM",
    "derived": {
      "lat": 47.521244,
      "long": -122.336301,
      "timestamp": 1584454828000,
      "description": "Aid Response Yellow",
      "address": "9200 2nd Av Sw,Seattle,WA",
      "units": "E26",
      "entries": 1,
      "neighborhood": "Highland Park",
      "neighborhoodGroup": "Delridge Neighborhoods"
    }
  },
  {
    "id_str": "F200027231",
    "created_at": "3/17/2020 7:14:10 AM",
    "derived": {
      "lat": 47.605392,
      "long": -122.327499,
      "timestamp": 1584454450000,
      "description": "Aid Response",
      "address": "711 Cherry St,Seattle,WA",
      "units": "A10",
      "entries": 1,
      "neighborhood": "First Hill",
      "neighborhoodGroup": "East"
    }
  },
  {
    "id_str": "F200027226",
    "created_at": "3/17/2020 6:29:59 AM",
    "derived": {
      "lat": 47.612578,
      "long": -122.341197,
      "timestamp": 1584451799000,
      "description": "Aid Response",
      "address": "2024 3rd Av,Seattle,WA",
      "units": "A2",
      "entries": 1,
      "neighborhood": "Cascade/Eastlake",
      "neighborhoodGroup": "Lake Union"
    }
  },
  {
    "id_str": "F200027225",
    "created_at": "3/17/2020 6:28:25 AM",
    "derived": {
      "lat": 47.551875,
      "long": -122.329565,
      "timestamp": 1584451705000,
      "description": "Illegal Burn",
      "address": "4TH AVE S / S ORCAS ST,Seattle,WA",
      "units": "E27",
      "entries": 1,
      "neighborhood": "Georgetown",
      "neighborhoodGroup": "Greater Duwamish"
    }
  },
  {
    "id_str": "F200027222",
    "created_at": "3/17/2020 5:57:56 AM",
    "derived": {
      "lat": 47.664387,
      "long": -122.370765,
      "timestamp": 1584449876000,
      "description": "Rubbish Fire",
      "address": "Nw 49th St / 11th Ave Nw,Seattle,WA",
      "units": "E18",
      "entries": 1,
      "neighborhood": "Ballard",
      "neighborhoodGroup": "Ballard"
    }
  },
  {
    "id_str": "F200027220",
    "created_at": "3/17/2020 5:42:54 AM",
    "derived": {
      "lat": 47.73104,
      "long": -122.347764,
      "timestamp": 1584448974000,
      "description": "Aid Response",
      "address": "14100 Linden Av N,Seattle,WA",
      "units": "E24",
      "entries": 1,
      "neighborhood": "Broadview/Bitter Lake",
      "neighborhoodGroup": "Northwest"
    }
  },
  {
    "id_str": "F200027219",
    "created_at": "3/17/2020 5:40:37 AM",
    "derived": {
      "lat": 47.656872,
      "long": -122.342366,
      "timestamp": 1584448837000,
      "description": "Aid Response",
      "address": "4102 Stone Way N,Seattle,WA",
      "units": "E9",
      "entries": 1,
      "neighborhood": "Wallingford",
      "neighborhoodGroup": "Lake Union"
    }
  },
  {
    "id_str": "F200027213",
    "created_at": "3/17/2020 5:13:12 AM",
    "derived": {
      "lat": 47.69061,
      "long": -122.357982,
      "timestamp": 1584447192000,
      "description": "Dumpster Fire",
      "address": "N 85TH ST / 1ST AVE NW,Seattle,WA",
      "units": "E35",
      "entries": 1,
      "neighborhood": "Greenwood/Phinney Ridge",
      "neighborhoodGroup": "Northwest"
    }
  },
  {
    "id_str": "F200027212",
    "created_at": "3/17/2020 4:49:16 AM",
    "derived": {
      "lat": 47.730447,
      "long": -122.312702,
      "timestamp": 1584445756000,
      "description": "Aid Response Yellow",
      "address": "14021 15th Av Ne,Seattle,WA",
      "units": "E39",
      "entries": 1,
      "neighborhood": "Olympic Hills/Victory Heights",
      "neighborhoodGroup": "North"
    }
  },
  {
    "id_str": "F200027209",
    "created_at": "3/17/2020 3:41:55 AM",
    "derived": {
      "lat": 47.621989,
      "long": -122.33374,
      "timestamp": 1584441715000,
      "description": "Aid Response",
      "address": "1170 Harrison St,Seattle,WA",
      "units": "A2",
      "entries": 1,
      "neighborhood": "Cascade/Eastlake",
      "neighborhoodGroup": "Lake Union"
    }
  },
  {
    "id_str": "F200027208",
    "created_at": "3/17/2020 3:24:31 AM",
    "derived": {
      "lat": 47.540722,
      "long": -122.294804,
      "timestamp": 1584440671000,
      "description": "Activated CO Detector",
      "address": "2930 S Willow St,Seattle,WA",
      "units": "L12",
      "entries": 1,
      "neighborhood": "South Beacon Hill/NewHolly",
      "neighborhoodGroup": "Greater Duwamish"
    }
  },
  {
    "id_str": "F200027205",
    "created_at": "3/17/2020 2:53:41 AM",
    "derived": {
      "lat": 47.619736,
      "long": -122.331697,
      "timestamp": 1584438821000,
      "description": "Aid Response Yellow",
      "address": "207 Pontius Av N,Seattle,WA",
      "units": "A2",
      "entries": 1,
      "neighborhood": "Cascade/Eastlake",
      "neighborhoodGroup": "Lake Union"
    }
  },
  {
    "id_str": "F200027202",
    "created_at": "3/17/2020 2:20:47 AM",
    "derived": {
      "lat": 47.661266,
      "long": -122.284754,
      "timestamp": 1584436847000,
      "description": "Medic Response",
      "address": "4500 40th Av Ne,Seattle,WA",
      "units": "E38 M17",
      "entries": 1,
      "neighborhood": "Laurelhurst/Sand Point",
      "neighborhoodGroup": "Northeast"
    }
  },
  {
    "id_str": "F200027201",
    "created_at": "3/17/2020 2:14:46 AM",
    "derived": {
      "lat": 47.580353,
      "long": -122.31319,
      "timestamp": 1584436486000,
      "description": "1RED 1 Unit",
      "address": "2555 Beacon Av S,Seattle,WA",
      "units": "E13 E30",
      "entries": 2,
      "neighborhood": "North Beacon Hill/Jefferson Park",
      "neighborhoodGroup": "Greater Duwamish"
    }
  },
  {
    "id_str": "F200027197",
    "created_at": "3/17/2020 1:51:07 AM",
    "derived": {
      "lat": 47.544611,
      "long": -122.284457,
      "timestamp": 1584435067000,
      "description": "Aid Response",
      "address": "3822 S Angel Pl,Seattle,WA",
      "units": "E26",
      "entries": 1,
      "neighborhood": "Columbia City",
      "neighborhoodGroup": "Southeast"
    }
  },
  {
    "id_str": "F200027196",
    "created_at": "3/17/2020 1:43:25 AM",
    "derived": {
      "lat": 47.547482,
      "long": -122.369095,
      "timestamp": 1584434605000,
      "description": "Aid Response",
      "address": "5952 High Point Dr Sw,Seattle,WA",
      "units": "E37",
      "entries": 1,
      "neighborhood": "High Point",
      "neighborhoodGroup": "Delridge Neighborhoods"
    }
  },
  {
    "id_str": "F200027195",
    "created_at": "3/17/2020 1:40:50 AM",
    "derived": {
      "lat": 47.608135,
      "long": -122.298866,
      "timestamp": 1584434450000,
      "description": "Medic Response, 7 per Rule",
      "address": "714 26th Ave,Seattle,WA",
      "units": "E6 L3 M1",
      "entries": 1,
      "neighborhood": "Central Area/Squire Park",
      "neighborhoodGroup": "Central"
    }
  },
  {
    "id_str": "F200027192",
    "created_at": "3/17/2020 12:46:44 AM",
    "derived": {
      "lat": 47.613471,
      "long": -122.328902,
      "timestamp": 1584431204000,
      "description": "Aid Response",
      "address": "1101 Pike St,Seattle,WA",
      "units": "A25",
      "entries": 1,
      "neighborhood": "First Hill",
      "neighborhoodGroup": "East"
    }
  },
  {
    "id_str": "F200027190",
    "created_at": "3/17/2020 12:44:15 AM",
    "derived": {
      "lat": 47.614798,
      "long": -122.348918,
      "timestamp": 1584431055000,
      "description": "Aid Response",
      "address": "2519 1st Av,Seattle,WA",
      "units": "A2 E2",
      "entries": 2,
      "neighborhood": "Belltown",
      "neighborhoodGroup": "Downtown"
    }
  },
  {
    "id_str": "F200027189",
    "created_at": "3/17/2020 12:36:59 AM",
    "derived": {
      "lat": 47.583723,
      "long": -122.310094,
      "timestamp": 1584430619000,
      "description": "Medic Response",
      "address": "2123 18th Ave S,Seattle,WA",
      "units": "E13 M10",
      "entries": 2,
      "neighborhood": "North Beacon Hill/Jefferson Park",
      "neighborhoodGroup": "Greater Duwamish"
    }
  },
  {
    "id_str": "F200027186",
    "created_at": "3/17/2020 12:26:43 AM",
    "derived": {
      "lat": 47.553321,
      "long": -122.362969,
      "timestamp": 1584430003000,
      "description": "Aid Response",
      "address": "5444 Delridge Way Sw,Seattle,WA",
      "units": "E36",
      "entries": 1,
      "neighborhood": "High Point",
      "neighborhoodGroup": "Delridge Neighborhoods"
    }
  },
  {
    "id_str": "F200027184",
    "created_at": "3/17/2020 12:14:55 AM",
    "derived": {
      "lat": 47.610395,
      "long": -122.316779,
      "timestamp": 1584429295000,
      "description": "Aid Response",
      "address": "12th Ave / E Marion St,Seattle,WA",
      "units": "A25",
      "entries": 1,
      "neighborhood": "First Hill",
      "neighborhoodGroup": "East"
    }
  },
  {
    "id_str": "F200027183",
    "created_at": "3/17/2020 12:01:12 AM",
    "derived": {
      "lat": 47.615789,
      "long": -122.336507,
      "timestamp": 1584428472000,
      "description": "Aid Response",
      "address": "810 Virginia St,Seattle,WA",
      "units": "A2",
      "entries": 1,
      "neighborhood": "Cascade/Eastlake",
      "neighborhoodGroup": "Lake Union"
    }
  },
  {
    "id_str": "F200027182",
    "created_at": "3/16/2020 11:53:42 PM",
    "derived": {
      "lat": 47.690609,
      "long": -122.376806,
      "timestamp": 1584428022000,
      "description": "Aid Response",
      "address": "Nw 85th St / 15th Ave Nw,Seattle,WA",
      "units": "E35",
      "entries": 1,
      "neighborhood": "Whittier Heights",
      "neighborhoodGroup": "Ballard"
    }
  },
  {
    "id_str": "F200027181",
    "created_at": "3/16/2020 11:51:31 PM",
    "derived": {
      "lat": 47.681554,
      "long": -122.317457,
      "timestamp": 1584427891000,
      "description": "Aid Response",
      "address": "7300 Roosevelt Way Ne,Seattle,WA",
      "units": "E16",
      "entries": 1,
      "neighborhood": "Ravenna/Bryant",
      "neighborhoodGroup": "Northeast"
    }
  },
  {
    "id_str": "F200027179",
    "created_at": "3/16/2020 11:36:05 PM",
    "derived": {
      "lat": 47.720938,
      "long": -122.292513,
      "timestamp": 1584426965000,
      "description": "Aid Response",
      "address": "12740 33rd Av Ne,Seattle,WA",
      "units": "E39",
      "entries": 1,
      "neighborhood": "Cedar Park/Meadowbrook",
      "neighborhoodGroup": "North"
    }
  },
  {
    "id_str": "F200027176",
    "created_at": "3/16/2020 11:09:32 PM",
    "derived": {
      "lat": 47.705051,
      "long": -122.344694,
      "timestamp": 1584425372000,
      "description": "Aid Response",
      "address": "N 105th St / Aurora Ave N,Seattle,WA",
      "units": "E24",
      "entries": 1,
      "neighborhood": "Licton Springs",
      "neighborhoodGroup": "Northwest"
    }
  },
  {
    "id_str": "F200027173",
    "created_at": "3/16/2020 10:59:49 PM",
    "derived": {
      "lat": 47.616985,
      "long": -122.32344,
      "timestamp": 1584424789000,
      "description": "Aid Response",
      "address": "1726 Boylston Av,Seattle,WA",
      "units": "A25",
      "entries": 1,
      "neighborhood": "Capitol Hill",
      "neighborhoodGroup": "East"
    }
  },
  {
    "id_str": "F200027172",
    "created_at": "3/16/2020 10:58:03 PM",
    "derived": {
      "lat": 47.59919,
      "long": -122.320841,
      "timestamp": 1584424683000,
      "description": "Auto Fire Alarm",
      "address": "913 S Jackson St,Seattle,WA",
      "units": "E10 E6 L1",
      "entries": 2,
      "neighborhood": "Pioneer Square/International District",
      "neighborhoodGroup": "Downtown"
    }
  },
  {
    "id_str": "F200027169",
    "created_at": "3/16/2020 10:51:58 PM",
    "derived": {
      "lat": 47.671633,
      "long": -122.379034,
      "timestamp": 1584424318000,
      "description": "Aid Response",
      "address": "1715 Nw 59th St,Seattle,WA",
      "units": "E18",
      "entries": 1,
      "neighborhood": "Ballard",
      "neighborhoodGroup": "Ballard"
    }
  },
  {
    "id_str": "F200027166",
    "created_at": "3/16/2020 10:27:30 PM",
    "derived": {
      "lat": 47.549748,
      "long": -122.286273,
      "timestamp": 1584422850000,
      "description": "Aid Response",
      "address": "5900 37th Av S,Seattle,WA",
      "units": "E28",
      "entries": 1,
      "neighborhood": "Columbia City",
      "neighborhoodGroup": "Southeast"
    }
  },
  {
    "id_str": "F200027165",
    "created_at": "3/16/2020 10:24:48 PM",
    "derived": {
      "lat": 47.52455,
      "long": -122.352811,
      "timestamp": 1584422688000,
      "description": "Aid Response",
      "address": "8815 14th Ave Sw,Seattle,WA",
      "units": "E11",
      "entries": 1,
      "neighborhood": "Highland Park",
      "neighborhoodGroup": "Delridge Neighborhoods"
    }
  },
  {
    "id_str": "F200027163",
    "created_at": "3/16/2020 10:21:59 PM",
    "derived": {
      "lat": 47.690571,
      "long": -122.395135,
      "timestamp": 1584422519000,
      "description": "Aid Response",
      "address": "2940 Nw 85th St,Seattle,WA",
      "units": "E35",
      "entries": 1,
      "neighborhood": "North Beach/Blue Ridge",
      "neighborhoodGroup": "Ballard"
    }
  },
  {
    "id_str": "F200027162",
    "created_at": "3/16/2020 10:19:29 PM",
    "derived": {
      "lat": 47.600194,
      "long": -122.330541,
      "timestamp": 1584422369000,
      "description": "Aid Response",
      "address": "318 2nd Ave Et S,Seattle,WA",
      "units": "A5 E10",
      "entries": 2,
      "neighborhood": "Pioneer Square/International District",
      "neighborhoodGroup": "Downtown"
    }
  },
  {
    "id_str": "F200027160",
    "created_at": "3/16/2020 10:06:55 PM",
    "derived": {
      "lat": 47.595741,
      "long": -122.325068,
      "timestamp": 1584421615000,
      "description": "Aid Response",
      "address": "811 Maynard Av S,Seattle,WA",
      "units": "A10",
      "entries": 1,
      "neighborhood": "Duwamish/SODO",
      "neighborhoodGroup": "Greater Duwamish"
    }
  },
  {
    "id_str": "F200027159",
    "created_at": "3/16/2020 10:02:05 PM",
    "derived": {
      "lat": 47.615391,
      "long": -122.349498,
      "timestamp": 1584421325000,
      "description": "Aid Response",
      "address": "121 Vine St,Seattle,WA",
      "units": "A2",
      "entries": 1,
      "neighborhood": "Belltown",
      "neighborhoodGroup": "Downtown"
    }
  },
  {
    "id_str": "F200027157",
    "created_at": "3/16/2020 9:51:39 PM",
    "derived": {
      "lat": 47.619676,
      "long": -122.311141,
      "timestamp": 1584420699000,
      "description": "Rescue Elevator",
      "address": "1619 E John St,Seattle,WA",
      "units": "L10",
      "entries": 1,
      "neighborhood": "Miller Park",
      "neighborhoodGroup": "East"
    }
  },
  {
    "id_str": "F200027152",
    "created_at": "3/16/2020 9:28:24 PM",
    "derived": {
      "lat": 47.646885,
      "long": -122.351353,
      "timestamp": 1584419304000,
      "description": "MVI - Motor Vehicle Incident",
      "address": "3rd Ave N / Nickerson St,Seattle,WA",
      "units": "E9",
      "entries": 1,
      "neighborhood": "Queen Anne",
      "neighborhoodGroup": "Magnolia/Queen Anne"
    }
  },
  {
    "id_str": "F200027150",
    "created_at": "3/16/2020 9:12:18 PM",
    "derived": {
      "lat": 47.546228,
      "long": -122.376407,
      "timestamp": 1584418338000,
      "description": "Aid Response",
      "address": "6330 35TH AVE SW,Seattle,WA",
      "units": "E37",
      "entries": 1,
      "neighborhood": "High Point",
      "neighborhoodGroup": "Delridge Neighborhoods"
    }
  },
  {
    "id_str": "F200027146",
    "created_at": "3/16/2020 9:10:03 PM",
    "derived": {
      "lat": 47.662932,
      "long": -122.376119,
      "timestamp": 1584418203000,
      "description": "Dumpster Fire",
      "address": "15TH AVE NW / NW BALLARD WAY,Seattle,WA",
      "units": "E18 MAR5",
      "entries": 2,
      "neighborhood": "Ballard",
      "neighborhoodGroup": "Ballard"
    }
  },
  {
    "id_str": "F200027145",
    "created_at": "3/16/2020 9:05:39 PM",
    "derived": {
      "lat": 47.595775,
      "long": -122.29392,
      "timestamp": 1584417939000,
      "description": "Hang-Up, Aid",
      "address": "3000 S Dearborn St,Seattle,WA",
      "units": "E6 L3",
      "entries": 2,
      "neighborhood": "Madrona/Leschi",
      "neighborhoodGroup": "Central"
    }
  },
  {
    "id_str": "F200027144",
    "created_at": "3/16/2020 9:00:47 PM",
    "derived": {
      "lat": 47.53705,
      "long": -122.280473,
      "timestamp": 1584417647000,
      "description": "Medic Response",
      "address": "4219 S Othello St,Seattle,WA",
      "units": "E28 M28",
      "entries": 2,
      "neighborhood": "Columbia City",
      "neighborhoodGroup": "Southeast"
    }
  },
  {
    "id_str": "F200027143",
    "created_at": "3/16/2020 8:56:18 PM",
    "derived": {
      "lat": 47.517363,
      "long": -122.365913,
      "timestamp": 1584417378000,
      "description": "Aid Response",
      "address": "26th Ave Sw/sw Roxbury St,Seattle,WA",
      "units": "E11",
      "entries": 1
    }
  },
  {
    "id_str": "F200027142",
    "created_at": "3/16/2020 8:53:16 PM",
    "derived": {
      "lat": 47.615116,
      "long": -122.351504,
      "timestamp": 1584417196000,
      "description": "Rescue Elevator",
      "address": "62 Cedar St,Seattle,WA",
      "units": "L4",
      "entries": 1,
      "neighborhood": "Belltown",
      "neighborhoodGroup": "Downtown"
    }
  },
  {
    "id_str": "F200027141",
    "created_at": "3/16/2020 8:52:02 PM",
    "derived": {
      "lat": 47.599924,
      "long": -122.31027,
      "timestamp": 1584417122000,
      "description": "Aid Response",
      "address": "310 17th Av S,Seattle,WA",
      "units": "E6",
      "entries": 1,
      "neighborhood": "Judkins Park",
      "neighborhoodGroup": "Central"
    }
  },
  {
    "id_str": "F200027139",
    "created_at": "3/16/2020 8:41:51 PM",
    "derived": {
      "lat": 47.69429,
      "long": -122.35534,
      "timestamp": 1584416511000,
      "description": "Aid Response",
      "address": "9009 Greenwood Av N,Seattle,WA",
      "units": "E35",
      "entries": 1,
      "neighborhood": "Greenwood/Phinney Ridge",
      "neighborhoodGroup": "Northwest"
    }
  },
  {
    "id_str": "F200027136",
    "created_at": "3/16/2020 8:31:00 PM",
    "derived": {
      "lat": 47.518265,
      "long": -122.270006,
      "timestamp": 1584415860000,
      "description": "Investigate Out Of Service",
      "address": "51st Ave S / S Cambridge St,Seattle,WA",
      "units": "E33",
      "entries": 1,
      "neighborhood": "Rainier Beach",
      "neighborhoodGroup": "Southeast"
    }
  },
  {
    "id_str": "F200027135",
    "created_at": "3/16/2020 8:28:52 PM",
    "derived": {
      "lat": 47.621113,
      "long": -122.358044,
      "timestamp": 1584415732000,
      "description": "Auto Fire Alarm",
      "address": "315 1st Av W,Seattle,WA",
      "units": "E22 L4",
      "entries": 1,
      "neighborhood": "Queen Anne",
      "neighborhoodGroup": "Magnolia/Queen Anne"
    }
  },
  {
    "id_str": "F200027133",
    "created_at": "3/16/2020 8:19:43 PM",
    "derived": {
      "lat": 47.538958,
      "long": -122.296081,
      "timestamp": 1584415183000,
      "description": "Aid Response",
      "address": "Beacon Ave S / S Myrtle St,Seattle,WA",
      "units": "E27",
      "entries": 1,
      "neighborhood": "South Beacon Hill/NewHolly",
      "neighborhoodGroup": "Greater Duwamish"
    }
  },
  {
    "id_str": "F200027134",
    "created_at": "3/16/2020 8:17:18 PM",
    "derived": {
      "lat": 47.601719,
      "long": -122.331984,
      "timestamp": 1584415038000,
      "description": "Hang-Up, Aid",
      "address": "YESLER WAY / 2ND AVE,Seattle,WA",
      "units": "A5",
      "entries": 1,
      "neighborhood": "Downtown Commercial Core",
      "neighborhoodGroup": "Downtown"
    }
  },
  {
    "id_str": "F200027131",
    "created_at": "3/16/2020 8:05:10 PM",
    "derived": {
      "lat": 47.635355,
      "long": -122.345922,
      "timestamp": 1584414310000,
      "description": "Brush Fire W/Exp.",
      "address": "1800 Taylor Av N,Seattle,WA",
      "units": "B2 E22 E25 L6 SAFT2",
      "entries": 2,
      "neighborhood": "Queen Anne",
      "neighborhoodGroup": "Magnolia/Queen Anne"
    }
  },
  {
    "id_str": "F200027129",
    "created_at": "3/16/2020 7:59:03 PM",
    "derived": {
      "lat": 47.635793,
      "long": -122.343573,
      "timestamp": 1584413943000,
      "description": "Brush Fire",
      "address": "Sb Sr99 At Howe St,Seattle,WA",
      "units": "B2 E2 E20 E22 E25 MAR5 SAFT2",
      "entries": 4,
      "neighborhood": "Queen Anne",
      "neighborhoodGroup": "Magnolia/Queen Anne"
    }
  },
  {
    "id_str": "F200027128",
    "created_at": "3/16/2020 7:58:16 PM",
    "derived": {
      "lat": 47.663106,
      "long": -122.315263,
      "timestamp": 1584413896000,
      "description": "Auto Fire Alarm",
      "address": "4700 12th Av Ne,Seattle,WA",
      "units": "E17 E31 L9",
      "entries": 2,
      "neighborhood": "University District",
      "neighborhoodGroup": "Northeast"
    }
  },
  {
    "id_str": "F200027125",
    "created_at": "3/16/2020 7:56:16 PM",
    "derived": {
      "lat": 47.635701,
      "long": -122.345918,
      "timestamp": 1584413776000,
      "description": "Brush Fire",
      "address": "HOWE ST / TAYLOR AVE N,Seattle,WA",
      "units": "E8",
      "entries": 1,
      "neighborhood": "Queen Anne",
      "neighborhoodGroup": "Magnolia/Queen Anne"
    }
  },
  {
    "id_str": "F200027123",
    "created_at": "3/16/2020 7:46:21 PM",
    "derived": {
      "lat": 47.612643,
      "long": -122.343292,
      "timestamp": 1584413181000,
      "description": "Investigate Out Of Service",
      "address": "2119 2nd Av,Seattle,WA",
      "units": "E2",
      "entries": 1,
      "neighborhood": "Belltown",
      "neighborhoodGroup": "Downtown"
    }
  },
  {
    "id_str": "F200027122",
    "created_at": "3/16/2020 7:43:30 PM",
    "derived": {
      "lat": 47.599991,
      "long": -122.330342,
      "timestamp": 1584413010000,
      "description": "Medic Response",
      "address": "3RD AVE S / S MAIN ST,Seattle,WA",
      "units": "A5 E10 M1",
      "entries": 2,
      "neighborhood": "Pioneer Square/International District",
      "neighborhoodGroup": "Downtown"
    }
  },
  {
    "id_str": "F200027121",
    "created_at": "3/16/2020 7:41:55 PM",
    "derived": {
      "lat": 47.518899,
      "long": -122.359185,
      "timestamp": 1584412915000,
      "description": "Medic Response",
      "address": "9432 20th Ave Sw,Seattle,WA",
      "units": "E11 M28",
      "entries": 2,
      "neighborhood": "Roxhill/Westwood",
      "neighborhoodGroup": "Delridge Neighborhoods"
    }
  },
  {
    "id_str": "F200027120",
    "created_at": "3/16/2020 7:37:37 PM",
    "derived": {
      "lat": 47.572016,
      "long": -122.386765,
      "timestamp": 1584412657000,
      "description": "Aid Response",
      "address": "SW SPOKANE ST / CALIFORNIA AVE SW,Seattle,WA",
      "units": "E29",
      "entries": 1,
      "neighborhood": "West Seattle Junction/Genesee Hill",
      "neighborhoodGroup": "Southwest"
    }
  },
  {
    "id_str": "F200027117",
    "created_at": "3/16/2020 7:24:47 PM",
    "derived": {
      "lat": 47.682124,
      "long": -122.263668,
      "timestamp": 1584411887000,
      "description": "Medic Response",
      "address": "7400 Sand Point Way Ne,Seattle,WA",
      "units": "E38 M18",
      "entries": 2,
      "neighborhood": "Laurelhurst/Sand Point",
      "neighborhoodGroup": "Northeast"
    }
  },
  {
    "id_str": "F200027116",
    "created_at": "3/16/2020 7:22:12 PM",
    "derived": {
      "lat": 47.71556,
      "long": -122.283875,
      "timestamp": 1584411732000,
      "description": "Investigate Out Of Service",
      "address": "NE 120TH ST / BARTLETT AVE NE,Seattle,WA",
      "units": "E39",
      "entries": 1,
      "neighborhood": "Cedar Park/Meadowbrook",
      "neighborhoodGroup": "North"
    }
  },
  {
    "id_str": "F200027114",
    "created_at": "3/16/2020 7:10:31 PM",
    "derived": {
      "lat": 47.564617,
      "long": -122.329378,
      "timestamp": 1584411031000,
      "description": "Aid Response",
      "address": "4401 4th Av S,Seattle,WA",
      "units": "A14",
      "entries": 1,
      "neighborhood": "Duwamish/SODO",
      "neighborhoodGroup": "Greater Duwamish"
    }
  },
  {
    "id_str": "F200027113",
    "created_at": "3/16/2020 6:56:52 PM",
    "derived": {
      "lat": 47.698721,
      "long": -122.34681,
      "timestamp": 1584410212000,
      "description": "Medic Response, 7 per Rule",
      "address": "937 N 96th St,Seattle,WA",
      "units": "A31 E21 M17",
      "entries": 2,
      "neighborhood": "Licton Springs",
      "neighborhoodGroup": "Northwest"
    }
  },
  {
    "id_str": "F200027111",
    "created_at": "3/16/2020 6:49:14 PM",
    "derived": {
      "lat": 47.664958,
      "long": -122.320703,
      "timestamp": 1584409754000,
      "description": "Rubbish Fire",
      "address": "7th Ave Ne / Ne 50th St,Seattle,WA",
      "units": "E31",
      "entries": 1,
      "neighborhood": "Wallingford",
      "neighborhoodGroup": "Lake Union"
    }
  },
  {
    "id_str": "F200027109",
    "created_at": "3/16/2020 6:45:05 PM",
    "derived": {
      "lat": 47.618896,
      "long": -122.325288,
      "timestamp": 1584409505000,
      "description": "Aid Response",
      "address": "1600 E Olive Way,Seattle,WA",
      "units": "A25",
      "entries": 1,
      "neighborhood": "Capitol Hill",
      "neighborhoodGroup": "East"
    }
  },
  {
    "id_str": "F200027106",
    "created_at": "3/16/2020 6:37:52 PM",
    "derived": {
      "lat": 47.654253,
      "long": -122.324582,
      "timestamp": 1584409072000,
      "description": "Aid Response",
      "address": "3814 4th Av Ne,Seattle,WA",
      "units": "E22",
      "entries": 1,
      "neighborhood": "Wallingford",
      "neighborhoodGroup": "Lake Union"
    }
  },
  {
    "id_str": "F200027104",
    "created_at": "3/16/2020 6:33:32 PM",
    "derived": {
      "lat": 47.588027,
      "long": -122.386277,
      "timestamp": 1584408812000,
      "description": "Medic Response, 7 per Rule",
      "address": "1703 California Av Sw,Seattle,WA",
      "units": "E29 E32 M32",
      "entries": 1,
      "neighborhood": "Alki/Admiral",
      "neighborhoodGroup": "Southwest"
    }
  },
  {
    "id_str": "F200027103",
    "created_at": "3/16/2020 6:32:09 PM",
    "derived": {
      "lat": 47.623398,
      "long": -122.333002,
      "timestamp": 1584408729000,
      "description": "Aid Response",
      "address": "525 Minor Av N,Seattle,WA",
      "units": "A2",
      "entries": 1,
      "neighborhood": "Cascade/Eastlake",
      "neighborhoodGroup": "Lake Union"
    }
  },
  {
    "id_str": "F200027101",
    "created_at": "3/16/2020 6:28:27 PM",
    "derived": {
      "lat": 47.625175,
      "long": -122.291038,
      "timestamp": 1584408507000,
      "description": "Aid Response",
      "address": "633 32nd Av E,Seattle,WA",
      "units": "E34",
      "entries": 1,
      "neighborhood": "Madison Park",
      "neighborhoodGroup": "East"
    }
  },
  {
    "id_str": "F200027100",
    "created_at": "3/16/2020 6:23:39 PM",
    "derived": {
      "lat": 47.618002,
      "long": -122.329182,
      "timestamp": 1584408219000,
      "description": "Aid Response",
      "address": "1811 Eastlake Av,Seattle,WA",
      "units": "A4",
      "entries": 1,
      "neighborhood": "Cascade/Eastlake",
      "neighborhoodGroup": "Lake Union"
    }
  },
  {
    "id_str": "F200027098",
    "created_at": "3/16/2020 6:22:25 PM",
    "derived": {
      "lat": 47.659878,
      "long": -122.304571,
      "timestamp": 1584408145000,
      "description": "Auto Fire Alarm",
      "address": "4320 Whitman Ln Ne,Seattle,WA",
      "units": "E17 L10 L9 R1",
      "entries": 3,
      "neighborhood": "University District",
      "neighborhoodGroup": "Northeast"
    }
  },
  {
    "id_str": "F200027096",
    "created_at": "3/16/2020 6:21:39 PM",
    "derived": {
      "lat": 47.546483,
      "long": -122.304761,
      "timestamp": 1584408099000,
      "description": "Aid Response",
      "address": "2201 S Graham St,Seattle,WA",
      "units": "E27",
      "entries": 1,
      "neighborhood": "Beacon Hill",
      "neighborhoodGroup": "Greater Duwamish"
    }
  },
  {
    "id_str": "F200027093",
    "created_at": "3/16/2020 6:16:34 PM",
    "derived": {
      "lat": 47.530862,
      "long": -122.280779,
      "timestamp": 1584407794000,
      "description": "Auto Fire Alarm",
      "address": "7921 M L King Jr Way S,Seattle,WA",
      "units": "E33 L12",
      "entries": 1,
      "neighborhood": "South Beacon Hill/NewHolly",
      "neighborhoodGroup": "Greater Duwamish"
    }
  },
  {
    "id_str": "F200027091",
    "created_at": "3/16/2020 6:14:37 PM",
    "derived": {
      "lat": 47.663106,
      "long": -122.315263,
      "timestamp": 1584407677000,
      "description": "Auto Fire Alarm",
      "address": "4700 12th Av Ne,Seattle,WA",
      "units": "E31 L10",
      "entries": 1,
      "neighborhood": "University District",
      "neighborhoodGroup": "Northeast"
    }
  },
  {
    "id_str": "F200027090",
    "created_at": "3/16/2020 6:10:07 PM",
    "derived": {
      "lat": 47.69064,
      "long": -122.401969,
      "timestamp": 1584407407000,
      "description": "Water Rescue Response",
      "address": "8498 Seaview Pl Nw,Seattle,WA",
      "units": "A14 B4 B6 E18 E41 E5 FB2 FIREBOAT FRB5 L8 L9 M18 M44 PTRL4 R1 SAFT2",
      "entries": 2,
      "neighborhood": "Sunset Hill/Loyal Heights",
      "neighborhoodGroup": "Ballard"
    }
  },
  {
    "id_str": "F200027085",
    "created_at": "3/16/2020 5:57:30 PM",
    "derived": {
      "lat": 47.613466,
      "long": -122.328913,
      "timestamp": 1584406650000,
      "description": "Aid Response",
      "address": "Boren Ave / Pike St,Seattle,WA",
      "units": "A25 E25",
      "entries": 2,
      "neighborhood": "First Hill",
      "neighborhoodGroup": "East"
    }
  },
  {
    "id_str": "F200027084",
    "created_at": "3/16/2020 5:55:52 PM",
    "derived": {
      "lat": 47.638102,
      "long": -122.309483,
      "timestamp": 1584406552000,
      "description": "Automatic Fire Alarm Resd",
      "address": "2000 18th Ave E,Seattle,WA",
      "units": "E22",
      "entries": 1,
      "neighborhood": "Montlake/Portage Bay",
      "neighborhoodGroup": "Northeast"
    }
  },
  {
    "id_str": "F200027083",
    "created_at": "3/16/2020 5:51:32 PM",
    "derived": {
      "lat": 47.521244,
      "long": -122.336301,
      "timestamp": 1584406292000,
      "description": "Scenes Of Violence 7",
      "address": "9200 2nd Av Sw,Seattle,WA",
      "units": "B5 E11 E26 M32 M44",
      "entries": 1,
      "neighborhood": "Highland Park",
      "neighborhoodGroup": "Delridge Neighborhoods"
    }
  },
  {
    "id_str": "F200027082",
    "created_at": "3/16/2020 5:49:07 PM",
    "derived": {
      "lat": 47.51915,
      "long": -122.371365,
      "timestamp": 1584406147000,
      "description": "Aid Response",
      "address": "9307 30th Ave Sw,Seattle,WA",
      "units": "E37",
      "entries": 1,
      "neighborhood": "Roxhill/Westwood",
      "neighborhoodGroup": "Delridge Neighborhoods"
    }
  },
  {
    "id_str": "F200027081",
    "created_at": "3/16/2020 5:46:55 PM",
    "derived": {
      "lat": 47.605225,
      "long": -122.32075,
      "timestamp": 1584406015000,
      "description": "Aid Response",
      "address": "Broadway / E Terrace St,Seattle,WA",
      "units": "A25",
      "entries": 1,
      "neighborhood": "First Hill",
      "neighborhoodGroup": "East"
    }
  },
  {
    "id_str": "F200027079",
    "created_at": "3/16/2020 5:42:57 PM",
    "derived": {
      "lat": 47.723436,
      "long": -122.355547,
      "timestamp": 1584405777000,
      "description": "Medic Response",
      "address": "13023 Greenwood Av N,Seattle,WA",
      "units": "A31 M31",
      "entries": 2,
      "neighborhood": "Broadview/Bitter Lake",
      "neighborhoodGroup": "Northwest"
    }
  },
  {
    "id_str": "F200027078",
    "created_at": "3/16/2020 5:41:40 PM",
    "derived": {
      "lat": 47.610321,
      "long": -122.343637,
      "timestamp": 1584405700000,
      "description": "Rubbish Fire",
      "address": "Western Ave / Virginia St,Seattle,WA",
      "units": "E5",
      "entries": 1,
      "neighborhood": "Downtown Commercial Core",
      "neighborhoodGroup": "Downtown"
    }
  },
  {
    "id_str": "F200027077",
    "created_at": "3/16/2020 5:28:34 PM",
    "derived": {
      "lat": 47.624465,
      "long": -122.342354,
      "timestamp": 1584404914000,
      "description": "Aid Response",
      "address": "Aurora Ave N / Mercer St,Seattle,WA",
      "units": "A2",
      "entries": 1,
      "neighborhood": "Cascade/Eastlake",
      "neighborhoodGroup": "Lake Union"
    }
  },
  {
    "id_str": "F200027076",
    "created_at": "3/16/2020 5:28:20 PM",
    "derived": {
      "lat": 47.661319,
      "long": -122.320728,
      "timestamp": 1584404900000,
      "description": "Aid Response",
      "address": "7th Ave Ne / Ne 45th St,Seattle,WA",
      "units": "E17 L9",
      "entries": 2,
      "neighborhood": "Wallingford",
      "neighborhoodGroup": "Lake Union"
    }
  },
  {
    "id_str": "F200027074",
    "created_at": "3/16/2020 5:23:46 PM",
    "derived": {
      "lat": 47.660045,
      "long": -122.317737,
      "timestamp": 1584404626000,
      "description": "Aid Response",
      "address": "4343 Roosevelt Way Ne,Seattle,WA",
      "units": "E31",
      "entries": 1,
      "neighborhood": "Wallingford",
      "neighborhoodGroup": "Lake Union"
    }
  },
  {
    "id_str": "F200027072",
    "created_at": "3/16/2020 5:19:26 PM",
    "derived": {
      "lat": 47.634989,
      "long": -122.372776,
      "timestamp": 1584404366000,
      "description": "Aid Response",
      "address": "1821 12th Ave W,Seattle,WA",
      "units": "A2 A4",
      "entries": 2,
      "neighborhood": "Interbay",
      "neighborhoodGroup": "Magnolia/Queen Anne"
    }
  },
  {
    "id_str": "F200027070",
    "created_at": "3/16/2020 5:18:02 PM",
    "derived": {
      "lat": 47.564617,
      "long": -122.329378,
      "timestamp": 1584404282000,
      "description": "1RED 1 Unit",
      "address": "4401 4th Av S,Seattle,WA",
      "units": "R1",
      "entries": 1,
      "neighborhood": "Duwamish/SODO",
      "neighborhoodGroup": "Greater Duwamish"
    }
  },
  {
    "id_str": "F200027067",
    "created_at": "3/16/2020 5:16:49 PM",
    "derived": {
      "lat": 47.614076,
      "long": -122.32078,
      "timestamp": 1584404209000,
      "description": "Aid Response",
      "address": "E Pike St / Broadway,Seattle,WA",
      "units": "A25",
      "entries": 1,
      "neighborhood": "Capitol Hill",
      "neighborhoodGroup": "East"
    }
  },
  {
    "id_str": "F200027068",
    "created_at": "3/16/2020 5:14:11 PM",
    "derived": {
      "lat": 47.669446,
      "long": -122.37945,
      "timestamp": 1584404051000,
      "description": "Aid Response",
      "address": "1753 Nw 56th St,Seattle,WA",
      "units": "E18",
      "entries": 1,
      "neighborhood": "Ballard",
      "neighborhoodGroup": "Ballard"
    }
  },
  {
    "id_str": "F200027066",
    "created_at": "3/16/2020 5:12:53 PM",
    "derived": {
      "lat": 47.537954,
      "long": -122.361092,
      "timestamp": 1584403973000,
      "description": "MVI - Motor Vehicle Incident",
      "address": "Delridge Way Sw / Sw Orchard St,Seattle,WA",
      "units": "E11",
      "entries": 1,
      "neighborhood": "Riverview",
      "neighborhoodGroup": "Delridge Neighborhoods"
    }
  }
]