[
  {
    "id_str": "F200018691",
    "created_at": "2/21/2020 3:57:54 PM",
    "derived": {
      "lat": 47.698346,
      "long": -122.287114,
      "timestamp": 1582329474000,
      "description": "Aid Response",
      "address": "3827 Ne 96th St,Seattle,WA",
      "entries": 1,
      "neighborhood": "Wedgwood/View Ridge",
      "neighborhoodGroup": "Northeast",
      "unitCount": 1,
      "severity": 0,
      "units": "E40"
    }
  },
  {
    "id_str": "F200018688",
    "created_at": "2/21/2020 3:55:00 PM",
    "derived": {
      "lat": 47.692012,
      "long": -122.344539,
      "timestamp": 1582329300000,
      "description": "Aid Response",
      "address": "N 87th St / Aurora Ave N,Seattle,WA",
      "entries": 1,
      "neighborhood": "Licton Springs",
      "neighborhoodGroup": "Northwest",
      "unitCount": 1,
      "severity": 0,
      "units": "E35"
    }
  },
  {
    "id_str": "F200018687",
    "created_at": "2/21/2020 3:54:16 PM",
    "derived": {
      "lat": 47.602165,
      "long": -122.330856,
      "timestamp": 1582329256000,
      "description": "Aid Response",
      "address": "516 3rd Av,Seattle,WA",
      "entries": 1,
      "neighborhood": "Downtown Commercial Core",
      "neighborhoodGroup": "Downtown",
      "unitCount": 1,
      "severity": 0,
      "units": "A10"
    }
  },
  {
    "id_str": "F200018686",
    "created_at": "2/21/2020 3:53:08 PM",
    "derived": {
      "lat": 47.627255,
      "long": -122.325583,
      "timestamp": 1582329188000,
      "description": "Medic Response",
      "address": "1000 BELLEVUE PL E,Seattle,WA",
      "entries": 2,
      "neighborhood": "North Capitol Hill",
      "neighborhoodGroup": "East",
      "unitCount": 2,
      "severity": 0,
      "units": "A25 M18"
    }
  },
  {
    "id_str": "F200018683",
    "created_at": "2/21/2020 3:50:00 PM",
    "derived": {
      "lat": 47.609433,
      "long": -122.341832,
      "timestamp": 1582329000000,
      "description": "Aid Response",
      "address": "Pike Pl / Pine St,Seattle,WA",
      "entries": 1,
      "neighborhood": "Downtown Commercial Core",
      "neighborhoodGroup": "Downtown",
      "unitCount": 1,
      "severity": 0,
      "units": "A4"
    }
  },
  {
    "id_str": "F200018682",
    "created_at": "2/21/2020 3:48:47 PM",
    "derived": {
      "lat": 47.600823,
      "long": -122.334182,
      "timestamp": 1582328927000,
      "description": "Medic Response",
      "address": "207 1st Av S,Seattle,WA",
      "entries": 1,
      "neighborhood": "Pioneer Square/International District",
      "neighborhoodGroup": "Downtown",
      "unitCount": 2,
      "severity": 0,
      "units": "A5 M1"
    }
  },
  {
    "id_str": "F200018679",
    "created_at": "2/21/2020 3:35:59 PM",
    "derived": {
      "lat": 47.661375,
      "long": -122.308381,
      "timestamp": 1582328159000,
      "description": "Alarm Bell",
      "address": "4514 18th Av Ne,Seattle,WA",
      "entries": 1,
      "neighborhood": "University District",
      "neighborhoodGroup": "Northeast",
      "unitCount": 2,
      "severity": 0,
      "units": "E31 L9"
    }
  },
  {
    "id_str": "F200018677",
    "created_at": "2/21/2020 3:21:13 PM",
    "derived": {
      "lat": 47.612169,
      "long": -122.335294,
      "timestamp": 1582327273000,
      "description": "Aid Response",
      "address": "607 Pine St,Seattle,WA",
      "entries": 2,
      "neighborhood": "First Hill",
      "neighborhoodGroup": "East",
      "unitCount": 2,
      "severity": 0,
      "units": "A2 A4"
    }
  },
  {
    "id_str": "F200018676",
    "created_at": "2/21/2020 3:19:29 PM",
    "derived": {
      "lat": 47.559187,
      "long": -122.386834,
      "timestamp": 1582327169000,
      "description": "Aid Response",
      "address": "4815 California Av Sw,Seattle,WA",
      "entries": 1,
      "neighborhood": "West Seattle Junction/Genesee Hill",
      "neighborhoodGroup": "Southwest",
      "unitCount": 1,
      "severity": 0,
      "units": "E32"
    }
  },
  {
    "id_str": "F200018674",
    "created_at": "2/21/2020 3:13:35 PM",
    "derived": {
      "lat": 47.732673,
      "long": -122.33591,
      "timestamp": 1582326815000,
      "description": "Medic Response",
      "address": "14340 Burke Ave N,Seattle,WA",
      "entries": 2,
      "neighborhood": "Haller Lake",
      "neighborhoodGroup": "Northwest",
      "unitCount": 2,
      "severity": 0,
      "units": "A31 M17"
    }
  },
  {
    "id_str": "F200018673",
    "created_at": "2/21/2020 3:05:51 PM",
    "derived": {
      "lat": 47.589189,
      "long": -122.308396,
      "timestamp": 1582326351000,
      "description": "Aid Response",
      "address": "1541 19th Ave S,Seattle,WA",
      "entries": 1,
      "neighborhood": "North Beacon Hill/Jefferson Park",
      "neighborhoodGroup": "Greater Duwamish",
      "unitCount": 1,
      "severity": 0,
      "units": "E30"
    }
  },
  {
    "id_str": "F200018672",
    "created_at": "2/21/2020 3:03:24 PM",
    "derived": {
      "lat": 47.611606,
      "long": -122.333354,
      "timestamp": 1582326204000,
      "description": "Aid Response",
      "address": "1501 7th Ave,Seattle,WA",
      "entries": 1,
      "neighborhood": "First Hill",
      "neighborhoodGroup": "East",
      "unitCount": 1,
      "severity": 0,
      "units": "A4"
    }
  },
  {
    "id_str": "F200018671",
    "created_at": "2/21/2020 2:59:19 PM",
    "derived": {
      "lat": 47.590493,
      "long": -122.337418,
      "timestamp": 1582325959000,
      "description": "Rescue Elevator",
      "address": "1519 Alaskan Way S,Seattle,WA",
      "entries": 1,
      "neighborhood": "Duwamish/SODO",
      "neighborhoodGroup": "Greater Duwamish",
      "unitCount": 1,
      "severity": 0,
      "units": "L1"
    }
  },
  {
    "id_str": "F200018667",
    "created_at": "2/21/2020 2:44:17 PM",
    "derived": {
      "lat": 47.57503,
      "long": -122.295617,
      "timestamp": 1582325057000,
      "description": "MVI - Motor Vehicle Incident",
      "address": "3200 Rainier Ave S,Seattle,WA",
      "entries": 1,
      "neighborhood": "Mt. Baker/North Rainier",
      "neighborhoodGroup": "Southeast",
      "unitCount": 1,
      "severity": 0,
      "units": "E30"
    }
  },
  {
    "id_str": "F200018666",
    "created_at": "2/21/2020 2:42:33 PM",
    "derived": {
      "lat": 47.631507,
      "long": -122.367808,
      "timestamp": 1582324953000,
      "description": "Automatic Fire Alarm Resd",
      "address": "1433 8TH AVE W,Seattle,WA",
      "entries": 3,
      "neighborhood": "Queen Anne",
      "neighborhoodGroup": "Magnolia/Queen Anne",
      "unitCount": 3,
      "severity": 0,
      "units": "E2 E8 L4"
    }
  },
  {
    "id_str": "F200018665",
    "created_at": "2/21/2020 2:39:14 PM",
    "derived": {
      "lat": 47.640085,
      "long": -122.329388,
      "timestamp": 1582324754000,
      "description": "Aid Response",
      "address": "2331 Fairview Av E,Seattle,WA",
      "entries": 1,
      "neighborhood": "Montlake/Portage Bay",
      "neighborhoodGroup": "Northeast",
      "unitCount": 1,
      "severity": 0,
      "units": "E22"
    }
  },
  {
    "id_str": "F200018664",
    "created_at": "2/21/2020 2:33:37 PM",
    "derived": {
      "lat": 47.590336,
      "long": -122.386193,
      "timestamp": 1582324417000,
      "description": "Aid Response",
      "address": "1520 California Av Sw,Seattle,WA",
      "entries": 1,
      "neighborhood": "Alki/Admiral",
      "neighborhoodGroup": "Southwest",
      "unitCount": 1,
      "severity": 0,
      "units": "E32"
    }
  },
  {
    "id_str": "F200018662",
    "created_at": "2/21/2020 2:30:06 PM",
    "derived": {
      "lat": 47.581214,
      "long": -122.391903,
      "timestamp": 1582324206000,
      "description": "Medic Response",
      "address": "4700 Sw Admiral Way,Seattle,WA",
      "entries": 2,
      "neighborhood": "West Seattle Junction/Genesee Hill",
      "neighborhoodGroup": "Southwest",
      "unitCount": 2,
      "severity": 0,
      "units": "E29 M10"
    }
  },
  {
    "id_str": "F200018661",
    "created_at": "2/21/2020 2:28:15 PM",
    "derived": {
      "lat": 47.528039,
      "long": -122.360461,
      "timestamp": 1582324095000,
      "description": "Aid Response",
      "address": "8427 Delridge Way Sw,Seattle,WA",
      "entries": 1,
      "neighborhood": "Roxhill/Westwood",
      "neighborhoodGroup": "Delridge Neighborhoods",
      "unitCount": 1,
      "severity": 0,
      "units": "E11"
    }
  },
  {
    "id_str": "F200018660",
    "created_at": "2/21/2020 2:27:35 PM",
    "derived": {
      "lat": 47.703624,
      "long": -122.333909,
      "timestamp": 1582324055000,
      "description": "Aid Response",
      "address": "10345 Meridian Av N,Seattle,WA",
      "entries": 1,
      "neighborhood": "Northgate/Maple Leaf",
      "neighborhoodGroup": "North",
      "unitCount": 1,
      "severity": 0,
      "units": "L5"
    }
  },
  {
    "id_str": "F200018659",
    "created_at": "2/21/2020 2:26:07 PM",
    "derived": {
      "lat": 47.58617,
      "long": -122.329062,
      "timestamp": 1582323967000,
      "description": "Aid Response",
      "address": "4th Ave S / S Holgate St,Seattle,WA",
      "entries": 1,
      "neighborhood": "Duwamish/SODO",
      "neighborhoodGroup": "Greater Duwamish",
      "unitCount": 1,
      "severity": 0,
      "units": "A14"
    }
  },
  {
    "id_str": "F200018658",
    "created_at": "2/21/2020 2:25:03 PM",
    "derived": {
      "lat": 47.613516,
      "long": -122.346752,
      "timestamp": 1582323903000,
      "description": "Aid Response",
      "address": "2319 1st Av,Seattle,WA",
      "entries": 1,
      "neighborhood": "Belltown",
      "neighborhoodGroup": "Downtown",
      "unitCount": 1,
      "severity": 0,
      "units": "E2"
    }
  },
  {
    "id_str": "F200018657",
    "created_at": "2/21/2020 2:24:01 PM",
    "derived": {
      "lat": 47.509895,
      "long": -122.387141,
      "timestamp": 1582323841000,
      "description": "Medic Response",
      "address": "10420 California Ave Sw,Seattle,WA",
      "entries": 2,
      "neighborhood": "Arbor Heights",
      "neighborhoodGroup": "Southwest",
      "unitCount": 3,
      "severity": 0,
      "units": "E26 E37 M18"
    }
  },
  {
    "id_str": "F200018655",
    "created_at": "2/21/2020 2:17:47 PM",
    "derived": {
      "lat": 47.602382,
      "long": -122.332338,
      "timestamp": 1582323467000,
      "description": "Aid Response",
      "address": "216 James St,Seattle,WA",
      "entries": 1,
      "neighborhood": "Downtown Commercial Core",
      "neighborhoodGroup": "Downtown",
      "unitCount": 1,
      "severity": 0,
      "units": "A5"
    }
  },
  {
    "id_str": "F200018652",
    "created_at": "2/21/2020 2:15:32 PM",
    "derived": {
      "lat": 47.612626,
      "long": -122.341277,
      "timestamp": 1582323332000,
      "description": "Aid Response",
      "address": "2030 3rd Av,Seattle,WA",
      "entries": 1,
      "neighborhood": "Cascade/Eastlake",
      "neighborhoodGroup": "Lake Union",
      "unitCount": 1,
      "severity": 0,
      "units": "E2"
    }
  },
  {
    "id_str": "F200018651",
    "created_at": "2/21/2020 2:15:06 PM",
    "derived": {
      "lat": 47.612626,
      "long": -122.341277,
      "timestamp": 1582323306000,
      "description": "Medic Response",
      "address": "2030 3rd Av,Seattle,WA",
      "entries": 1,
      "neighborhood": "Cascade/Eastlake",
      "neighborhoodGroup": "Lake Union",
      "unitCount": 2,
      "severity": 0,
      "units": "A2 M18"
    }
  },
  {
    "id_str": "F200018653",
    "created_at": "2/21/2020 2:13:47 PM",
    "derived": {
      "lat": 47.678031,
      "long": -122.297392,
      "timestamp": 1582323227000,
      "description": "Aid Response",
      "address": "6836 28th Ave Ne,Seattle,WA",
      "entries": 1,
      "neighborhood": "Ravenna/Bryant",
      "neighborhoodGroup": "Northeast",
      "unitCount": 1,
      "severity": 0,
      "units": "E16"
    }
  },
  {
    "id_str": "F200018650",
    "created_at": "2/21/2020 2:13:18 PM",
    "derived": {
      "lat": 47.604482,
      "long": -122.310218,
      "timestamp": 1582323198000,
      "description": "Medic Response",
      "address": "317 17th Ave,Seattle,WA",
      "entries": 2,
      "neighborhood": "Central Area/Squire Park",
      "neighborhoodGroup": "Central",
      "unitCount": 2,
      "severity": 0,
      "units": "A25 M10"
    }
  },
  {
    "id_str": "F200018649",
    "created_at": "2/21/2020 2:10:10 PM",
    "derived": {
      "lat": 47.631157,
      "long": -122.349199,
      "timestamp": 1582323010000,
      "description": "Aid Response",
      "address": "1304 Bigelow Ave N,Seattle,WA",
      "entries": 2,
      "neighborhood": "Queen Anne",
      "neighborhoodGroup": "Magnolia/Queen Anne",
      "unitCount": 2,
      "severity": 0,
      "units": "A10 E8"
    }
  },
  {
    "id_str": "F200018648",
    "created_at": "2/21/2020 2:08:42 PM",
    "derived": {
      "lat": 47.608292,
      "long": -122.337995,
      "timestamp": 1582322922000,
      "description": "Natural Gas Odor",
      "address": "2nd Ave / Union St,Seattle,WA",
      "entries": 1,
      "neighborhood": "Downtown Commercial Core",
      "neighborhoodGroup": "Downtown",
      "unitCount": 1,
      "severity": 0,
      "units": "L4"
    }
  },
  {
    "id_str": "F200018647",
    "created_at": "2/21/2020 2:08:00 PM",
    "derived": {
      "lat": 47.611672,
      "long": -122.336484,
      "timestamp": 1582322880000,
      "description": "Medic Response",
      "address": "1601 5th Av,Seattle,WA",
      "entries": 2,
      "neighborhood": "Downtown Commercial Core",
      "neighborhoodGroup": "Downtown",
      "unitCount": 2,
      "severity": 0,
      "units": "A4 M1"
    }
  },
  {
    "id_str": "F200018646",
    "created_at": "2/21/2020 1:54:01 PM",
    "derived": {
      "lat": 47.518636,
      "long": -122.34543,
      "timestamp": 1582322041000,
      "description": "Aid Response",
      "address": "9454 8th Ave Sw,Seattle,WA",
      "entries": 1,
      "neighborhood": "Highland Park",
      "neighborhoodGroup": "Delridge Neighborhoods",
      "unitCount": 1,
      "severity": 0,
      "units": "E11"
    }
  },
  {
    "id_str": "F200018644",
    "created_at": "2/21/2020 1:47:47 PM",
    "derived": {
      "lat": 47.520871,
      "long": -122.376768,
      "timestamp": 1582321667000,
      "description": "Medic Response",
      "address": "9222 35th Ave Sw,Seattle,WA",
      "entries": 2,
      "neighborhood": "Roxhill/Westwood",
      "neighborhoodGroup": "Delridge Neighborhoods",
      "unitCount": 2,
      "severity": 0,
      "units": "E37 M32"
    }
  },
  {
    "id_str": "F200018643",
    "created_at": "2/21/2020 1:43:21 PM",
    "derived": {
      "lat": 47.547363,
      "long": -122.273713,
      "timestamp": 1582321401000,
      "description": "Medic Response",
      "address": "6117 47th Ave S,Seattle,WA",
      "entries": 2,
      "neighborhood": "Seward Park",
      "neighborhoodGroup": "Southeast",
      "unitCount": 2,
      "severity": 0,
      "units": "E28 M28"
    }
  },
  {
    "id_str": "F200018642",
    "created_at": "2/21/2020 1:42:58 PM",
    "derived": {
      "lat": 47.716536,
      "long": -122.356981,
      "timestamp": 1582321378000,
      "description": "Automatic Fire Alarm Resd",
      "address": "12060 Palatine Ave N,Seattle,WA",
      "entries": 1,
      "neighborhood": "Broadview/Bitter Lake",
      "neighborhoodGroup": "Northwest",
      "unitCount": 1,
      "severity": 0,
      "units": "E24"
    }
  },
  {
    "id_str": "F200018641",
    "created_at": "2/21/2020 1:32:33 PM",
    "derived": {
      "lat": 47.712167,
      "long": -122.312433,
      "timestamp": 1582320753000,
      "description": "Aid Response",
      "address": "11501 15th Av Ne,Seattle,WA",
      "entries": 1,
      "neighborhood": "Olympic Hills/Victory Heights",
      "neighborhoodGroup": "North",
      "unitCount": 1,
      "severity": 0,
      "units": "E39"
    }
  },
  {
    "id_str": "F200018640",
    "created_at": "2/21/2020 1:29:50 PM",
    "derived": {
      "lat": 47.605225,
      "long": -122.32075,
      "timestamp": 1582320590000,
      "description": "Medic Response",
      "address": "401 Broadway,Seattle,WA",
      "entries": 3,
      "neighborhood": "First Hill",
      "neighborhoodGroup": "East",
      "unitCount": 3,
      "severity": 0,
      "units": "A25 E25 M10"
    }
  },
  {
    "id_str": "F200018639",
    "created_at": "2/21/2020 1:28:27 PM",
    "derived": {
      "lat": 47.666139,
      "long": -122.2848,
      "timestamp": 1582320507000,
      "description": "Aid Response",
      "address": "5100 40th Av Ne,Seattle,WA",
      "entries": 1,
      "neighborhood": "Ravenna/Bryant",
      "neighborhoodGroup": "Northeast",
      "unitCount": 1,
      "severity": 0,
      "units": "E38"
    }
  },
  {
    "id_str": "F200018637",
    "created_at": "2/21/2020 1:24:58 PM",
    "derived": {
      "lat": 47.605346,
      "long": -122.319413,
      "timestamp": 1582320298000,
      "description": "Medic Response",
      "address": "415 10th Av,Seattle,WA",
      "entries": 1,
      "neighborhood": "First Hill",
      "neighborhoodGroup": "East",
      "unitCount": 2,
      "severity": 0,
      "units": "A10 M1"
    }
  },
  {
    "id_str": "F200018636",
    "created_at": "2/21/2020 1:22:44 PM",
    "derived": {
      "lat": 47.551892,
      "long": -122.33236,
      "timestamp": 1582320164000,
      "description": "Aid Response",
      "address": "203 S Orcas St,Seattle,WA",
      "entries": 1,
      "neighborhood": "Georgetown",
      "neighborhoodGroup": "Greater Duwamish",
      "unitCount": 1,
      "severity": 0,
      "units": "E27"
    }
  },
  {
    "id_str": "F200018635",
    "created_at": "2/21/2020 1:21:15 PM",
    "derived": {
      "lat": 47.603233,
      "long": -122.330297,
      "timestamp": 1582320075000,
      "description": "Aid Response",
      "address": "600 4th Av,Seattle,WA",
      "entries": 1,
      "neighborhood": "Downtown Commercial Core",
      "neighborhoodGroup": "Downtown",
      "unitCount": 1,
      "severity": 0,
      "units": "A5"
    }
  },
  {
    "id_str": "F200018634",
    "created_at": "2/21/2020 1:21:05 PM",
    "derived": {
      "lat": 47.578447,
      "long": -122.311431,
      "timestamp": 1582320065000,
      "description": "Aid Response",
      "address": "2821 Beacon Av S,Seattle,WA",
      "entries": 1,
      "neighborhood": "North Beacon Hill/Jefferson Park",
      "neighborhoodGroup": "Greater Duwamish",
      "unitCount": 1,
      "severity": 0,
      "units": "E30"
    }
  },
  {
    "id_str": "F200018631",
    "created_at": "2/21/2020 1:11:08 PM",
    "derived": {
      "lat": 47.621988,
      "long": -122.320906,
      "timestamp": 1582319468000,
      "description": "Aid Response",
      "address": "401 Broadway E,Seattle,WA",
      "entries": 1,
      "neighborhood": "Capitol Hill",
      "neighborhoodGroup": "East",
      "unitCount": 1,
      "severity": 0,
      "units": "A25"
    }
  },
  {
    "id_str": "F200018630",
    "created_at": "2/21/2020 1:10:12 PM",
    "derived": {
      "lat": 47.609994,
      "long": -122.346301,
      "timestamp": 1582319412000,
      "description": "Aid Response",
      "address": "2100 Alaskan Way,Seattle,WA",
      "entries": 1,
      "neighborhood": "Belltown",
      "neighborhoodGroup": "Downtown",
      "unitCount": 1,
      "severity": 0,
      "units": "A4"
    }
  },
  {
    "id_str": "F200018627",
    "created_at": "2/21/2020 1:05:19 PM",
    "derived": {
      "lat": 47.670171,
      "long": -122.376537,
      "timestamp": 1582319119000,
      "description": "Aid Response",
      "address": "1525 Nw 57th St,Seattle,WA",
      "entries": 1,
      "neighborhood": "Ballard",
      "neighborhoodGroup": "Ballard",
      "unitCount": 1,
      "severity": 0,
      "units": "E18"
    }
  },
  {
    "id_str": "F200018626",
    "created_at": "2/21/2020 1:03:42 PM",
    "derived": {
      "lat": 47.560074,
      "long": -122.381457,
      "timestamp": 1582319022000,
      "description": "Aid Response",
      "address": "4755 Fauntleroy Way Sw,Seattle,WA",
      "entries": 2,
      "neighborhood": "West Seattle Junction/Genesee Hill",
      "neighborhoodGroup": "Southwest",
      "unitCount": 2,
      "severity": 0,
      "units": "E32 L11"
    }
  },
  {
    "id_str": "F200018625",
    "created_at": "2/21/2020 12:51:58 PM",
    "derived": {
      "lat": 47.617882,
      "long": -122.302573,
      "timestamp": 1582318318000,
      "description": "Rescue Elevator",
      "address": "1819 23rd Av,Seattle,WA",
      "entries": 1,
      "neighborhood": "Central Area/Squire Park",
      "neighborhoodGroup": "Central",
      "unitCount": 1,
      "severity": 0,
      "units": "L10"
    }
  },
  {
    "id_str": "F200018623",
    "created_at": "2/21/2020 12:49:12 PM",
    "derived": {
      "lat": 47.552074,
      "long": -122.384278,
      "timestamp": 1582318152000,
      "description": "Illegal Burn",
      "address": "41st Ave Sw / Sw Findlay St,Seattle,WA",
      "entries": 1,
      "neighborhood": "West Seattle Junction/Genesee Hill",
      "neighborhoodGroup": "Southwest",
      "unitCount": 1,
      "severity": 0,
      "units": "E32"
    }
  },
  {
    "id_str": "F200018622",
    "created_at": "2/21/2020 12:43:02 PM",
    "derived": {
      "lat": 47.651485,
      "long": -122.351356,
      "timestamp": 1582317782000,
      "description": "Aid Response",
      "address": "N 36th St / Evanston Ave N,Seattle,WA",
      "entries": 1,
      "neighborhood": "Fremont",
      "neighborhoodGroup": "Lake Union",
      "unitCount": 1,
      "severity": 0,
      "units": "E9"
    }
  },
  {
    "id_str": "F200018620",
    "created_at": "2/21/2020 12:40:16 PM",
    "derived": {
      "lat": 47.587553,
      "long": -122.325972,
      "timestamp": 1582317616000,
      "description": "Aid Response",
      "address": "1765 6th Av S,Seattle,WA",
      "entries": 1,
      "neighborhood": "Duwamish/SODO",
      "neighborhoodGroup": "Greater Duwamish",
      "unitCount": 1,
      "severity": 0,
      "units": "A14"
    }
  },
  {
    "id_str": "F200018619",
    "created_at": "2/21/2020 12:32:03 PM",
    "derived": {
      "lat": 47.678755,
      "long": -122.393342,
      "timestamp": 1582317123000,
      "description": "Aid Response Yellow",
      "address": "2828 Nw 69th St,Seattle,WA",
      "entries": 1,
      "neighborhood": "Sunset Hill/Loyal Heights",
      "neighborhoodGroup": "Ballard",
      "unitCount": 1,
      "severity": 0,
      "units": "E18"
    }
  },
  {
    "id_str": "F200018618",
    "created_at": "2/21/2020 12:26:55 PM",
    "derived": {
      "lat": 47.570191,
      "long": -122.386767,
      "timestamp": 1582316815000,
      "description": "Medic Response, 6 per Rule",
      "address": "California Ave Sw / Sw Charlestown St,Seattle,WA",
      "entries": 3,
      "neighborhood": "West Seattle Junction/Genesee Hill",
      "neighborhoodGroup": "Southwest",
      "unitCount": 4,
      "severity": 0,
      "units": "E32 L11 M10 M32"
    }
  },
  {
    "id_str": "F200018616",
    "created_at": "2/21/2020 12:26:31 PM",
    "derived": {
      "lat": 47.61762,
      "long": -122.310139,
      "timestamp": 1582316791000,
      "description": "Aid Response",
      "address": "1802 17TH AV,Seattle,WA",
      "entries": 2,
      "neighborhood": "Central Area/Squire Park",
      "neighborhoodGroup": "Central",
      "unitCount": 2,
      "severity": 0,
      "units": "A25 E25"
    }
  },
  {
    "id_str": "F200018615",
    "created_at": "2/21/2020 12:25:20 PM",
    "derived": {
      "lat": 47.661775,
      "long": -122.317464,
      "timestamp": 1582316720000,
      "description": "Aid Response",
      "address": "4555 Roosevelt Way Ne,Seattle,WA",
      "entries": 2,
      "neighborhood": "University District",
      "neighborhoodGroup": "Northeast",
      "unitCount": 2,
      "severity": 0,
      "units": "E16 E17"
    }
  },
  {
    "id_str": "F200018614",
    "created_at": "2/21/2020 12:22:11 PM",
    "derived": {
      "lat": 47.627192,
      "long": -122.356823,
      "timestamp": 1582316531000,
      "description": "Aid Response",
      "address": "11 W Aloha St,Seattle,WA",
      "entries": 2,
      "neighborhood": "Queen Anne",
      "neighborhoodGroup": "Magnolia/Queen Anne",
      "unitCount": 3,
      "severity": 0,
      "units": "E8 M31 M32"
    }
  },
  {
    "id_str": "F200018613",
    "created_at": "2/21/2020 12:19:40 PM",
    "derived": {
      "lat": 47.728181,
      "long": -122.296431,
      "timestamp": 1582316380000,
      "description": "Aid Response",
      "address": "13737 30th Ave Ne,Seattle,WA",
      "entries": 1,
      "neighborhood": "Cedar Park/Meadowbrook",
      "neighborhoodGroup": "North",
      "unitCount": 1,
      "severity": 0,
      "units": "E39"
    }
  },
  {
    "id_str": "F200018612",
    "created_at": "2/21/2020 12:16:44 PM",
    "derived": {
      "lat": 47.60368,
      "long": -122.318103,
      "timestamp": 1582316204000,
      "description": "Aid Response",
      "address": "220 11th Av,Seattle,WA",
      "entries": 2,
      "neighborhood": "First Hill",
      "neighborhoodGroup": "East",
      "unitCount": 2,
      "severity": 0,
      "units": "A10 M1"
    }
  },
  {
    "id_str": "F200018611",
    "created_at": "2/21/2020 12:16:00 PM",
    "derived": {
      "lat": 47.713639,
      "long": -122.371988,
      "timestamp": 1582316160000,
      "description": "Aid Response Yellow",
      "address": "1214 Nw 117th St,Seattle,WA",
      "entries": 1,
      "neighborhood": "Broadview/Bitter Lake",
      "neighborhoodGroup": "Northwest",
      "unitCount": 1,
      "severity": 0,
      "units": "A31"
    }
  },
  {
    "id_str": "F200018608",
    "created_at": "2/21/2020 12:12:40 PM",
    "derived": {
      "lat": 47.61762,
      "long": -122.310139,
      "timestamp": 1582315960000,
      "description": "Aid Response",
      "address": "1802 17th Av,Seattle,WA",
      "entries": 1,
      "neighborhood": "Central Area/Squire Park",
      "neighborhoodGroup": "Central",
      "unitCount": 1,
      "severity": 0,
      "units": "A25"
    }
  },
  {
    "id_str": "F200018606",
    "created_at": "2/21/2020 12:10:52 PM",
    "derived": {
      "lat": 47.579809,
      "long": -122.327192,
      "timestamp": 1582315852000,
      "description": "Medic Response, 7 per Rule",
      "address": "500 S Lander St,Seattle,WA",
      "entries": 3,
      "neighborhood": "Duwamish/SODO",
      "neighborhoodGroup": "Greater Duwamish",
      "unitCount": 4,
      "severity": 0,
      "units": "A5 E27 M1 M10"
    }
  },
  {
    "id_str": "F200018607",
    "created_at": "2/21/2020 12:10:40 PM",
    "derived": {
      "lat": 47.655558,
      "long": -122.329051,
      "timestamp": 1582315840000,
      "description": "Aid Response",
      "address": "N 40th St / Eastern Ave N,Seattle,WA",
      "entries": 1,
      "neighborhood": "Wallingford",
      "neighborhoodGroup": "Lake Union",
      "unitCount": 1,
      "severity": 0,
      "units": "E16"
    }
  },
  {
    "id_str": "F200018605",
    "created_at": "2/21/2020 12:00:07 PM",
    "derived": {
      "lat": 47.668683,
      "long": -122.333635,
      "timestamp": 1582315207000,
      "description": "Aid Response",
      "address": "2101 N 55th St,Seattle,WA",
      "entries": 1,
      "neighborhood": "Green Lake",
      "neighborhoodGroup": "Northwest",
      "unitCount": 1,
      "severity": 0,
      "units": "E16"
    }
  },
  {
    "id_str": "F200018602",
    "created_at": "2/21/2020 11:50:10 AM",
    "derived": {
      "lat": 47.684904,
      "long": -122.397154,
      "timestamp": 1582314610000,
      "description": "Aid Response Yellow",
      "address": "3115 Nw 77th St,Seattle,WA",
      "entries": 1,
      "neighborhood": "Sunset Hill/Loyal Heights",
      "neighborhoodGroup": "Ballard",
      "unitCount": 1,
      "severity": 0,
      "units": "E18"
    }
  },
  {
    "id_str": "F200018601",
    "created_at": "2/21/2020 11:41:10 AM",
    "derived": {
      "lat": 47.575374,
      "long": -122.383567,
      "timestamp": 1582314070000,
      "description": "Aid Response",
      "address": "3219 Walnut Ave Sw,Seattle,WA",
      "entries": 1,
      "neighborhood": "West Seattle Junction/Genesee Hill",
      "neighborhoodGroup": "Southwest",
      "unitCount": 1,
      "severity": 0,
      "units": "E29"
    }
  },
  {
    "id_str": "F200018600",
    "created_at": "2/21/2020 11:24:42 AM",
    "derived": {
      "lat": 47.669794,
      "long": -122.3544,
      "timestamp": 1582313082000,
      "description": "Aid Response",
      "address": "N 56TH ST / PHINNEY AVE N,Seattle,WA",
      "entries": 2,
      "neighborhood": "Greenwood/Phinney Ridge",
      "neighborhoodGroup": "Northwest",
      "unitCount": 3,
      "severity": 0,
      "units": "E21 M17 M18"
    }
  },
  {
    "id_str": "F200018598",
    "created_at": "2/21/2020 11:22:56 AM",
    "derived": {
      "lat": 47.605873,
      "long": -122.335782,
      "timestamp": 1582312976000,
      "description": "Aid Response",
      "address": "2nd Ave / Spring St,Seattle,WA",
      "entries": 1,
      "neighborhood": "Downtown Commercial Core",
      "neighborhoodGroup": "Downtown",
      "unitCount": 1,
      "severity": 0,
      "units": "E5"
    }
  },
  {
    "id_str": "F200018595",
    "created_at": "2/21/2020 11:16:23 AM",
    "derived": {
      "lat": 47.526177,
      "long": -122.356422,
      "timestamp": 1582312583000,
      "description": "1RED 1 Unit",
      "address": "8635 17th Ave Sw,Seattle,WA",
      "entries": 2,
      "neighborhood": "Roxhill/Westwood",
      "neighborhoodGroup": "Delridge Neighborhoods",
      "unitCount": 2,
      "severity": 0,
      "units": "E32 L11"
    }
  },
  {
    "id_str": "F200018593",
    "created_at": "2/21/2020 11:15:30 AM",
    "derived": {
      "lat": 47.528082,
      "long": -122.355064,
      "timestamp": 1582312530000,
      "description": "Aid Response",
      "address": "8424 16th Av Sw,Seattle,WA",
      "entries": 1,
      "neighborhood": "Highland Park",
      "neighborhoodGroup": "Delridge Neighborhoods",
      "unitCount": 1,
      "severity": 0,
      "units": "E11"
    }
  },
  {
    "id_str": "F200018592",
    "created_at": "2/21/2020 11:07:41 AM",
    "derived": {
      "lat": 47.612987,
      "long": -122.322205,
      "timestamp": 1582312061000,
      "description": "Aid Response",
      "address": "722 E Union St,Seattle,WA",
      "entries": 1,
      "neighborhood": "Capitol Hill",
      "neighborhoodGroup": "East",
      "unitCount": 1,
      "severity": 0,
      "units": "E25"
    }
  },
  {
    "id_str": "F200018591",
    "created_at": "2/21/2020 11:03:27 AM",
    "derived": {
      "lat": null,
      "long": null,
      "timestamp": 1582311807000,
      "description": "Aid Response Freeway",
      "address": "NB SR99 AT 14TH AVE S,Seattle,WA",
      "entries": 2,
      "unitCount": 11,
      "severity": 2,
      "units": "A14 A2 B5 B7 E26 E27 L11 M28 M44 R1 SAFT2"
    }
  },
  {
    "id_str": "F200018590",
    "created_at": "2/21/2020 11:02:26 AM",
    "derived": {
      "lat": 47.602165,
      "long": -122.330856,
      "timestamp": 1582311746000,
      "description": "Aid Response",
      "address": "516 3rd Av,Seattle,WA",
      "entries": 2,
      "neighborhood": "Downtown Commercial Core",
      "neighborhoodGroup": "Downtown",
      "unitCount": 2,
      "severity": 0,
      "units": "A5 L1"
    }
  },
  {
    "id_str": "F200018589",
    "created_at": "2/21/2020 10:58:32 AM",
    "derived": {
      "lat": 47.609488,
      "long": -122.339089,
      "timestamp": 1582311512000,
      "description": "Aid Response Yellow",
      "address": "1521 2ND AV,Seattle,WA",
      "entries": 1,
      "neighborhood": "Downtown Commercial Core",
      "neighborhoodGroup": "Downtown",
      "unitCount": 1,
      "severity": 0,
      "units": "L4"
    }
  },
  {
    "id_str": "F200018587",
    "created_at": "2/21/2020 10:55:20 AM",
    "derived": {
      "lat": 47.604548,
      "long": -122.33457,
      "timestamp": 1582311320000,
      "description": "Aid Response",
      "address": "915 2nd Av,Seattle,WA",
      "entries": 1,
      "neighborhood": "Downtown Commercial Core",
      "neighborhoodGroup": "Downtown",
      "unitCount": 1,
      "severity": 0,
      "units": "E5"
    }
  },
  {
    "id_str": "F200018588",
    "created_at": "2/21/2020 10:55:19 AM",
    "derived": {
      "lat": 47.606157,
      "long": -122.323768,
      "timestamp": 1582311319000,
      "description": "Medic Response",
      "address": "620 Terry Ave,Seattle,WA",
      "entries": 2,
      "neighborhood": "First Hill",
      "neighborhoodGroup": "East",
      "unitCount": 3,
      "severity": 0,
      "units": "A25 M1 M17"
    }
  },
  {
    "id_str": "F200018586",
    "created_at": "2/21/2020 10:52:24 AM",
    "derived": {
      "lat": 47.603157,
      "long": -122.333299,
      "timestamp": 1582311144000,
      "description": "Aid Response",
      "address": "720 2nd Av,Seattle,WA",
      "entries": 1,
      "neighborhood": "Downtown Commercial Core",
      "neighborhoodGroup": "Downtown",
      "unitCount": 2,
      "severity": 0,
      "units": "E10 M1"
    }
  },
  {
    "id_str": "F200018584",
    "created_at": "2/21/2020 10:47:48 AM",
    "derived": {
      "lat": 47.629844,
      "long": -122.342303,
      "timestamp": 1582310868000,
      "description": "Medic Response",
      "address": "1215 Dexter Av N,Seattle,WA",
      "entries": 2,
      "neighborhood": "Queen Anne",
      "neighborhoodGroup": "Magnolia/Queen Anne",
      "unitCount": 2,
      "severity": 0,
      "units": "E2 M10"
    }
  },
  {
    "id_str": "F200018583",
    "created_at": "2/21/2020 10:47:28 AM",
    "derived": {
      "lat": 47.719378,
      "long": -122.292729,
      "timestamp": 1582310848000,
      "description": "Aid Response",
      "address": "12517 33rd Av Ne,Seattle,WA",
      "entries": 1,
      "neighborhood": "Cedar Park/Meadowbrook",
      "neighborhoodGroup": "North",
      "unitCount": 1,
      "severity": 0,
      "units": "E39"
    }
  },
  {
    "id_str": "F200018582",
    "created_at": "2/21/2020 10:45:45 AM",
    "derived": {
      "lat": 47.599197,
      "long": -122.328955,
      "timestamp": 1582310745000,
      "description": "Aid Response Yellow",
      "address": "401 S Jackson St,Seattle,WA",
      "entries": 1,
      "neighborhood": "Pioneer Square/International District",
      "neighborhoodGroup": "Downtown",
      "unitCount": 1,
      "severity": 0,
      "units": "A10"
    }
  },
  {
    "id_str": "F200018581",
    "created_at": "2/21/2020 10:36:20 AM",
    "derived": {
      "lat": 47.602172,
      "long": -122.330863,
      "timestamp": 1582310180000,
      "description": "Aid Response",
      "address": "517 3rd Av,Seattle,WA",
      "entries": 3,
      "neighborhood": "Downtown Commercial Core",
      "neighborhoodGroup": "Downtown",
      "unitCount": 3,
      "severity": 0,
      "units": "A5 E10 L1"
    }
  },
  {
    "id_str": "F200018578",
    "created_at": "2/21/2020 10:27:32 AM",
    "derived": {
      "lat": 47.648056,
      "long": -122.338482,
      "timestamp": 1582309652000,
      "description": "Aid Response",
      "address": "1621 N 34th St,Seattle,WA",
      "entries": 2,
      "neighborhood": "Fremont",
      "neighborhoodGroup": "Lake Union",
      "unitCount": 2,
      "severity": 0,
      "units": "E17 E31"
    }
  },
  {
    "id_str": "F200018577",
    "created_at": "2/21/2020 10:25:51 AM",
    "derived": {
      "lat": 47.587573,
      "long": -122.329055,
      "timestamp": 1582309551000,
      "description": "Aid Response",
      "address": "1763 4th Av S,Seattle,WA",
      "entries": 1,
      "neighborhood": "Duwamish/SODO",
      "neighborhoodGroup": "Greater Duwamish",
      "unitCount": 1,
      "severity": 0,
      "units": "A14"
    }
  },
  {
    "id_str": "F200018576",
    "created_at": "2/21/2020 10:24:46 AM",
    "derived": {
      "lat": 47.589202,
      "long": -122.394475,
      "timestamp": 1582309486000,
      "description": "Medic Response",
      "address": "1586 Alki Ave Sw,Seattle,WA",
      "entries": 1,
      "neighborhood": "Alki/Admiral",
      "neighborhoodGroup": "Southwest",
      "unitCount": 2,
      "severity": 0,
      "units": "E29 M32"
    }
  },
  {
    "id_str": "F200018575",
    "created_at": "2/21/2020 10:23:18 AM",
    "derived": {
      "lat": 47.663663,
      "long": -122.374988,
      "timestamp": 1582309398000,
      "description": "Aid Response",
      "address": "1455 Nw Leary Way,Seattle,WA",
      "entries": 1,
      "neighborhood": "Ballard",
      "neighborhoodGroup": "Ballard",
      "unitCount": 1,
      "severity": 0,
      "units": "L8"
    }
  },
  {
    "id_str": "F200018574",
    "created_at": "2/21/2020 10:23:11 AM",
    "derived": {
      "lat": 47.668662,
      "long": -122.371035,
      "timestamp": 1582309391000,
      "description": "Aid Response",
      "address": "1130 Nw Market St,Seattle,WA",
      "entries": 1,
      "neighborhood": "Ballard",
      "neighborhoodGroup": "Ballard",
      "unitCount": 1,
      "severity": 0,
      "units": "E18"
    }
  },
  {
    "id_str": "F200018572",
    "created_at": "2/21/2020 10:15:45 AM",
    "derived": {
      "lat": 47.650431,
      "long": -122.349835,
      "timestamp": 1582308945000,
      "description": "Aid Response",
      "address": "Fremont Ave N / N 35th St,Seattle,WA",
      "entries": 1,
      "neighborhood": "Fremont",
      "neighborhoodGroup": "Lake Union",
      "unitCount": 1,
      "severity": 0,
      "units": "E9"
    }
  },
  {
    "id_str": "F200018571",
    "created_at": "2/21/2020 10:10:36 AM",
    "derived": {
      "lat": 47.611418,
      "long": -122.307542,
      "timestamp": 1582308636000,
      "description": "Automatic Fire Alarm Resd",
      "address": "1124 19th Ave,Seattle,WA",
      "entries": 1,
      "neighborhood": "Central Area/Squire Park",
      "neighborhoodGroup": "Central",
      "unitCount": 1,
      "severity": 0,
      "units": "L10"
    }
  },
  {
    "id_str": "F200018570",
    "created_at": "2/21/2020 10:06:52 AM",
    "derived": {
      "lat": 47.614085,
      "long": -122.319447,
      "timestamp": 1582308412000,
      "description": "Aid Response",
      "address": "E Pike St / 10th Ave,Seattle,WA",
      "entries": 1,
      "neighborhood": "Capitol Hill",
      "neighborhoodGroup": "East",
      "unitCount": 1,
      "severity": 0,
      "units": "E25"
    }
  },
  {
    "id_str": "F200018568",
    "created_at": "2/21/2020 9:52:22 AM",
    "derived": {
      "lat": 47.645803,
      "long": -122.360896,
      "timestamp": 1582307542000,
      "description": "Medic Response",
      "address": "2900 3rd Av W,Seattle,WA",
      "entries": 2,
      "neighborhood": "Queen Anne",
      "neighborhoodGroup": "Magnolia/Queen Anne",
      "unitCount": 2,
      "severity": 0,
      "units": "E20 M18"
    }
  },
  {
    "id_str": "F200018567",
    "created_at": "2/21/2020 9:50:57 AM",
    "derived": {
      "lat": 47.717955,
      "long": -122.330256,
      "timestamp": 1582307457000,
      "description": "Medic Response",
      "address": "12247 Corliss Ave N,Seattle,WA",
      "entries": 2,
      "neighborhood": "Haller Lake",
      "neighborhoodGroup": "Northwest",
      "unitCount": 2,
      "severity": 0,
      "units": "A31 M31"
    }
  },
  {
    "id_str": "F200018566",
    "created_at": "2/21/2020 9:41:08 AM",
    "derived": {
      "lat": 47.732674,
      "long": -122.296534,
      "timestamp": 1582306868000,
      "description": "Aid Response",
      "address": "14371 30th Av Ne,Seattle,WA",
      "entries": 1,
      "neighborhood": "Olympic Hills/Victory Heights",
      "neighborhoodGroup": "North",
      "unitCount": 1,
      "severity": 0,
      "units": "E39"
    }
  },
  {
    "id_str": "F200018565",
    "created_at": "2/21/2020 9:36:02 AM",
    "derived": {
      "lat": 47.580772,
      "long": -122.386563,
      "timestamp": 1582306562000,
      "description": "Aid Response",
      "address": "2622 California Av Sw,Seattle,WA",
      "entries": 1,
      "neighborhood": "West Seattle Junction/Genesee Hill",
      "neighborhoodGroup": "Southwest",
      "unitCount": 1,
      "severity": 0,
      "units": "E29"
    }
  },
  {
    "id_str": "F200018564",
    "created_at": "2/21/2020 9:29:18 AM",
    "derived": {
      "lat": 47.650205,
      "long": -122.310398,
      "timestamp": 1582306158000,
      "description": "Medic Response",
      "address": "1704 Ne Columbia Rd,Seattle,WA",
      "entries": 2,
      "neighborhood": "University District",
      "neighborhoodGroup": "Northeast",
      "unitCount": 2,
      "severity": 0,
      "units": "E31 M17"
    }
  },
  {
    "id_str": "F200018563",
    "created_at": "2/21/2020 9:23:25 AM",
    "derived": {
      "lat": 47.5837,
      "long": -122.321395,
      "timestamp": 1582305805000,
      "description": "Medic Response",
      "address": "2203 Airport Way S,Seattle,WA",
      "entries": 1,
      "neighborhood": "Duwamish/SODO",
      "neighborhoodGroup": "Greater Duwamish",
      "unitCount": 2,
      "severity": 0,
      "units": "A14 M1"
    }
  },
  {
    "id_str": "F200018562",
    "created_at": "2/21/2020 9:19:50 AM",
    "derived": {
      "lat": 47.531464,
      "long": -122.26999,
      "timestamp": 1582305590000,
      "description": "Investigate Out Of Service",
      "address": "7919 Rainier Av S,Seattle,WA",
      "entries": 1,
      "neighborhood": "Rainier Beach",
      "neighborhoodGroup": "Southeast",
      "unitCount": 1,
      "severity": 0,
      "units": "E33"
    }
  },
  {
    "id_str": "F200018561",
    "created_at": "2/21/2020 9:13:34 AM",
    "derived": {
      "lat": 47.61294,
      "long": -122.319435,
      "timestamp": 1582305214000,
      "description": "Aid Response",
      "address": "E Union St / 10th Ave,Seattle,WA",
      "entries": 1,
      "neighborhood": "Capitol Hill",
      "neighborhoodGroup": "East",
      "unitCount": 1,
      "severity": 0,
      "units": "A25"
    }
  },
  {
    "id_str": "F200018560",
    "created_at": "2/21/2020 9:08:03 AM",
    "derived": {
      "lat": 47.582838,
      "long": -122.386485,
      "timestamp": 1582304883000,
      "description": "Aid Response",
      "address": "2326 California Av Sw,Seattle,WA",
      "entries": 1,
      "neighborhood": "Alki/Admiral",
      "neighborhoodGroup": "Southwest",
      "unitCount": 1,
      "severity": 0,
      "units": "E29"
    }
  },
  {
    "id_str": "F200018559",
    "created_at": "2/21/2020 9:07:13 AM",
    "derived": {
      "lat": 47.605387,
      "long": -122.327511,
      "timestamp": 1582304833000,
      "description": "Medic Response",
      "address": "710 Cherry St,Seattle,WA",
      "entries": 2,
      "neighborhood": "First Hill",
      "neighborhoodGroup": "East",
      "unitCount": 3,
      "severity": 0,
      "units": "A10 E10 M10"
    }
  },
  {
    "id_str": "F200018558",
    "created_at": "2/21/2020 9:04:03 AM",
    "derived": {
      "lat": 47.600843,
      "long": -122.330271,
      "timestamp": 1582304643000,
      "description": "Aid Response",
      "address": "204 3rd Av S,Seattle,WA",
      "entries": 1,
      "neighborhood": "Pioneer Square/International District",
      "neighborhoodGroup": "Downtown",
      "unitCount": 1,
      "severity": 0,
      "units": "A5"
    }
  },
  {
    "id_str": "F200018557",
    "created_at": "2/21/2020 8:51:16 AM",
    "derived": {
      "lat": 47.614239,
      "long": -122.319449,
      "timestamp": 1582303876000,
      "description": "Auto Fire Alarm",
      "address": "1514 10th Av,Seattle,WA",
      "entries": 1,
      "neighborhood": "Capitol Hill",
      "neighborhoodGroup": "East",
      "unitCount": 2,
      "severity": 0,
      "units": "E2 L10"
    }
  },
  {
    "id_str": "F200018556",
    "created_at": "2/21/2020 8:49:30 AM",
    "derived": {
      "lat": 47.65996,
      "long": -122.342217,
      "timestamp": 1582303770000,
      "description": "Aid Response",
      "address": "4400 Stone Way N,Seattle,WA",
      "entries": 1,
      "neighborhood": "Wallingford",
      "neighborhoodGroup": "Lake Union",
      "unitCount": 1,
      "severity": 0,
      "units": "E9"
    }
  },
  {
    "id_str": "F200018555",
    "created_at": "2/21/2020 8:48:47 AM",
    "derived": {
      "lat": 47.575827,
      "long": -122.30434,
      "timestamp": 1582303727000,
      "description": "Aid Response",
      "address": "3107 22nd Ave S,Seattle,WA",
      "entries": 1,
      "neighborhood": "North Beacon Hill/Jefferson Park",
      "neighborhoodGroup": "Greater Duwamish",
      "unitCount": 1,
      "severity": 0,
      "units": "E30"
    }
  },
  {
    "id_str": "F200018553",
    "created_at": "2/21/2020 8:48:03 AM",
    "derived": {
      "lat": 47.616443,
      "long": -122.310151,
      "timestamp": 1582303683000,
      "description": "Aid Response",
      "address": "1700 17th Av,Seattle,WA",
      "entries": 1,
      "neighborhood": "Central Area/Squire Park",
      "neighborhoodGroup": "Central",
      "unitCount": 1,
      "severity": 0,
      "units": "E25"
    }
  },
  {
    "id_str": "F200018551",
    "created_at": "2/21/2020 8:42:01 AM",
    "derived": {
      "lat": 47.602813,
      "long": -122.331449,
      "timestamp": 1582303321000,
      "description": "4RED - 2 + 1 + 1",
      "address": "607 3rd Av,Seattle,WA",
      "entries": 2,
      "neighborhood": "Downtown Commercial Core",
      "neighborhoodGroup": "Downtown",
      "unitCount": 4,
      "severity": 0,
      "units": "B2 E2 E5 L1"
    }
  },
  {
    "id_str": "F200018545",
    "created_at": "2/21/2020 8:37:27 AM",
    "derived": {
      "lat": 47.618693,
      "long": -122.334256,
      "timestamp": 1582303047000,
      "description": "Aid Response",
      "address": "116 Fairview Av N,Seattle,WA",
      "entries": 1,
      "neighborhood": "Cascade/Eastlake",
      "neighborhoodGroup": "Lake Union",
      "unitCount": 1,
      "severity": 0,
      "units": "A2"
    }
  },
  {
    "id_str": "F200018543",
    "created_at": "2/21/2020 8:36:54 AM",
    "derived": {
      "lat": 47.605209,
      "long": -122.318108,
      "timestamp": 1582303014000,
      "description": "Aid Response",
      "address": "402 11th Ave,Seattle,WA",
      "entries": 2,
      "neighborhood": "First Hill",
      "neighborhoodGroup": "East",
      "unitCount": 2,
      "severity": 0,
      "units": "A25 E25"
    }
  },
  {
    "id_str": "F200018541",
    "created_at": "2/21/2020 8:31:25 AM",
    "derived": {
      "lat": 47.604377,
      "long": -122.325207,
      "timestamp": 1582302685000,
      "description": "1RED 1 Unit",
      "address": "8TH AVE / JEFFERSON ST,Seattle,WA",
      "entries": 2,
      "neighborhood": "First Hill",
      "neighborhoodGroup": "East",
      "unitCount": 2,
      "severity": 0,
      "units": "E10 E25"
    }
  },
  {
    "id_str": "F200018539",
    "created_at": "2/21/2020 8:23:34 AM",
    "derived": {
      "lat": 47.612917,
      "long": -122.314167,
      "timestamp": 1582302214000,
      "description": "Aid Response",
      "address": "14th Ave / E Union St,Seattle,WA",
      "entries": 1,
      "neighborhood": "First Hill",
      "neighborhoodGroup": "East",
      "unitCount": 1,
      "severity": 0,
      "units": "A25"
    }
  },
  {
    "id_str": "F200018538",
    "created_at": "2/21/2020 8:20:07 AM",
    "derived": {
      "lat": 47.708592,
      "long": -122.322911,
      "timestamp": 1582302007000,
      "description": "Aid Response",
      "address": "540 Ne Northgate Way,Seattle,WA",
      "entries": 1,
      "neighborhood": "Northgate/Maple Leaf",
      "neighborhoodGroup": "North",
      "unitCount": 1,
      "severity": 0,
      "units": "E39"
    }
  },
  {
    "id_str": "F200018537",
    "created_at": "2/21/2020 8:17:01 AM",
    "derived": {
      "lat": 47.605387,
      "long": -122.327511,
      "timestamp": 1582301821000,
      "description": "Medic Response",
      "address": "710 Cherry St,Seattle,WA",
      "entries": 3,
      "neighborhood": "First Hill",
      "neighborhoodGroup": "East",
      "unitCount": 3,
      "severity": 0,
      "units": "A10 A5 M1"
    }
  },
  {
    "id_str": "F200018536",
    "created_at": "2/21/2020 8:10:00 AM",
    "derived": {
      "lat": 47.661339,
      "long": -122.324036,
      "timestamp": 1582301400000,
      "description": "Auto Fire Alarm",
      "address": "400 Ne 45th St,Seattle,WA",
      "entries": 1,
      "neighborhood": "Wallingford",
      "neighborhoodGroup": "Lake Union",
      "unitCount": 2,
      "severity": 0,
      "units": "E17 L9"
    }
  },
  {
    "id_str": "F200018534",
    "created_at": "2/21/2020 8:04:53 AM",
    "derived": {
      "lat": 47.567791,
      "long": -122.296797,
      "timestamp": 1582301093000,
      "description": "1RED 1 Unit",
      "address": "4018 M L King Jr Way S,Seattle,WA",
      "entries": 1,
      "neighborhood": "Columbia City",
      "neighborhoodGroup": "Southeast",
      "unitCount": 1,
      "severity": 0,
      "units": "E30"
    }
  },
  {
    "id_str": "F200018533",
    "created_at": "2/21/2020 7:58:12 AM",
    "derived": {
      "lat": 47.583977,
      "long": -122.329054,
      "timestamp": 1582300692000,
      "description": "Illegal Burn",
      "address": "2200 4th Av S,Seattle,WA",
      "entries": 1,
      "neighborhood": "Duwamish/SODO",
      "neighborhoodGroup": "Greater Duwamish",
      "unitCount": 1,
      "severity": 0,
      "units": "E10"
    }
  },
  {
    "id_str": "F200018532",
    "created_at": "2/21/2020 7:54:54 AM",
    "derived": {
      "lat": 47.562856,
      "long": -122.406212,
      "timestamp": 1582300494000,
      "description": "Aid Response",
      "address": "4520 Beach Dr Sw,Seattle,WA",
      "entries": 1,
      "neighborhood": "Alki/Admiral",
      "neighborhoodGroup": "Southwest",
      "unitCount": 1,
      "severity": 0,
      "units": "E32"
    }
  },
  {
    "id_str": "F200018529",
    "created_at": "2/21/2020 7:39:28 AM",
    "derived": {
      "lat": 47.732957,
      "long": -122.300579,
      "timestamp": 1582299568000,
      "description": "Medic Response",
      "address": "14351 26th Ave Ne,Seattle,WA",
      "entries": 2,
      "neighborhood": "Olympic Hills/Victory Heights",
      "neighborhoodGroup": "North",
      "unitCount": 2,
      "severity": 0,
      "units": "E39 M17"
    }
  },
  {
    "id_str": "F200018528",
    "created_at": "2/21/2020 7:27:50 AM",
    "derived": {
      "lat": 47.605387,
      "long": -122.327511,
      "timestamp": 1582298870000,
      "description": "Aid Response",
      "address": "710 Cherry St,Seattle,WA",
      "entries": 1,
      "neighborhood": "First Hill",
      "neighborhoodGroup": "East",
      "unitCount": 1,
      "severity": 0,
      "units": "A10"
    }
  },
  {
    "id_str": "F200018526",
    "created_at": "2/21/2020 7:19:17 AM",
    "derived": {
      "lat": 47.592394,
      "long": -122.329049,
      "timestamp": 1582298357000,
      "description": "Illegal Burn",
      "address": "4th Ave S / S Royal Brougham Way,Seattle,WA",
      "entries": 1,
      "neighborhood": "Duwamish/SODO",
      "neighborhoodGroup": "Greater Duwamish",
      "unitCount": 1,
      "severity": 0,
      "units": "E10"
    }
  },
  {
    "id_str": "F200018525",
    "created_at": "2/21/2020 7:06:15 AM",
    "derived": {
      "lat": 47.708594,
      "long": -122.323211,
      "timestamp": 1582297575000,
      "description": "Aid Response",
      "address": "507 Ne Northgate Way,Seattle,WA",
      "entries": 1,
      "neighborhood": "Northgate/Maple Leaf",
      "neighborhoodGroup": "North",
      "unitCount": 1,
      "severity": 0,
      "units": "E39"
    }
  },
  {
    "id_str": "F200018523",
    "created_at": "2/21/2020 6:58:09 AM",
    "derived": {
      "lat": 47.581214,
      "long": -122.391903,
      "timestamp": 1582297089000,
      "description": "Medic Response",
      "address": "4700 Sw Admiral Way,Seattle,WA",
      "entries": 2,
      "neighborhood": "West Seattle Junction/Genesee Hill",
      "neighborhoodGroup": "Southwest",
      "unitCount": 2,
      "severity": 0,
      "units": "E29 M32"
    }
  },
  {
    "id_str": "F200018522",
    "created_at": "2/21/2020 6:50:12 AM",
    "derived": {
      "lat": 47.602172,
      "long": -122.330863,
      "timestamp": 1582296612000,
      "description": "Aid Response",
      "address": "517 3rd Av,Seattle,WA",
      "entries": 2,
      "neighborhood": "Downtown Commercial Core",
      "neighborhoodGroup": "Downtown",
      "unitCount": 2,
      "severity": 0,
      "units": "A5 E10"
    }
  },
  {
    "id_str": "F200018519",
    "created_at": "2/21/2020 6:40:16 AM",
    "derived": {
      "lat": 47.600044,
      "long": -122.334219,
      "timestamp": 1582296016000,
      "description": "Aid Response",
      "address": "97 S Main St,Seattle,WA",
      "entries": 1,
      "neighborhood": "Pioneer Square/International District",
      "neighborhoodGroup": "Downtown",
      "unitCount": 1,
      "severity": 0,
      "units": "A10"
    }
  },
  {
    "id_str": "F200018518",
    "created_at": "2/21/2020 6:39:51 AM",
    "derived": {
      "lat": 47.594675,
      "long": -122.297844,
      "timestamp": 1582295991000,
      "description": "Aid Response",
      "address": "916 M L King Jr Way S,Seattle,WA",
      "entries": 1,
      "neighborhood": "Madrona/Leschi",
      "neighborhoodGroup": "Central",
      "unitCount": 1,
      "severity": 0,
      "units": "E6"
    }
  },
  {
    "id_str": "F200018517",
    "created_at": "2/21/2020 6:37:55 AM",
    "derived": {
      "lat": 47.642952,
      "long": -122.371538,
      "timestamp": 1582295875000,
      "description": "Activated CO Detector",
      "address": "2580 11th Ave W,Seattle,WA",
      "entries": 1,
      "neighborhood": "Queen Anne",
      "neighborhoodGroup": "Magnolia/Queen Anne",
      "unitCount": 1,
      "severity": 0,
      "units": "L6"
    }
  },
  {
    "id_str": "F200018514",
    "created_at": "2/21/2020 6:21:53 AM",
    "derived": {
      "lat": 47.554133,
      "long": -122.328366,
      "timestamp": 1582294913000,
      "description": "Aid Response",
      "address": "5TH AVE S / S BRANDON ST,Seattle,WA",
      "entries": 1,
      "neighborhood": "Georgetown",
      "neighborhoodGroup": "Greater Duwamish",
      "unitCount": 1,
      "severity": 0,
      "units": "A14"
    }
  },
  {
    "id_str": "F200018512",
    "created_at": "2/21/2020 6:19:12 AM",
    "derived": {
      "lat": 47.550988,
      "long": -122.313497,
      "timestamp": 1582294752000,
      "description": "Medic Response",
      "address": "5820 15th Ave S,Seattle,WA",
      "entries": 2,
      "neighborhood": "Beacon Hill",
      "neighborhoodGroup": "Greater Duwamish",
      "unitCount": 2,
      "severity": 0,
      "units": "E27 M28"
    }
  },
  {
    "id_str": "F200018511",
    "created_at": "2/21/2020 6:15:17 AM",
    "derived": {
      "lat": 47.615789,
      "long": -122.336507,
      "timestamp": 1582294517000,
      "description": "Aid Response",
      "address": "810 Virginia St,Seattle,WA",
      "entries": 1,
      "neighborhood": "Cascade/Eastlake",
      "neighborhoodGroup": "Lake Union",
      "unitCount": 1,
      "severity": 0,
      "units": "A2"
    }
  },
  {
    "id_str": "F200018510",
    "created_at": "2/21/2020 6:12:10 AM",
    "derived": {
      "lat": 47.610972,
      "long": -122.340465,
      "timestamp": 1582294330000,
      "description": "Auto Fire Alarm",
      "address": "1902 2nd Av,Seattle,WA",
      "entries": 1,
      "neighborhood": "Belltown",
      "neighborhoodGroup": "Downtown",
      "unitCount": 2,
      "severity": 0,
      "units": "E2 L4"
    }
  },
  {
    "id_str": "F200018507",
    "created_at": "2/21/2020 5:14:02 AM",
    "derived": {
      "lat": 47.531537,
      "long": -122.280793,
      "timestamp": 1582290842000,
      "description": "Aid Response",
      "address": "M L King Jr Way S / S Kenyon St,Seattle,WA",
      "entries": 1,
      "neighborhood": "South Beacon Hill/NewHolly",
      "neighborhoodGroup": "Greater Duwamish",
      "unitCount": 1,
      "severity": 0,
      "units": "E28"
    }
  },
  {
    "id_str": "F200018506",
    "created_at": "2/21/2020 5:11:32 AM",
    "derived": {
      "lat": 47.641846,
      "long": -122.376165,
      "timestamp": 1582290692000,
      "description": "AFA4 - Auto Alarm 2 + 1 + 1",
      "address": "2530 15th Av W,Seattle,WA",
      "entries": 1,
      "neighborhood": "Interbay",
      "neighborhoodGroup": "Magnolia/Queen Anne",
      "unitCount": 4,
      "severity": 0,
      "units": "B4 E18 E20 L8"
    }
  },
  {
    "id_str": "F200018505",
    "created_at": "2/21/2020 5:09:26 AM",
    "derived": {
      "lat": 47.612963,
      "long": -122.320762,
      "timestamp": 1582290566000,
      "description": "Aid Response",
      "address": "E Union St / Broadway,Seattle,WA",
      "entries": 1,
      "neighborhood": "Capitol Hill",
      "neighborhoodGroup": "East",
      "unitCount": 1,
      "severity": 0,
      "units": "E25"
    }
  },
  {
    "id_str": "F200018504",
    "created_at": "2/21/2020 5:06:17 AM",
    "derived": {
      "lat": 47.602686,
      "long": -122.316782,
      "timestamp": 1582290377000,
      "description": "Aid Response",
      "address": "151 12th Av,Seattle,WA",
      "entries": 1,
      "neighborhood": "First Hill",
      "neighborhoodGroup": "East",
      "unitCount": 1,
      "severity": 0,
      "units": "A25"
    }
  },
  {
    "id_str": "F200018501",
    "created_at": "2/21/2020 4:55:01 AM",
    "derived": {
      "lat": 47.604263,
      "long": -122.332774,
      "timestamp": 1582289701000,
      "description": "Auto Fire Alarm",
      "address": "810 3rd Av,Seattle,WA",
      "entries": 1,
      "neighborhood": "Downtown Commercial Core",
      "neighborhoodGroup": "Downtown",
      "unitCount": 2,
      "severity": 0,
      "units": "E10 L1"
    }
  },
  {
    "id_str": "F200018500",
    "created_at": "2/21/2020 4:38:11 AM",
    "derived": {
      "lat": 47.561926,
      "long": -122.376204,
      "timestamp": 1582288691000,
      "description": "Aid Response",
      "address": "4611 35th Av Sw,Seattle,WA",
      "entries": 1,
      "neighborhood": "North Delridge",
      "neighborhoodGroup": "Delridge Neighborhoods",
      "unitCount": 1,
      "severity": 0,
      "units": "E36"
    }
  },
  {
    "id_str": "F200018499",
    "created_at": "2/21/2020 4:31:35 AM",
    "derived": {
      "lat": 47.619877,
      "long": -122.331698,
      "timestamp": 1582288295000,
      "description": "Medic Response",
      "address": "219 Pontius Av N,Seattle,WA",
      "entries": 2,
      "neighborhood": "Cascade/Eastlake",
      "neighborhoodGroup": "Lake Union",
      "unitCount": 3,
      "severity": 0,
      "units": "A2 E2 M1"
    }
  },
  {
    "id_str": "F200018498",
    "created_at": "2/21/2020 4:23:35 AM",
    "derived": {
      "lat": 47.621082,
      "long": -122.359348,
      "timestamp": 1582287815000,
      "description": "Medic Response",
      "address": "312 2nd Av W,Seattle,WA",
      "entries": 1,
      "neighborhood": "Queen Anne",
      "neighborhoodGroup": "Magnolia/Queen Anne",
      "unitCount": 2,
      "severity": 0,
      "units": "E2 M10"
    }
  },
  {
    "id_str": "F200018497",
    "created_at": "2/21/2020 4:20:13 AM",
    "derived": {
      "lat": 47.564727,
      "long": -122.387049,
      "timestamp": 1582287613000,
      "description": "Aid Response",
      "address": "4321 Sw Genesee St,Seattle,WA",
      "entries": 1,
      "neighborhood": "West Seattle Junction/Genesee Hill",
      "neighborhoodGroup": "Southwest",
      "unitCount": 1,
      "severity": 0,
      "units": "L11"
    }
  },
  {
    "id_str": "F200018496",
    "created_at": "2/21/2020 4:15:51 AM",
    "derived": {
      "lat": 47.562472,
      "long": -122.385455,
      "timestamp": 1582287351000,
      "description": "Aid Response",
      "address": "4545 42nd Av Sw,Seattle,WA",
      "entries": 1,
      "neighborhood": "West Seattle Junction/Genesee Hill",
      "neighborhoodGroup": "Southwest",
      "unitCount": 1,
      "severity": 0,
      "units": "E32"
    }
  },
  {
    "id_str": "F200018494",
    "created_at": "2/21/2020 3:59:12 AM",
    "derived": {
      "lat": 47.595477,
      "long": -122.309916,
      "timestamp": 1582286352000,
      "description": "Illegal Burn",
      "address": "827 Hiawatha Pl S,Seattle,WA",
      "entries": 1,
      "neighborhood": "North Beacon Hill/Jefferson Park",
      "neighborhoodGroup": "Greater Duwamish",
      "unitCount": 1,
      "severity": 0,
      "units": "E6"
    }
  },
  {
    "id_str": "F200018493",
    "created_at": "2/21/2020 3:55:37 AM",
    "derived": {
      "lat": 47.615429,
      "long": -122.347799,
      "timestamp": 1582286137000,
      "description": "Aid Response",
      "address": "210 Wall St,Seattle,WA",
      "entries": 1,
      "neighborhood": "Belltown",
      "neighborhoodGroup": "Downtown",
      "unitCount": 1,
      "severity": 0,
      "units": "E2"
    }
  },
  {
    "id_str": "F200018492",
    "created_at": "2/21/2020 3:54:04 AM",
    "derived": {
      "lat": 47.656189,
      "long": -122.325684,
      "timestamp": 1582286044000,
      "description": "Medic Response",
      "address": "4054 Latona Ave Ne,Seattle,WA",
      "entries": 1,
      "neighborhood": "Wallingford",
      "neighborhoodGroup": "Lake Union",
      "unitCount": 2,
      "severity": 0,
      "units": "E31 M17"
    }
  },
  {
    "id_str": "F200018491",
    "created_at": "2/21/2020 3:52:18 AM",
    "derived": {
      "lat": 47.62327,
      "long": -122.354871,
      "timestamp": 1582285938000,
      "description": "Medic Response",
      "address": "120 Republican St,Seattle,WA",
      "entries": 1,
      "neighborhood": "Queen Anne",
      "neighborhoodGroup": "Magnolia/Queen Anne",
      "unitCount": 2,
      "severity": 0,
      "units": "A2 M10"
    }
  },
  {
    "id_str": "F200018489",
    "created_at": "2/21/2020 3:19:45 AM",
    "derived": {
      "lat": 47.656627,
      "long": -122.274748,
      "timestamp": 1582283985000,
      "description": "Automatic Fire Alarm Resd",
      "address": "3828 49th Ave Ne,Seattle,WA",
      "entries": 1,
      "neighborhood": "Laurelhurst/Sand Point",
      "neighborhoodGroup": "Northeast",
      "unitCount": 1,
      "severity": 0,
      "units": "E38"
    }
  },
  {
    "id_str": "F200018488",
    "created_at": "2/21/2020 3:16:27 AM",
    "derived": {
      "lat": 47.581701,
      "long": -122.314446,
      "timestamp": 1582283787000,
      "description": "Aid Response",
      "address": "2424 Beacon Av S,Seattle,WA",
      "entries": 1,
      "neighborhood": "North Beacon Hill/Jefferson Park",
      "neighborhoodGroup": "Greater Duwamish",
      "unitCount": 1,
      "severity": 0,
      "units": "E13"
    }
  },
  {
    "id_str": "F200018487",
    "created_at": "2/21/2020 3:14:17 AM",
    "derived": {
      "lat": 47.52913,
      "long": -122.269987,
      "timestamp": 1582283657000,
      "description": "Aid Response",
      "address": "Rainier Ave S / S Rose St,Seattle,WA",
      "entries": 1,
      "neighborhood": "Rainier Beach",
      "neighborhoodGroup": "Southeast",
      "unitCount": 1,
      "severity": 0,
      "units": "E33"
    }
  },
  {
    "id_str": "F200018486",
    "created_at": "2/21/2020 3:09:44 AM",
    "derived": {
      "lat": 47.612398,
      "long": -122.340892,
      "timestamp": 1582283384000,
      "description": "Aid Response",
      "address": "3rd Ave / Virginia St,Seattle,WA",
      "entries": 1,
      "neighborhood": "Cascade/Eastlake",
      "neighborhoodGroup": "Lake Union",
      "unitCount": 1,
      "severity": 0,
      "units": "A2"
    }
  },
  {
    "id_str": "F200018483",
    "created_at": "2/21/2020 3:03:10 AM",
    "derived": {
      "lat": 47.585498,
      "long": -122.303605,
      "timestamp": 1582282990000,
      "description": "MVI - Motor Vehicle Incident",
      "address": "S Plum St / Rainier Ave S,Seattle,WA",
      "entries": 1,
      "neighborhood": "North Beacon Hill/Jefferson Park",
      "neighborhoodGroup": "Greater Duwamish",
      "unitCount": 1,
      "severity": 0,
      "units": "E30"
    }
  },
  {
    "id_str": "F200018481",
    "created_at": "2/21/2020 2:48:06 AM",
    "derived": {
      "lat": 47.724677,
      "long": -122.344993,
      "timestamp": 1582282086000,
      "description": "Medic Response",
      "address": "13201 Aurora Av N,Seattle,WA",
      "entries": 1,
      "neighborhood": "Haller Lake",
      "neighborhoodGroup": "Northwest",
      "unitCount": 2,
      "severity": 0,
      "units": "E24 M31"
    }
  },
  {
    "id_str": "F200018480",
    "created_at": "2/21/2020 2:46:57 AM",
    "derived": {
      "lat": 47.721329,
      "long": -122.296339,
      "timestamp": 1582282017000,
      "description": "Aid Response Yellow",
      "address": "12740 30th Av Ne,Seattle,WA",
      "entries": 1,
      "neighborhood": "Cedar Park/Meadowbrook",
      "neighborhoodGroup": "North",
      "unitCount": 1,
      "severity": 0,
      "units": "E39"
    }
  },
  {
    "id_str": "F200018477",
    "created_at": "2/21/2020 2:31:02 AM",
    "derived": {
      "lat": 47.527305,
      "long": -122.319506,
      "timestamp": 1582281062000,
      "description": "Aid Response",
      "address": "1056 S Sullivan St,Seattle,WA",
      "entries": 1,
      "neighborhood": "South Park",
      "neighborhoodGroup": "Greater Duwamish",
      "unitCount": 1,
      "severity": 0,
      "units": "E26"
    }
  },
  {
    "id_str": "F200018475",
    "created_at": "2/21/2020 2:17:54 AM",
    "derived": {
      "lat": 47.602172,
      "long": -122.330863,
      "timestamp": 1582280274000,
      "description": "Aid Response",
      "address": "517 3rd Av,Seattle,WA",
      "entries": 1,
      "neighborhood": "Downtown Commercial Core",
      "neighborhoodGroup": "Downtown",
      "unitCount": 1,
      "severity": 0,
      "units": "A5"
    }
  },
  {
    "id_str": "F200018474",
    "created_at": "2/21/2020 2:15:05 AM",
    "derived": {
      "lat": 47.592049,
      "long": -122.297534,
      "timestamp": 1582280105000,
      "description": "Aid Response",
      "address": "2706 S Judkins St,Seattle,WA",
      "entries": 1,
      "neighborhood": "Madrona/Leschi",
      "neighborhoodGroup": "Central",
      "unitCount": 1,
      "severity": 0,
      "units": "E6"
    }
  },
  {
    "id_str": "F200018470",
    "created_at": "2/21/2020 1:53:52 AM",
    "derived": {
      "lat": 47.683719,
      "long": -122.339897,
      "timestamp": 1582278832000,
      "description": "Medic Response",
      "address": "7627 West Green Lake Dr N,Seattle,WA",
      "entries": 1,
      "neighborhood": "Green Lake",
      "neighborhoodGroup": "Northwest",
      "unitCount": 2,
      "severity": 0,
      "units": "E16 M17"
    }
  },
  {
    "id_str": "F200018469",
    "created_at": "2/21/2020 1:52:38 AM",
    "derived": {
      "lat": 47.602172,
      "long": -122.330863,
      "timestamp": 1582278758000,
      "description": "Aid Response",
      "address": "517 3rd Av,Seattle,WA",
      "entries": 1,
      "neighborhood": "Downtown Commercial Core",
      "neighborhoodGroup": "Downtown",
      "unitCount": 1,
      "severity": 0,
      "units": "A5"
    }
  },
  {
    "id_str": "F200018467",
    "created_at": "2/21/2020 1:38:37 AM",
    "derived": {
      "lat": 47.562568,
      "long": -122.382814,
      "timestamp": 1582277917000,
      "description": "Investigate Out Of Service",
      "address": "4534 40th Ave Sw,Seattle,WA",
      "entries": 1,
      "neighborhood": "West Seattle Junction/Genesee Hill",
      "neighborhoodGroup": "Southwest",
      "unitCount": 1,
      "severity": 0,
      "units": "E32"
    }
  },
  {
    "id_str": "F200018464",
    "created_at": "2/21/2020 12:55:47 AM",
    "derived": {
      "lat": 47.528403,
      "long": -122.387396,
      "timestamp": 1582275347000,
      "description": "Medic Response",
      "address": "8403 California Ave Sw,Seattle,WA",
      "entries": 1,
      "neighborhood": "Fauntleroy/Seaview",
      "neighborhoodGroup": "Southwest",
      "unitCount": 2,
      "severity": 0,
      "units": "E37 M32"
    }
  },
  {
    "id_str": "F200018463",
    "created_at": "2/21/2020 12:55:05 AM",
    "derived": {
      "lat": 47.604841,
      "long": -122.324097,
      "timestamp": 1582275305000,
      "description": "Aid Response",
      "address": "9th Ave / Jefferson St,Seattle,WA",
      "entries": 1,
      "neighborhood": "First Hill",
      "neighborhoodGroup": "East",
      "unitCount": 1,
      "severity": 0,
      "units": "A10"
    }
  },
  {
    "id_str": "F200018462",
    "created_at": "2/21/2020 12:44:32 AM",
    "derived": {
      "lat": 47.531005,
      "long": -122.289398,
      "timestamp": 1582274672000,
      "description": "Aid Response",
      "address": "3232 S Monroe St,Seattle,WA",
      "entries": 1,
      "neighborhood": "South Beacon Hill/NewHolly",
      "neighborhoodGroup": "Greater Duwamish",
      "unitCount": 1,
      "severity": 0,
      "units": "E33"
    }
  },
  {
    "id_str": "F200018461",
    "created_at": "2/21/2020 12:31:19 AM",
    "derived": {
      "lat": 47.618002,
      "long": -122.329182,
      "timestamp": 1582273879000,
      "description": "Aid Response",
      "address": "1811 Eastlake Av,Seattle,WA",
      "entries": 1,
      "neighborhood": "Cascade/Eastlake",
      "neighborhoodGroup": "Lake Union",
      "unitCount": 1,
      "severity": 0,
      "units": "A2"
    }
  },
  {
    "id_str": "F200018459",
    "created_at": "2/21/2020 12:27:33 AM",
    "derived": {
      "lat": 47.629009,
      "long": -122.34231,
      "timestamp": 1582273653000,
      "description": "Unk Odor",
      "address": "1115 Dexter Av N,Seattle,WA",
      "entries": 2,
      "neighborhood": "Queen Anne",
      "neighborhoodGroup": "Magnolia/Queen Anne",
      "unitCount": 2,
      "severity": 0,
      "units": "E2 L4"
    }
  },
  {
    "id_str": "F200018456",
    "created_at": "2/21/2020 12:13:19 AM",
    "derived": {
      "lat": 47.656233,
      "long": -122.315363,
      "timestamp": 1582272799000,
      "description": "Aid Response",
      "address": "1218 Ne Campus Pkwy,Seattle,WA",
      "entries": 1,
      "neighborhood": "University District",
      "neighborhoodGroup": "Northeast",
      "unitCount": 1,
      "severity": 0,
      "units": "E17"
    }
  },
  {
    "id_str": "F200018453",
    "created_at": "2/21/2020 12:07:40 AM",
    "derived": {
      "lat": 47.576983,
      "long": -122.310074,
      "timestamp": 1582272460000,
      "description": "Aid Response",
      "address": "3002 Beacon Av S,Seattle,WA",
      "entries": 1,
      "neighborhood": "North Beacon Hill/Jefferson Park",
      "neighborhoodGroup": "Greater Duwamish",
      "unitCount": 1,
      "severity": 0,
      "units": "E13"
    }
  },
  {
    "id_str": "F200018452",
    "created_at": "2/20/2020 11:54:24 PM",
    "derived": {
      "lat": 47.626322,
      "long": -122.348863,
      "timestamp": 1582271664000,
      "description": "Aid Response",
      "address": "805 4th Av N,Seattle,WA",
      "entries": 1,
      "neighborhood": "Queen Anne",
      "neighborhoodGroup": "Magnolia/Queen Anne",
      "unitCount": 1,
      "severity": 0,
      "units": "E8"
    }
  },
  {
    "id_str": "F200018451",
    "created_at": "2/20/2020 11:51:33 PM",
    "derived": {
      "lat": 47.581079,
      "long": -122.387864,
      "timestamp": 1582271493000,
      "description": "Aid Response",
      "address": "2616 44th Av Sw,Seattle,WA",
      "entries": 1,
      "neighborhood": "West Seattle Junction/Genesee Hill",
      "neighborhoodGroup": "Southwest",
      "unitCount": 1,
      "severity": 0,
      "units": "E29"
    }
  },
  {
    "id_str": "F200018449",
    "created_at": "2/20/2020 11:47:36 PM",
    "derived": {
      "lat": 47.603593,
      "long": -122.322954,
      "timestamp": 1582271256000,
      "description": "Auto Fire Alarm",
      "address": "326 9th Av,Seattle,WA",
      "entries": 1,
      "neighborhood": "First Hill",
      "neighborhoodGroup": "East",
      "unitCount": 2,
      "severity": 0,
      "units": "E10 L1"
    }
  },
  {
    "id_str": "F200018446",
    "created_at": "2/20/2020 11:30:14 PM",
    "derived": {
      "lat": 47.6126,
      "long": -122.334262,
      "timestamp": 1582270214000,
      "description": "Medic Response",
      "address": "1600 7TH AV,Seattle,WA",
      "entries": 2,
      "neighborhood": "First Hill",
      "neighborhoodGroup": "East",
      "unitCount": 2,
      "severity": 0,
      "units": "A2 M1"
    }
  },
  {
    "id_str": "F200018445",
    "created_at": "2/20/2020 11:29:11 PM",
    "derived": {
      "lat": 47.656233,
      "long": -122.315363,
      "timestamp": 1582270151000,
      "description": "Aid Response",
      "address": "1218 Ne Campus Pkwy,Seattle,WA",
      "entries": 1,
      "neighborhood": "University District",
      "neighborhoodGroup": "Northeast",
      "unitCount": 1,
      "severity": 0,
      "units": "E31"
    }
  },
  {
    "id_str": "F200018444",
    "created_at": "2/20/2020 11:06:29 PM",
    "derived": {
      "lat": 47.606687,
      "long": -122.31155,
      "timestamp": 1582268789000,
      "description": "Aid Response",
      "address": "555 16th Av,Seattle,WA",
      "entries": 1,
      "neighborhood": "Central Area/Squire Park",
      "neighborhoodGroup": "Central",
      "unitCount": 1,
      "severity": 0,
      "units": "A25"
    }
  },
  {
    "id_str": "F200018443",
    "created_at": "2/20/2020 11:04:41 PM",
    "derived": {
      "lat": 47.695996,
      "long": -122.328435,
      "timestamp": 1582268681000,
      "description": "Aid Response",
      "address": "9220 1ST AVE NE,Seattle,WA",
      "entries": 1,
      "neighborhood": "Northgate/Maple Leaf",
      "neighborhoodGroup": "North",
      "unitCount": 1,
      "severity": 0,
      "units": "E16"
    }
  },
  {
    "id_str": "F200018442",
    "created_at": "2/20/2020 11:01:10 PM",
    "derived": {
      "lat": 47.615602,
      "long": -122.332488,
      "timestamp": 1582268470000,
      "description": "Auto Fire Alarm",
      "address": "1815 Terry Av,Seattle,WA",
      "entries": 1,
      "neighborhood": "Cascade/Eastlake",
      "neighborhoodGroup": "Lake Union",
      "unitCount": 2,
      "severity": 0,
      "units": "E25 L10"
    }
  },
  {
    "id_str": "F200018441",
    "created_at": "2/20/2020 10:58:51 PM",
    "derived": {
      "lat": 47.599991,
      "long": -122.330342,
      "timestamp": 1582268331000,
      "description": "MVI - Motor Vehicle Incident",
      "address": "3RD AVE S / S MAIN ST,Seattle,WA",
      "entries": 1,
      "neighborhood": "Pioneer Square/International District",
      "neighborhoodGroup": "Downtown",
      "unitCount": 1,
      "severity": 0,
      "units": "E10"
    }
  },
  {
    "id_str": "F200018440",
    "created_at": "2/20/2020 10:56:39 PM",
    "derived": {
      "lat": 47.727071,
      "long": -122.301563,
      "timestamp": 1582268199000,
      "description": "Aid Response",
      "address": "13540 25th Ave Ne,Seattle,WA",
      "entries": 1,
      "neighborhood": "Olympic Hills/Victory Heights",
      "neighborhoodGroup": "North",
      "unitCount": 1,
      "severity": 0,
      "units": "E39"
    }
  },
  {
    "id_str": "F200018439",
    "created_at": "2/20/2020 10:53:46 PM",
    "derived": {
      "lat": 47.604615,
      "long": -122.32228,
      "timestamp": 1582268026000,
      "description": "Aid Response Yellow",
      "address": "1005 Terrace St,Seattle,WA",
      "entries": 1,
      "neighborhood": "First Hill",
      "neighborhoodGroup": "East",
      "unitCount": 1,
      "severity": 0,
      "units": "A5"
    }
  },
  {
    "id_str": "F200018438",
    "created_at": "2/20/2020 10:52:07 PM",
    "derived": {
      "lat": 47.666433,
      "long": -122.376341,
      "timestamp": 1582267927000,
      "description": "Aid Response",
      "address": "1510 Nw 52nd St,Seattle,WA",
      "entries": 1,
      "neighborhood": "Ballard",
      "neighborhoodGroup": "Ballard",
      "unitCount": 1,
      "severity": 0,
      "units": "E18"
    }
  },
  {
    "id_str": "F200018435",
    "created_at": "2/20/2020 10:43:32 PM",
    "derived": {
      "lat": 47.542832,
      "long": -122.370607,
      "timestamp": 1582267412000,
      "description": "Aid Response",
      "address": "Sw Holly St / Sylvan Way Sw,Seattle,WA",
      "entries": 1,
      "neighborhood": "High Point",
      "neighborhoodGroup": "Delridge Neighborhoods",
      "unitCount": 1,
      "severity": 0,
      "units": "E11"
    }
  },
  {
    "id_str": "F200018436",
    "created_at": "2/20/2020 10:43:32 PM",
    "derived": {
      "lat": 47.614086,
      "long": -122.319327,
      "timestamp": 1582267412000,
      "description": "Aid Response",
      "address": "1009 E Pike St,Seattle,WA",
      "entries": 1,
      "neighborhood": "Capitol Hill",
      "neighborhoodGroup": "East",
      "unitCount": 1,
      "severity": 0,
      "units": "A25"
    }
  },
  {
    "id_str": "F200018434",
    "created_at": "2/20/2020 10:42:50 PM",
    "derived": {
      "lat": 47.661396,
      "long": -122.35098,
      "timestamp": 1582267370000,
      "description": "Aid Response",
      "address": "612 N 45th St,Seattle,WA",
      "entries": 1,
      "neighborhood": "Fremont",
      "neighborhoodGroup": "Lake Union",
      "unitCount": 1,
      "severity": 0,
      "units": "E9"
    }
  },
  {
    "id_str": "F200018432",
    "created_at": "2/20/2020 10:35:48 PM",
    "derived": {
      "lat": 47.610151,
      "long": -122.296229,
      "timestamp": 1582266948000,
      "description": "Aid Response",
      "address": "918 M L King Jr Way,Seattle,WA",
      "entries": 1,
      "neighborhood": "Central Area/Squire Park",
      "neighborhoodGroup": "Central",
      "unitCount": 1,
      "severity": 0,
      "units": "E6"
    }
  },
  {
    "id_str": "F200018429",
    "created_at": "2/20/2020 10:31:20 PM",
    "derived": {
      "lat": 47.514679,
      "long": -122.37962,
      "timestamp": 1582266680000,
      "description": "Aid Response",
      "address": "3730 Sw 99th St,Seattle,WA",
      "entries": 1,
      "neighborhood": "Arbor Heights",
      "neighborhoodGroup": "Southwest",
      "unitCount": 1,
      "severity": 0,
      "units": "E37"
    }
  },
  {
    "id_str": "F200018428",
    "created_at": "2/20/2020 10:28:44 PM",
    "derived": {
      "lat": 47.542832,
      "long": -122.370607,
      "timestamp": 1582266524000,
      "description": "Aid Response",
      "address": "Sylvan Way Sw / Sw Holly St,Seattle,WA",
      "entries": 1,
      "neighborhood": "High Point",
      "neighborhoodGroup": "Delridge Neighborhoods",
      "unitCount": 1,
      "severity": 0,
      "units": "E37"
    }
  },
  {
    "id_str": "F200018426",
    "created_at": "2/20/2020 10:25:36 PM",
    "derived": {
      "lat": 47.559265,
      "long": -122.386917,
      "timestamp": 1582266336000,
      "description": "Aid Response Yellow",
      "address": "4812 Erskine Way Sw,Seattle,WA",
      "entries": 1,
      "neighborhood": "West Seattle Junction/Genesee Hill",
      "neighborhoodGroup": "Southwest",
      "unitCount": 1,
      "severity": 0,
      "units": "L11"
    }
  },
  {
    "id_str": "F200018427",
    "created_at": "2/20/2020 10:25:32 PM",
    "derived": {
      "lat": 47.564727,
      "long": -122.387049,
      "timestamp": 1582266332000,
      "description": "Aid Response",
      "address": "4321 Sw Genesee St,Seattle,WA",
      "entries": 1,
      "neighborhood": "West Seattle Junction/Genesee Hill",
      "neighborhoodGroup": "Southwest",
      "unitCount": 1,
      "severity": 0,
      "units": "E32"
    }
  },
  {
    "id_str": "F200018425",
    "created_at": "2/20/2020 10:20:55 PM",
    "derived": {
      "lat": 47.661239,
      "long": -122.297259,
      "timestamp": 1582266055000,
      "description": "Aid Response",
      "address": "2746 Ne 45th St,Seattle,WA",
      "entries": 1,
      "neighborhood": "Ravenna/Bryant",
      "neighborhoodGroup": "Northeast",
      "unitCount": 1,
      "severity": 0,
      "units": "E38"
    }
  },
  {
    "id_str": "F200018423",
    "created_at": "2/20/2020 10:19:40 PM",
    "derived": {
      "lat": 47.550605,
      "long": -122.258063,
      "timestamp": 1582265980000,
      "description": "Illegal Burn",
      "address": "5902 Lake Washington Blvd S,Seattle,WA",
      "entries": 1,
      "neighborhood": "Seward Park",
      "neighborhoodGroup": "Southeast",
      "unitCount": 1,
      "severity": 0,
      "units": "L12"
    }
  },
  {
    "id_str": "F200018420",
    "created_at": "2/20/2020 10:06:37 PM",
    "derived": {
      "lat": 47.557058,
      "long": -122.290761,
      "timestamp": 1582265197000,
      "description": "Aid Response",
      "address": "3220 S Hudson St,Seattle,WA",
      "entries": 1,
      "neighborhood": "Columbia City",
      "neighborhoodGroup": "Southeast",
      "unitCount": 1,
      "severity": 0,
      "units": "E28"
    }
  },
  {
    "id_str": "F200018416",
    "created_at": "2/20/2020 9:51:40 PM",
    "derived": {
      "lat": 47.645557,
      "long": -122.304611,
      "timestamp": 1582264300000,
      "description": "Aid Response",
      "address": "Montlake Blvd E / E Hamlin St,Seattle,WA",
      "entries": 1,
      "neighborhood": "Montlake/Portage Bay",
      "neighborhoodGroup": "Northeast",
      "unitCount": 1,
      "severity": 0,
      "units": "E22"
    }
  },
  {
    "id_str": "F200018414",
    "created_at": "2/20/2020 9:41:35 PM",
    "derived": {
      "lat": 47.625578,
      "long": -122.320225,
      "timestamp": 1582263695000,
      "description": "Aid Response",
      "address": "718 10th Av E,Seattle,WA",
      "entries": 1,
      "neighborhood": "North Capitol Hill",
      "neighborhoodGroup": "East",
      "unitCount": 1,
      "severity": 0,
      "units": "A25"
    }
  },
  {
    "id_str": "F200018413",
    "created_at": "2/20/2020 9:39:17 PM",
    "derived": {
      "lat": 47.625969,
      "long": -122.334344,
      "timestamp": 1582263557000,
      "description": "Aid Response",
      "address": "800 Fairview Av N,Seattle,WA",
      "entries": 1,
      "neighborhood": "Cascade/Eastlake",
      "neighborhoodGroup": "Lake Union",
      "unitCount": 1,
      "severity": 0,
      "units": "A2"
    }
  },
  {
    "id_str": "F200018411",
    "created_at": "2/20/2020 9:33:51 PM",
    "derived": {
      "lat": 47.677283,
      "long": -122.317383,
      "timestamp": 1582263231000,
      "description": "Aid Response",
      "address": "6700 Roosevelt Way Ne,Seattle,WA",
      "entries": 1,
      "neighborhood": "Ravenna/Bryant",
      "neighborhoodGroup": "Northeast",
      "unitCount": 1,
      "severity": 0,
      "units": "E16"
    }
  },
  {
    "id_str": "F200018410",
    "created_at": "2/20/2020 9:28:55 PM",
    "derived": {
      "lat": 47.631507,
      "long": -122.367808,
      "timestamp": 1582262935000,
      "description": "Automatic Fire Alarm Resd",
      "address": "1433 8th Ave W,Seattle,WA",
      "entries": 1,
      "neighborhood": "Queen Anne",
      "neighborhoodGroup": "Magnolia/Queen Anne",
      "unitCount": 1,
      "severity": 0,
      "units": "E8"
    }
  },
  {
    "id_str": "F200018409",
    "created_at": "2/20/2020 9:15:27 PM",
    "derived": {
      "lat": 47.538315,
      "long": -122.334445,
      "timestamp": 1582262127000,
      "description": "Aid Response",
      "address": "West Marginal Way S / Highland Park Way Sw,Seattle,WA",
      "entries": 1,
      "neighborhood": "South Park",
      "neighborhoodGroup": "Greater Duwamish",
      "unitCount": 1,
      "severity": 0,
      "units": "E26"
    }
  },
  {
    "id_str": "F200018407",
    "created_at": "2/20/2020 9:10:42 PM",
    "derived": {
      "lat": 47.672179,
      "long": -122.275514,
      "timestamp": 1582261842000,
      "description": "Aid Response",
      "address": "5825 Ann Arbor Ave Ne,Seattle,WA",
      "entries": 1,
      "neighborhood": "Ravenna/Bryant",
      "neighborhoodGroup": "Northeast",
      "unitCount": 1,
      "severity": 0,
      "units": "E40"
    }
  },
  {
    "id_str": "F200018406",
    "created_at": "2/20/2020 9:08:21 PM",
    "derived": {
      "lat": 47.661284,
      "long": -122.308383,
      "timestamp": 1582261701000,
      "description": "Auto Fire Alarm",
      "address": "4504 18th Av Ne,Seattle,WA",
      "entries": 2,
      "neighborhood": "University District",
      "neighborhoodGroup": "Northeast",
      "unitCount": 3,
      "severity": 0,
      "units": "E17 E31 L9"
    }
  },
  {
    "id_str": "F200018405",
    "created_at": "2/20/2020 9:07:24 PM",
    "derived": {
      "lat": 47.568958,
      "long": -122.294131,
      "timestamp": 1582261644000,
      "description": "Aid Response",
      "address": "3000 S Bradford St,Seattle,WA",
      "entries": 1,
      "neighborhood": "Columbia City",
      "neighborhoodGroup": "Southeast",
      "unitCount": 1,
      "severity": 0,
      "units": "E13"
    }
  },
  {
    "id_str": "F200018404",
    "created_at": "2/20/2020 9:06:30 PM",
    "derived": {
      "lat": 47.717893,
      "long": -122.318086,
      "timestamp": 1582261590000,
      "description": "Aid Response",
      "address": "12329 Roosevelt Way Ne,Seattle,WA",
      "entries": 1,
      "neighborhood": "Haller Lake",
      "neighborhoodGroup": "Northwest",
      "unitCount": 1,
      "severity": 0,
      "units": "E39"
    }
  },
  {
    "id_str": "F200018403",
    "created_at": "2/20/2020 9:04:40 PM",
    "derived": {
      "lat": 47.600709,
      "long": -122.332877,
      "timestamp": 1582261480000,
      "description": "Dumpster Fire",
      "address": "220 Occidental Ave S,Seattle,WA",
      "entries": 1,
      "neighborhood": "Pioneer Square/International District",
      "neighborhoodGroup": "Downtown",
      "unitCount": 1,
      "severity": 0,
      "units": "E5"
    }
  },
  {
    "id_str": "F200018401",
    "created_at": "2/20/2020 9:02:53 PM",
    "derived": {
      "lat": 47.614076,
      "long": -122.32078,
      "timestamp": 1582261373000,
      "description": "Aid Response",
      "address": "Broadway / E Pike St,Seattle,WA",
      "entries": 1,
      "neighborhood": "Capitol Hill",
      "neighborhoodGroup": "East",
      "unitCount": 1,
      "severity": 0,
      "units": "A25"
    }
  },
  {
    "id_str": "F200018402",
    "created_at": "2/20/2020 9:02:22 PM",
    "derived": {
      "lat": 47.606208,
      "long": -122.31915,
      "timestamp": 1582261342000,
      "description": "Auto Fire Alarm",
      "address": "1020 E Jefferson St,Seattle,WA",
      "entries": 1,
      "neighborhood": "First Hill",
      "neighborhoodGroup": "East",
      "unitCount": 2,
      "severity": 0,
      "units": "E25 L10"
    }
  },
  {
    "id_str": "F200018400",
    "created_at": "2/20/2020 9:01:36 PM",
    "derived": {
      "lat": 47.654993,
      "long": -122.30233,
      "timestamp": 1582261296000,
      "description": "Aid Response",
      "address": "Montlake Blvd Ne / Ne Wahkiakum Ln,Seattle,WA",
      "entries": 1,
      "neighborhood": "University District",
      "neighborhoodGroup": "Northeast",
      "unitCount": 1,
      "severity": 0,
      "units": "E38"
    }
  },
  {
    "id_str": "F200018397",
    "created_at": "2/20/2020 8:51:38 PM",
    "derived": {
      "lat": 47.612578,
      "long": -122.341197,
      "timestamp": 1582260698000,
      "description": "Aid Response",
      "address": "2024 3rd Av,Seattle,WA",
      "entries": 1,
      "neighborhood": "Cascade/Eastlake",
      "neighborhoodGroup": "Lake Union",
      "unitCount": 1,
      "severity": 0,
      "units": "A2"
    }
  },
  {
    "id_str": "F200018396",
    "created_at": "2/20/2020 8:51:23 PM",
    "derived": {
      "lat": 47.571282,
      "long": -122.296553,
      "timestamp": 1582260683000,
      "description": "Aid Response",
      "address": "3630 Renton Av S,Seattle,WA",
      "entries": 1,
      "neighborhood": "Columbia City",
      "neighborhoodGroup": "Southeast",
      "unitCount": 1,
      "severity": 0,
      "units": "E30"
    }
  },
  {
    "id_str": "F200018395",
    "created_at": "2/20/2020 8:50:37 PM",
    "derived": {
      "lat": 47.719638,
      "long": -122.355539,
      "timestamp": 1582260637000,
      "description": "Aid Response",
      "address": "12505 Greenwood Av N,Seattle,WA",
      "entries": 1,
      "neighborhood": "Broadview/Bitter Lake",
      "neighborhoodGroup": "Northwest",
      "unitCount": 1,
      "severity": 0,
      "units": "E24"
    }
  },
  {
    "id_str": "F200018394",
    "created_at": "2/20/2020 8:49:40 PM",
    "derived": {
      "lat": 47.597968,
      "long": -122.331585,
      "timestamp": 1582260580000,
      "description": "1RED 1 Unit",
      "address": "521 Stadium Pl S,Seattle,WA",
      "entries": 1,
      "neighborhood": "Duwamish/SODO",
      "neighborhoodGroup": "Greater Duwamish",
      "unitCount": 1,
      "severity": 0,
      "units": "E10"
    }
  },
  {
    "id_str": "F200018393",
    "created_at": "2/20/2020 8:49:31 PM",
    "derived": {
      "lat": 47.661284,
      "long": -122.308383,
      "timestamp": 1582260571000,
      "description": "Auto Fire Alarm",
      "address": "4504 18TH AV NE,Seattle,WA",
      "entries": 1,
      "neighborhood": "University District",
      "neighborhoodGroup": "Northeast",
      "unitCount": 2,
      "severity": 0,
      "units": "E17 L9"
    }
  },
  {
    "id_str": "F200018392",
    "created_at": "2/20/2020 8:47:28 PM",
    "derived": {
      "lat": 47.673811,
      "long": -122.369462,
      "timestamp": 1582260448000,
      "description": "Aid Response",
      "address": "956 Nw 62nd St,Seattle,WA",
      "entries": 1,
      "neighborhood": "Whittier Heights",
      "neighborhoodGroup": "Ballard",
      "unitCount": 1,
      "severity": 0,
      "units": "E18"
    }
  },
  {
    "id_str": "F200018390",
    "created_at": "2/20/2020 8:37:28 PM",
    "derived": {
      "lat": 47.661386,
      "long": -122.336294,
      "timestamp": 1582259848000,
      "description": "Aid Response",
      "address": "WALLINGFORD AVE N / N 45TH ST,Seattle,WA",
      "entries": 1,
      "neighborhood": "Wallingford",
      "neighborhoodGroup": "Lake Union",
      "unitCount": 1,
      "severity": 0,
      "units": "E31"
    }
  },
  {
    "id_str": "F200018389",
    "created_at": "2/20/2020 8:36:41 PM",
    "derived": {
      "lat": 47.733947,
      "long": -122.312326,
      "timestamp": 1582259801000,
      "description": "Aid Response",
      "address": "1531 Ne 145th St,Seattle,WA",
      "entries": 1,
      "unitCount": 1,
      "severity": 0,
      "units": "E39"
    }
  },
  {
    "id_str": "F200018386",
    "created_at": "2/20/2020 8:25:40 PM",
    "derived": {
      "lat": 47.607945,
      "long": -122.328471,
      "timestamp": 1582259140000,
      "description": "Auto Fire Alarm",
      "address": "1000 8th Av,Seattle,WA",
      "entries": 1,
      "neighborhood": "First Hill",
      "neighborhoodGroup": "East",
      "unitCount": 2,
      "severity": 0,
      "units": "E10 L1"
    }
  },
  {
    "id_str": "F200018385",
    "created_at": "2/20/2020 8:25:17 PM",
    "derived": {
      "lat": 47.659028,
      "long": -122.398241,
      "timestamp": 1582259117000,
      "description": "Illegal Burn",
      "address": "4338 32nd Ave W,Seattle,WA",
      "entries": 1,
      "neighborhood": "Magnolia",
      "neighborhoodGroup": "Magnolia/Queen Anne",
      "unitCount": 1,
      "severity": 0,
      "units": "E41"
    }
  },
  {
    "id_str": "F200018384",
    "created_at": "2/20/2020 8:21:37 PM",
    "derived": {
      "lat": 47.60705,
      "long": -122.335324,
      "timestamp": 1582258897000,
      "description": "Aid Response",
      "address": "1201 3rd Av,Seattle,WA",
      "entries": 1,
      "neighborhood": "Downtown Commercial Core",
      "neighborhoodGroup": "Downtown",
      "unitCount": 1,
      "severity": 0,
      "units": "A10"
    }
  },
  {
    "id_str": "F200018382",
    "created_at": "2/20/2020 8:20:07 PM",
    "derived": {
      "lat": 47.551859,
      "long": -122.326863,
      "timestamp": 1582258807000,
      "description": "Aid Response",
      "address": "6th Ave S / S Orcas St,Seattle,WA",
      "entries": 1,
      "neighborhood": "Georgetown",
      "neighborhoodGroup": "Greater Duwamish",
      "unitCount": 1,
      "severity": 0,
      "units": "E27"
    }
  },
  {
    "id_str": "F200018383",
    "created_at": "2/20/2020 8:20:06 PM",
    "derived": {
      "lat": 47.598288,
      "long": -122.331581,
      "timestamp": 1582258806000,
      "description": "Aid Response",
      "address": "2nd Ave S / S King St,Seattle,WA",
      "entries": 1,
      "neighborhood": "Duwamish/SODO",
      "neighborhoodGroup": "Greater Duwamish",
      "unitCount": 1,
      "severity": 0,
      "units": "A5"
    }
  },
  {
    "id_str": "F200018381",
    "created_at": "2/20/2020 8:15:33 PM",
    "derived": {
      "lat": 47.57981,
      "long": -122.333269,
      "timestamp": 1582258533000,
      "description": "Illegal Burn",
      "address": "S Lander St / Occidental Ave S,Seattle,WA",
      "entries": 1,
      "neighborhood": "Duwamish/SODO",
      "neighborhoodGroup": "Greater Duwamish",
      "unitCount": 1,
      "severity": 0,
      "units": "R1"
    }
  },
  {
    "id_str": "F200018378",
    "created_at": "2/20/2020 8:05:22 PM",
    "derived": {
      "lat": 47.612976,
      "long": -122.31674,
      "timestamp": 1582257922000,
      "description": "Unk Odor",
      "address": "1408 12th Av,Seattle,WA",
      "entries": 2,
      "neighborhood": "Capitol Hill",
      "neighborhoodGroup": "East",
      "unitCount": 2,
      "severity": 0,
      "units": "E25 L10"
    }
  },
  {
    "id_str": "F200018377",
    "created_at": "2/20/2020 8:02:31 PM",
    "derived": {
      "lat": 47.647519,
      "long": -122.324414,
      "timestamp": 1582257751000,
      "description": "Rescue Elevator",
      "address": "2920 Eastlake Av E,Seattle,WA",
      "entries": 1,
      "neighborhood": "Montlake/Portage Bay",
      "neighborhoodGroup": "Northeast",
      "unitCount": 1,
      "severity": 0,
      "units": "L9"
    }
  },
  {
    "id_str": "F200018376",
    "created_at": "2/20/2020 8:00:05 PM",
    "derived": {
      "lat": 47.61393,
      "long": -122.327805,
      "timestamp": 1582257605000,
      "description": "Aid Response",
      "address": "Pike St / Melrose Ave,Seattle,WA",
      "entries": 1,
      "neighborhood": "Capitol Hill",
      "neighborhoodGroup": "East",
      "unitCount": 1,
      "severity": 0,
      "units": "A25"
    }
  },
  {
    "id_str": "F200018374",
    "created_at": "2/20/2020 7:56:50 PM",
    "derived": {
      "lat": 47.600843,
      "long": -122.330271,
      "timestamp": 1582257410000,
      "description": "Aid Response",
      "address": "204 3rd Av S,Seattle,WA",
      "entries": 1,
      "neighborhood": "Pioneer Square/International District",
      "neighborhoodGroup": "Downtown",
      "unitCount": 1,
      "severity": 0,
      "units": "A10"
    }
  },
  {
    "id_str": "F200018373",
    "created_at": "2/20/2020 7:55:26 PM",
    "derived": {
      "lat": 47.602172,
      "long": -122.330863,
      "timestamp": 1582257326000,
      "description": "Aid Response",
      "address": "517 3rd Av,Seattle,WA",
      "entries": 1,
      "neighborhood": "Downtown Commercial Core",
      "neighborhoodGroup": "Downtown",
      "unitCount": 1,
      "severity": 0,
      "units": "A5"
    }
  },
  {
    "id_str": "F200018372",
    "created_at": "2/20/2020 7:47:21 PM",
    "derived": {
      "lat": 47.617193,
      "long": -122.327873,
      "timestamp": 1582256841000,
      "description": "Aid Response",
      "address": "1718 Melrose Av,Seattle,WA",
      "entries": 2,
      "neighborhood": "Capitol Hill",
      "neighborhoodGroup": "East",
      "unitCount": 2,
      "severity": 0,
      "units": "A2 A4"
    }
  },
  {
    "id_str": "F200018368",
    "created_at": "2/20/2020 7:36:52 PM",
    "derived": {
      "lat": 47.622139,
      "long": -122.320908,
      "timestamp": 1582256212000,
      "description": "Medic Response",
      "address": "414 Broadway E,Seattle,WA",
      "entries": 2,
      "neighborhood": "Capitol Hill",
      "neighborhoodGroup": "East",
      "unitCount": 3,
      "severity": 0,
      "units": "E25 M1 M10"
    }
  },
  {
    "id_str": "F200018366",
    "created_at": "2/20/2020 7:32:53 PM",
    "derived": {
      "lat": 47.728678,
      "long": -122.345037,
      "timestamp": 1582255973000,
      "description": "Aid Response",
      "address": "13700 Aurora Av N,Seattle,WA",
      "entries": 1,
      "neighborhood": "Haller Lake",
      "neighborhoodGroup": "Northwest",
      "unitCount": 1,
      "severity": 0,
      "units": "A31"
    }
  },
  {
    "id_str": "F200018364",
    "created_at": "2/20/2020 7:29:47 PM",
    "derived": {
      "lat": 47.661266,
      "long": -122.284754,
      "timestamp": 1582255787000,
      "description": "Auto Fire Alarm",
      "address": "4500 40th Av Ne,Seattle,WA",
      "entries": 1,
      "neighborhood": "Laurelhurst/Sand Point",
      "neighborhoodGroup": "Northeast",
      "unitCount": 1,
      "severity": 0,
      "units": "E38"
    }
  },
  {
    "id_str": "F200018363",
    "created_at": "2/20/2020 7:23:55 PM",
    "derived": {
      "lat": 47.611733,
      "long": -122.341753,
      "timestamp": 1582255435000,
      "description": "Rescue Elevator",
      "address": "2000 2nd Av,Seattle,WA",
      "entries": 1,
      "neighborhood": "Belltown",
      "neighborhoodGroup": "Downtown",
      "unitCount": 1,
      "severity": 0,
      "units": "L4"
    }
  },
  {
    "id_str": "F200018362",
    "created_at": "2/20/2020 7:21:28 PM",
    "derived": {
      "lat": 47.624584,
      "long": -122.356936,
      "timestamp": 1582255288000,
      "description": "Auto Fire Alarm",
      "address": "18 W Mercer St,Seattle,WA",
      "entries": 1,
      "neighborhood": "Queen Anne",
      "neighborhoodGroup": "Magnolia/Queen Anne",
      "unitCount": 2,
      "severity": 0,
      "units": "E8 L6"
    }
  },
  {
    "id_str": "F200018361",
    "created_at": "2/20/2020 7:20:13 PM",
    "derived": {
      "lat": 47.608409,
      "long": -122.327361,
      "timestamp": 1582255213000,
      "description": "Aid Response",
      "address": "900 Madison St,Seattle,WA",
      "entries": 1,
      "neighborhood": "First Hill",
      "neighborhoodGroup": "East",
      "unitCount": 1,
      "severity": 0,
      "units": "E25"
    }
  },
  {
    "id_str": "F200018360",
    "created_at": "2/20/2020 7:18:26 PM",
    "derived": {
      "lat": 47.661266,
      "long": -122.284754,
      "timestamp": 1582255106000,
      "description": "Auto Fire Alarm",
      "address": "4500 40th Av Ne,Seattle,WA",
      "entries": 1,
      "neighborhood": "Laurelhurst/Sand Point",
      "neighborhoodGroup": "Northeast",
      "unitCount": 2,
      "severity": 0,
      "units": "E38 L9"
    }
  },
  {
    "id_str": "F200018359",
    "created_at": "2/20/2020 7:17:04 PM",
    "derived": {
      "lat": 47.686794,
      "long": -122.322951,
      "timestamp": 1582255024000,
      "description": "Aid Response",
      "address": "8002 5th Ave Ne,Seattle,WA",
      "entries": 1,
      "neighborhood": "Green Lake",
      "neighborhoodGroup": "Northwest",
      "unitCount": 1,
      "severity": 0,
      "units": "E16"
    }
  },