[
  {
    "id_str": "F200070489",
    "created_at": "7/18/2020 4:54:48 PM",
    "derived": {
      "lat": 47.665154,
      "long": -122.307186,
      "timestamp": 1595116488000,
      "description": "Aid Response",
      "address": "5039 19TH AVE NE",
      "active": false,
      "unitCount": 1,
      "severity": 0,
      "neighborhood": "University District",
      "neighborhoodGroup": "Northeast",
      "units": "E31"
    }
  },
  {
    "id_str": "F200070488",
    "created_at": "7/18/2020 4:53:58 PM",
    "derived": {
      "lat": 47.670176,
      "long": -122.379221,
      "timestamp": 1595116438000,
      "description": "Aid Response",
      "address": "1732 Nw 57th St",
      "active": false,
      "unitCount": 1,
      "severity": 0,
      "neighborhood": "Ballard",
      "neighborhoodGroup": "Ballard",
      "units": "E18"
    }
  },
  {
    "id_str": "F200070487",
    "created_at": "7/18/2020 4:46:59 PM",
    "derived": {
      "lat": 47.7003,
      "long": -122.393493,
      "timestamp": 1595116019000,
      "description": "Water Rescue Response",
      "address": "28TH AVE NW / NW ESPLANADE",
      "active": false,
      "unitCount": 16,
      "severity": 2,
      "neighborhood": "North Beach/Blue Ridge",
      "neighborhoodGroup": "Ballard",
      "units": "A10 A14 B2 B4 E17 E35 E5 FB2 FIREBOAT FRB5 L8 M31 M44 PTRL4 R1 SAFT2"
    }
  },
  {
    "id_str": "F200070483",
    "created_at": "7/18/2020 4:40:43 PM",
    "derived": {
      "lat": 47.599275,
      "long": -122.303285,
      "timestamp": 1595115643000,
      "description": "Medic Response",
      "address": "22nd Ave S / S Jackson St",
      "active": false,
      "unitCount": 2,
      "severity": 0,
      "neighborhood": "Judkins Park",
      "neighborhoodGroup": "Central",
      "units": "E6 M1"
    }
  },
  {
    "id_str": "F200070482",
    "created_at": "7/18/2020 4:40:39 PM",
    "derived": {
      "lat": 47.607297,
      "long": -122.327878,
      "timestamp": 1595115639000,
      "description": "Rescue Elevator",
      "address": "910 8th Av",
      "active": false,
      "unitCount": 1,
      "severity": 0,
      "neighborhood": "First Hill",
      "neighborhoodGroup": "East",
      "units": "L1"
    }
  },
  {
    "id_str": "F200070480",
    "created_at": "7/18/2020 4:36:59 PM",
    "derived": {
      "lat": 47.534757,
      "long": -122.360401,
      "timestamp": 1595115419000,
      "description": "Aid Response",
      "address": "7552 21st Ave Sw",
      "active": false,
      "unitCount": 1,
      "severity": 0,
      "neighborhood": "Roxhill/Westwood",
      "neighborhoodGroup": "Delridge Neighborhoods",
      "units": "E37"
    }
  },
  {
    "id_str": "F200070479",
    "created_at": "7/18/2020 4:35:31 PM",
    "derived": {
      "lat": 47.608756,
      "long": -122.336885,
      "timestamp": 1595115331000,
      "description": "Aid Response",
      "address": "1401 3rd Av",
      "active": false,
      "unitCount": 1,
      "severity": 0,
      "neighborhood": "Downtown Commercial Core",
      "neighborhoodGroup": "Downtown",
      "units": "A10"
    }
  },
  {
    "id_str": "F200070478",
    "created_at": "7/18/2020 4:34:51 PM",
    "derived": {
      "lat": 47.558663,
      "long": -122.288818,
      "timestamp": 1595115291000,
      "description": "Aid Response",
      "address": "35th Ave S / S Edmunds St",
      "active": false,
      "unitCount": 1,
      "severity": 0,
      "neighborhood": "Columbia City",
      "neighborhoodGroup": "Southeast",
      "units": "E28"
    }
  },
  {
    "id_str": "F200070477",
    "created_at": "7/18/2020 4:34:01 PM",
    "derived": {
      "lat": 47.639598,
      "long": -122.373691,
      "timestamp": 1595115241000,
      "description": "Aid Response",
      "address": "2222 Gilman Dr W",
      "active": false,
      "unitCount": 2,
      "severity": 0,
      "neighborhood": "Interbay",
      "neighborhoodGroup": "Magnolia/Queen Anne",
      "units": "E8 L6"
    }
  },
  {
    "id_str": "F200070475",
    "created_at": "7/18/2020 4:27:17 PM",
    "derived": {
      "lat": 47.622089,
      "long": -122.351371,
      "timestamp": 1595114837000,
      "description": "Aid Response",
      "address": "305 Harrison St",
      "active": false,
      "unitCount": 1,
      "severity": 0,
      "neighborhood": "Queen Anne",
      "neighborhoodGroup": "Magnolia/Queen Anne",
      "units": "A4"
    }
  },
  {
    "id_str": "F200070473",
    "created_at": "7/18/2020 4:23:20 PM",
    "derived": {
      "lat": 47.528126,
      "long": -122.353128,
      "timestamp": 1595114600000,
      "description": "Aid Response",
      "address": "8420 14th Ave Sw",
      "active": false,
      "unitCount": 1,
      "severity": 0,
      "neighborhood": "Highland Park",
      "neighborhoodGroup": "Delridge Neighborhoods",
      "units": "E11"
    }
  },
  {
    "id_str": "F200070471",
    "created_at": "7/18/2020 4:15:19 PM",
    "derived": {
      "lat": 47.674157,
      "long": -122.279516,
      "timestamp": 1595114119000,
      "description": "Rescue Lock In/Out",
      "address": "6232 45th Ave Ne",
      "active": false,
      "unitCount": 1,
      "severity": 0,
      "neighborhood": "Ravenna/Bryant",
      "neighborhoodGroup": "Northeast",
      "units": "E40"
    }
  },
  {
    "id_str": "F200070468",
    "created_at": "7/18/2020 4:06:07 PM",
    "derived": {
      "lat": 47.624223,
      "long": -122.289457,
      "timestamp": 1595113567000,
      "description": "MVI - Motor Vehicle Incident",
      "address": "Lake Washington Blvd E / E Ford Pl",
      "active": false,
      "unitCount": 1,
      "severity": 0,
      "neighborhood": "Madrona/Leschi",
      "neighborhoodGroup": "Central",
      "units": "E34"
    }
  },
  {
    "id_str": "F200070467",
    "created_at": "7/18/2020 4:02:48 PM",
    "derived": {
      "lat": 47.672812,
      "long": -122.406353,
      "timestamp": 1595113368000,
      "description": "Aid Response",
      "address": "6017 Seaview Av Nw",
      "active": false,
      "unitCount": 1,
      "severity": 0,
      "neighborhood": "Sunset Hill/Loyal Heights",
      "neighborhoodGroup": "Ballard",
      "units": "E18"
    }
  },
  {
    "id_str": "F200070465",
    "created_at": "7/18/2020 3:39:51 PM",
    "derived": {
      "lat": 47.598322,
      "long": -122.3134,
      "timestamp": 1595111991000,
      "description": "Aid Response",
      "address": "501 Rainier Av S",
      "active": false,
      "unitCount": 1,
      "severity": 0,
      "neighborhood": "Judkins Park",
      "neighborhoodGroup": "Central",
      "units": "A5"
    }
  },
  {
    "id_str": "F200070464",
    "created_at": "7/18/2020 3:31:52 PM",
    "derived": {
      "lat": 47.615659,
      "long": -122.318166,
      "timestamp": 1595111512000,
      "description": "Rescue Lock In/Out",
      "address": "1635 11th Av",
      "active": false,
      "unitCount": 1,
      "severity": 0,
      "neighborhood": "Capitol Hill",
      "neighborhoodGroup": "East",
      "units": "L10"
    }
  },
  {
    "id_str": "F200070463",
    "created_at": "7/18/2020 3:24:51 PM",
    "derived": {
      "lat": 47.603237,
      "long": -122.337944,
      "timestamp": 1595111091000,
      "description": "Marine Service Response",
      "address": "925 ALASKAN WAY",
      "active": false,
      "unitCount": 1,
      "severity": 0,
      "neighborhood": "Downtown Commercial Core",
      "neighborhoodGroup": "Downtown",
      "units": "FB2"
    }
  },
  {
    "id_str": "F200070461",
    "created_at": "7/18/2020 3:17:55 PM",
    "derived": {
      "lat": 47.58617,
      "long": -122.329062,
      "timestamp": 1595110675000,
      "description": "Aid Response",
      "address": "4th Ave S / S Holgate St",
      "active": false,
      "unitCount": 1,
      "severity": 0,
      "neighborhood": "Duwamish/SODO",
      "neighborhoodGroup": "Greater Duwamish",
      "units": "A14"
    }
  },
  {
    "id_str": "F200070459",
    "created_at": "7/18/2020 3:16:46 PM",
    "derived": {
      "lat": 47.690609,
      "long": -122.376806,
      "timestamp": 1595110606000,
      "description": "MVI - Motor Vehicle Incident",
      "address": "Nw 85th St / 15th Ave Nw",
      "active": false,
      "unitCount": 1,
      "severity": 0,
      "neighborhood": "Whittier Heights",
      "neighborhoodGroup": "Ballard",
      "units": "E35"
    }
  },
  {
    "id_str": "F200070458",
    "created_at": "7/18/2020 3:14:43 PM",
    "derived": {
      "lat": 47.732764,
      "long": -122.296532,
      "timestamp": 1595110483000,
      "description": "Aid Response",
      "address": "14336 30th Ave Ne",
      "active": false,
      "unitCount": 1,
      "severity": 0,
      "neighborhood": "Olympic Hills/Victory Heights",
      "neighborhoodGroup": "North",
      "units": "E39"
    }
  },
  {
    "id_str": "F200070457",
    "created_at": "7/18/2020 3:11:49 PM",
    "derived": {
      "lat": 47.68565,
      "long": -122.337795,
      "timestamp": 1595110309000,
      "description": "Aid Response",
      "address": "West Green Lake Dr N / East Green Lake Dr N",
      "active": false,
      "unitCount": 1,
      "severity": 0,
      "neighborhood": "Green Lake",
      "neighborhoodGroup": "Northwest",
      "units": "E22"
    }
  },
  {
    "id_str": "F200070455",
    "created_at": "7/18/2020 2:56:05 PM",
    "derived": {
      "lat": 47.660386,
      "long": -122.350028,
      "timestamp": 1595109365000,
      "description": "Aid Response",
      "address": "4416 Fremont Av N",
      "active": false,
      "unitCount": 1,
      "severity": 0,
      "neighborhood": "Fremont",
      "neighborhoodGroup": "Lake Union",
      "units": "E9"
    }
  },
  {
    "id_str": "F200070454",
    "created_at": "7/18/2020 2:50:23 PM",
    "derived": {
      "lat": 47.608051,
      "long": -122.339309,
      "timestamp": 1595109023000,
      "description": "Aid Response",
      "address": "1423 1st Av",
      "active": false,
      "unitCount": 1,
      "severity": 0,
      "neighborhood": "Downtown Commercial Core",
      "neighborhoodGroup": "Downtown",
      "units": "A10"
    }
  },
  {
    "id_str": "F200070453",
    "created_at": "7/18/2020 2:47:57 PM",
    "derived": {
      "lat": 47.571408,
      "long": -122.291001,
      "timestamp": 1595108877000,
      "description": "Aid Response",
      "address": "3621 33rd Av S",
      "active": false,
      "unitCount": 1,
      "severity": 0,
      "neighborhood": "Columbia City",
      "neighborhoodGroup": "Southeast",
      "units": "E13"
    }
  },
  {
    "id_str": "F200070450",
    "created_at": "7/18/2020 2:43:31 PM",
    "derived": {
      "lat": 47.502677,
      "long": -122.376134,
      "timestamp": 1595108611000,
      "description": "Aid Response",
      "address": "11218 35th Ave Sw",
      "active": false,
      "unitCount": 1,
      "severity": 0,
      "neighborhood": "Arbor Heights",
      "neighborhoodGroup": "Southwest",
      "units": "E37"
    }
  },
  {
    "id_str": "F200070445",
    "created_at": "7/18/2020 2:33:30 PM",
    "derived": {
      "lat": 47.669443,
      "long": -122.376902,
      "timestamp": 1595108010000,
      "description": "Aid Response",
      "address": "1552 Nw 56th St",
      "active": false,
      "unitCount": 1,
      "severity": 0,
      "neighborhood": "Ballard",
      "neighborhoodGroup": "Ballard",
      "units": "E18"
    }
  },
  {
    "id_str": "F200070441",
    "created_at": "7/18/2020 2:28:38 PM",
    "derived": {
      "lat": 47.599195,
      "long": -122.327667,
      "timestamp": 1595107718000,
      "description": "Aid Response",
      "address": "5th Ave S / S Jackson St",
      "active": false,
      "unitCount": 2,
      "severity": 0,
      "neighborhood": "Pioneer Square/International District",
      "neighborhoodGroup": "Downtown",
      "units": "A10 A5"
    }
  },
  {
    "id_str": "F200070438",
    "created_at": "7/18/2020 2:24:08 PM",
    "derived": {
      "lat": 47.661199,
      "long": -122.322412,
      "timestamp": 1595107448000,
      "description": "MVI Freeway",
      "address": "SB I5 AT 50",
      "active": false,
      "unitCount": 4,
      "severity": 0,
      "neighborhood": "Wallingford",
      "neighborhoodGroup": "Lake Union",
      "units": "A25 E10 E22 STAF10"
    }
  },
  {
    "id_str": "F200070439",
    "created_at": "7/18/2020 2:20:53 PM",
    "derived": {
      "lat": 47.599198,
      "long": -122.335909,
      "timestamp": 1595107253000,
      "description": "Brush Fire",
      "address": "401 ALASKAN WAY S",
      "active": false,
      "unitCount": 2,
      "severity": 0,
      "neighborhood": "Duwamish/SODO",
      "neighborhoodGroup": "Greater Duwamish",
      "units": "E2 E36"
    }
  },
  {
    "id_str": "F200070437",
    "created_at": "7/18/2020 2:15:38 PM",
    "derived": {
      "lat": 47.690434,
      "long": -122.31223,
      "timestamp": 1595106938000,
      "description": "Aid Response",
      "address": "8511 15th Av Ne",
      "active": false,
      "unitCount": 1,
      "severity": 0,
      "neighborhood": "Northgate/Maple Leaf",
      "neighborhoodGroup": "North",
      "units": "E6"
    }
  },
  {
    "id_str": "F200070436",
    "created_at": "7/18/2020 2:14:11 PM",
    "derived": {
      "lat": 47.709581,
      "long": -122.323304,
      "timestamp": 1595106851000,
      "description": "Aid Response",
      "address": "5th Ave Ne / Ne 112th St",
      "active": false,
      "unitCount": 1,
      "severity": 0,
      "neighborhood": "Northgate/Maple Leaf",
      "neighborhoodGroup": "North",
      "units": "L6"
    }
  },
  {
    "id_str": "F200070435",
    "created_at": "7/18/2020 2:12:40 PM",
    "derived": {
      "lat": 47.723436,
      "long": -122.355547,
      "timestamp": 1595106760000,
      "description": "Medic Response",
      "address": "13023 Greenwood Av N",
      "active": false,
      "unitCount": 2,
      "severity": 0,
      "neighborhood": "Broadview/Bitter Lake",
      "neighborhoodGroup": "Northwest",
      "units": "E35 M31"
    }
  },
  {
    "id_str": "F200070434",
    "created_at": "7/18/2020 2:10:31 PM",
    "derived": {
      "lat": 47.607133,
      "long": -122.341594,
      "timestamp": 1595106631000,
      "description": "Marine Service Response",
      "address": "1425 Alaskan Way",
      "active": false,
      "unitCount": 5,
      "severity": 1,
      "neighborhood": "Downtown Commercial Core",
      "neighborhoodGroup": "Downtown",
      "units": "E5 FB4 FIREBOAT FRB5 PTRL4"
    }
  },
  {
    "id_str": "F200070433",
    "created_at": "7/18/2020 2:10:04 PM",
    "derived": {
      "lat": 47.668667,
      "long": -122.376214,
      "timestamp": 1595106604000,
      "description": "Aid Response",
      "address": "15th Ave Nw / Nw Market St",
      "active": false,
      "unitCount": 1,
      "severity": 0,
      "neighborhood": "Ballard",
      "neighborhoodGroup": "Ballard",
      "units": "E18"
    }
  },
  {
    "id_str": "F200070432",
    "created_at": "7/18/2020 2:09:08 PM",
    "derived": {
      "lat": 47.535211,
      "long": -122.280325,
      "timestamp": 1595106548000,
      "description": "Aid Response",
      "address": "4200 S Webster St",
      "active": false,
      "unitCount": 1,
      "severity": 0,
      "neighborhood": "South Beacon Hill/NewHolly",
      "neighborhoodGroup": "Greater Duwamish",
      "units": "E28"
    }
  },
  {
    "id_str": "F200070431",
    "created_at": "7/18/2020 2:03:10 PM",
    "derived": {
      "lat": 47.693931,
      "long": -122.30552,
      "timestamp": 1595106190000,
      "description": "Aid Response",
      "address": "9001 Lake City Way Ne",
      "active": false,
      "unitCount": 3,
      "severity": 0,
      "neighborhood": "Wedgwood/View Ridge",
      "neighborhoodGroup": "Northeast",
      "units": "A25 E24 E39"
    }
  },
  {
    "id_str": "F200070430",
    "created_at": "7/18/2020 2:03:05 PM",
    "derived": {
      "lat": 47.728466,
      "long": -122.292256,
      "timestamp": 1595106185000,
      "description": "Aid Response",
      "address": "13730 Lake City Way Ne",
      "active": false,
      "unitCount": 2,
      "severity": 0,
      "neighborhood": "Cedar Park/Meadowbrook",
      "neighborhoodGroup": "North",
      "units": "E24 E39"
    }
  },
  {
    "id_str": "F200070426",
    "created_at": "7/18/2020 1:55:19 PM",
    "derived": {
      "lat": 47.523174,
      "long": -122.393181,
      "timestamp": 1595105719000,
      "description": "Medic Response, 6 per Rule",
      "address": "4829 SW BARTON ST",
      "active": false,
      "unitCount": 4,
      "severity": 0,
      "neighborhood": "Fauntleroy/Seaview",
      "neighborhoodGroup": "Southwest",
      "units": "E37 L11 M1 M32"
    }
  },
  {
    "id_str": "F200070425",
    "created_at": "7/18/2020 1:52:14 PM",
    "derived": {
      "lat": 47.52412,
      "long": -122.264611,
      "timestamp": 1595105534000,
      "description": "Aid Response",
      "address": "8815 Seward Park Av S",
      "active": false,
      "unitCount": 1,
      "severity": 0,
      "neighborhood": "Rainier Beach",
      "neighborhoodGroup": "Southeast",
      "units": "E30"
    }
  },
  {
    "id_str": "F200070424",
    "created_at": "7/18/2020 1:52:07 PM",
    "derived": {
      "lat": 47.708935,
      "long": -122.320569,
      "timestamp": 1595105527000,
      "description": "Auto Fire Alarm",
      "address": "11050 8th Av Ne",
      "active": false,
      "unitCount": 2,
      "severity": 0,
      "neighborhood": "Northgate/Maple Leaf",
      "neighborhoodGroup": "North",
      "units": "E24 L6"
    }
  },
  {
    "id_str": "F200070423",
    "created_at": "7/18/2020 1:50:34 PM",
    "derived": {
      "lat": 47.692774,
      "long": -122.355325,
      "timestamp": 1595105434000,
      "description": "Aid Response",
      "address": "8760 Greenwood Av N",
      "active": false,
      "unitCount": 1,
      "severity": 0,
      "neighborhood": "Greenwood/Phinney Ridge",
      "neighborhoodGroup": "Northwest",
      "units": "E21"
    }
  },
  {
    "id_str": "F200070420",
    "created_at": "7/18/2020 1:42:54 PM",
    "derived": {
      "lat": 47.607297,
      "long": -122.327878,
      "timestamp": 1595104974000,
      "description": "Auto Fire Alarm",
      "address": "910 8th Av",
      "active": false,
      "unitCount": 2,
      "severity": 0,
      "neighborhood": "First Hill",
      "neighborhoodGroup": "East",
      "units": "E5 L1"
    }
  },
  {
    "id_str": "F200070419",
    "created_at": "7/18/2020 1:39:42 PM",
    "derived": {
      "lat": 47.630887,
      "long": -122.320208,
      "timestamp": 1595104782000,
      "description": "Aid Response",
      "address": "1245 10th Av E",
      "active": false,
      "unitCount": 1,
      "severity": 0,
      "neighborhood": "Cascade/Eastlake",
      "neighborhoodGroup": "Lake Union",
      "units": "L10"
    }
  },
  {
    "id_str": "F200070418",
    "created_at": "7/18/2020 1:37:58 PM",
    "derived": {
      "lat": 47.62118,
      "long": -122.314685,
      "timestamp": 1595104678000,
      "description": "Aid Response",
      "address": "308 14th Av E",
      "active": false,
      "unitCount": 1,
      "severity": 0,
      "neighborhood": "Capitol Hill",
      "neighborhoodGroup": "East",
      "units": "E25"
    }
  },
  {
    "id_str": "F200070416",
    "created_at": "7/18/2020 1:31:33 PM",
    "derived": {
      "lat": 47.724454,
      "long": -122.286397,
      "timestamp": 1595104293000,
      "description": "Auto Fire Alarm",
      "address": "13215 39th Av Ne",
      "active": false,
      "unitCount": 3,
      "severity": 0,
      "neighborhood": "Cedar Park/Meadowbrook",
      "neighborhoodGroup": "North",
      "units": "E39 L10 L6"
    }
  },
  {
    "id_str": "F200070415",
    "created_at": "7/18/2020 1:29:00 PM",
    "derived": {
      "lat": 47.669446,
      "long": -122.37945,
      "timestamp": 1595104140000,
      "description": "Water Job Minor",
      "address": "1753 Nw 56th St",
      "active": false,
      "unitCount": 1,
      "severity": 0,
      "neighborhood": "Ballard",
      "neighborhoodGroup": "Ballard",
      "units": "L4"
    }
  },
  {
    "id_str": "F200070414",
    "created_at": "7/18/2020 1:23:04 PM",
    "derived": {
      "lat": 47.599193,
      "long": -122.316399,
      "timestamp": 1595103784000,
      "description": "Aid Response",
      "address": "1253 S JACKSON ST",
      "active": false,
      "unitCount": 1,
      "severity": 0,
      "neighborhood": "Judkins Park",
      "neighborhoodGroup": "Central",
      "units": "L3"
    }
  },
  {
    "id_str": "F200070413",
    "created_at": "7/18/2020 1:21:13 PM",
    "derived": {
      "lat": 47.546551,
      "long": -122.389982,
      "timestamp": 1595103673000,
      "description": "Medic Response",
      "address": "6327 45th Ave Sw",
      "active": false,
      "unitCount": 2,
      "severity": 0,
      "neighborhood": "Fauntleroy/Seaview",
      "neighborhoodGroup": "Southwest",
      "units": "E32 M26"
    }
  },
  {
    "id_str": "F200070411",
    "created_at": "7/18/2020 1:11:17 PM",
    "derived": {
      "lat": 47.655066,
      "long": -122.273533,
      "timestamp": 1595103077000,
      "description": "Aid Response",
      "address": "5041 Ne Laurelcrest Ln",
      "active": false,
      "unitCount": 1,
      "severity": 0,
      "neighborhood": "Laurelhurst/Sand Point",
      "neighborhoodGroup": "Northeast",
      "units": "A2"
    }
  },
  {
    "id_str": "F200070410",
    "created_at": "7/18/2020 1:10:47 PM",
    "derived": {
      "lat": 47.603518,
      "long": -122.336697,
      "timestamp": 1595103047000,
      "description": "Rubbish Fire",
      "address": "Western Ave / Marion St",
      "active": false,
      "unitCount": 1,
      "severity": 0,
      "neighborhood": "Downtown Commercial Core",
      "neighborhoodGroup": "Downtown",
      "units": "E25"
    }
  },
  {
    "id_str": "F200070408",
    "created_at": "7/18/2020 1:07:48 PM",
    "derived": {
      "lat": 47.679428,
      "long": -122.303902,
      "timestamp": 1595102868000,
      "description": "Multiple Medic Resp 14 Per",
      "address": "7004 Ravenna Ave Ne",
      "active": false,
      "unitCount": 7,
      "severity": 1,
      "neighborhood": "Ravenna/Bryant",
      "neighborhoodGroup": "Northeast",
      "units": "A25 B4 E35 E9 M10 M18 M31"
    }
  },
  {
    "id_str": "F200070404",
    "created_at": "7/18/2020 1:01:33 PM",
    "derived": {
      "lat": 47.706911,
      "long": -122.313781,
      "timestamp": 1595102493000,
      "description": "Aid Response",
      "address": "10733 14th Ave Ne",
      "active": false,
      "unitCount": 1,
      "severity": 0,
      "neighborhood": "Northgate/Maple Leaf",
      "neighborhoodGroup": "North",
      "units": "E21"
    }
  },
  {
    "id_str": "F200070403",
    "created_at": "7/18/2020 1:00:45 PM",
    "derived": {
      "lat": 47.559023,
      "long": -122.279474,
      "timestamp": 1595102445000,
      "description": "Garage Fire",
      "address": "4829 43rd Ave S",
      "active": false,
      "unitCount": 6,
      "severity": 1,
      "neighborhood": "Columbia City",
      "neighborhoodGroup": "Southeast",
      "units": "B5 CHAP6 E13 E28 E30 L12"
    }
  },
  {
    "id_str": "F200070401",
    "created_at": "7/18/2020 1:00:11 PM",
    "derived": {
      "lat": 47.709397,
      "long": -122.309982,
      "timestamp": 1595102411000,
      "description": "Aid Response",
      "address": "11039 17th Av Ne",
      "active": false,
      "unitCount": 1,
      "severity": 0,
      "neighborhood": "Olympic Hills/Victory Heights",
      "neighborhoodGroup": "North",
      "units": "E39"
    }
  },
  {
    "id_str": "F200070400",
    "created_at": "7/18/2020 12:59:48 PM",
    "derived": {
      "lat": 47.600875,
      "long": -122.328963,
      "timestamp": 1595102388000,
      "description": "Aid Response",
      "address": "4th Ave S / S Washington St",
      "active": false,
      "unitCount": 1,
      "severity": 0,
      "neighborhood": "Pioneer Square/International District",
      "neighborhoodGroup": "Downtown",
      "units": "A10"
    }
  },
  {
    "id_str": "F200070398",
    "created_at": "7/18/2020 12:59:16 PM",
    "derived": {
      "lat": 47.679428,
      "long": -122.303902,
      "timestamp": 1595102356000,
      "description": "Fire in Building",
      "address": "7004 Ravenna Ave Ne",
      "active": false,
      "unitCount": 24,
      "severity": 2,
      "neighborhood": "Ravenna/Bryant",
      "neighborhoodGroup": "Northeast",
      "units": "A14 A31 AIR10 B2 B6 CHAP5 CHAP6 DEP1 E16 E17 E22 E31 E40 L5 L8 L9 M17 M44 MAR5 PIO R1 REHAB1 SAFT2 STAF10"
    }
  },
  {
    "id_str": "F200070396",
    "created_at": "7/18/2020 12:57:39 PM",
    "derived": {
      "lat": 47.723218,
      "long": -122.348195,
      "timestamp": 1595102259000,
      "description": "Aid Response",
      "address": "13000 Linden Av N",
      "active": false,
      "unitCount": 1,
      "severity": 0,
      "neighborhood": "Broadview/Bitter Lake",
      "neighborhoodGroup": "Northwest",
      "units": "E24"
    }
  },
  {
    "id_str": "F200070395",
    "created_at": "7/18/2020 12:57:05 PM",
    "derived": {
      "lat": 47.599197,
      "long": -122.328968,
      "timestamp": 1595102225000,
      "description": "Aid Response",
      "address": "400 S Jackson St",
      "active": false,
      "unitCount": 1,
      "severity": 0,
      "neighborhood": "Pioneer Square/International District",
      "neighborhoodGroup": "Downtown",
      "units": "A5"
    }
  },
  {
    "id_str": "F200070394",
    "created_at": "7/18/2020 12:54:05 PM",
    "derived": {
      "lat": 47.617752,
      "long": -122.338344,
      "timestamp": 1595102045000,
      "description": "Auto Fire Alarm",
      "address": "2200 WESTLAKE AVE",
      "active": false,
      "unitCount": 3,
      "severity": 0,
      "neighborhood": "Cascade/Eastlake",
      "neighborhoodGroup": "Lake Union",
      "units": "E10 E2 L10"
    }
  },
  {
    "id_str": "F200070393",
    "created_at": "7/18/2020 12:51:37 PM",
    "derived": {
      "lat": 47.679499,
      "long": -122.405085,
      "timestamp": 1595101897000,
      "description": "Aid Response",
      "address": "7001 Seaview Av Nw",
      "active": false,
      "unitCount": 1,
      "severity": 0,
      "neighborhood": "Sunset Hill/Loyal Heights",
      "neighborhoodGroup": "Ballard",
      "units": "E18"
    }
  },
  {
    "id_str": "F200070392",
    "created_at": "7/18/2020 12:46:35 PM",
    "derived": {
      "lat": 47.533703,
      "long": -122.365816,
      "timestamp": 1595101595000,
      "description": "Medic Response",
      "address": "2600 Sw Holden St",
      "active": false,
      "unitCount": 2,
      "severity": 0,
      "neighborhood": "Roxhill/Westwood",
      "neighborhoodGroup": "Delridge Neighborhoods",
      "units": "E37 M32"
    }
  },
  {
    "id_str": "F200070391",
    "created_at": "7/18/2020 12:43:06 PM",
    "derived": {
      "lat": 47.724454,
      "long": -122.286397,
      "timestamp": 1595101386000,
      "description": "Auto Fire Alarm",
      "address": "13215 39th Av Ne",
      "active": false,
      "unitCount": 2,
      "severity": 0,
      "neighborhood": "Cedar Park/Meadowbrook",
      "neighborhoodGroup": "North",
      "units": "E39 L5"
    }
  },
  {
    "id_str": "F200070390",
    "created_at": "7/18/2020 12:36:37 PM",
    "derived": {
      "lat": 47.513395,
      "long": -122.381823,
      "timestamp": 1595100997000,
      "description": "Aid Response",
      "address": "10041 39th Ave Sw",
      "active": false,
      "unitCount": 1,
      "severity": 0,
      "neighborhood": "Arbor Heights",
      "neighborhoodGroup": "Southwest",
      "units": "L13"
    }
  },
  {
    "id_str": "F200070387",
    "created_at": "7/18/2020 12:30:07 PM",
    "derived": {
      "lat": 47.729639,
      "long": -122.355236,
      "timestamp": 1595100607000,
      "description": "Aid Response",
      "address": "326 N 138th St",
      "active": false,
      "unitCount": 1,
      "severity": 0,
      "neighborhood": "Broadview/Bitter Lake",
      "neighborhoodGroup": "Northwest",
      "units": "A31"
    }
  },
  {
    "id_str": "F200070384",
    "created_at": "7/18/2020 12:18:08 PM",
    "derived": {
      "lat": 47.613308,
      "long": -122.342432,
      "timestamp": 1595099888000,
      "description": "Aid Response",
      "address": "2119 3rd Av",
      "active": false,
      "unitCount": 2,
      "severity": 0,
      "neighborhood": "Cascade/Eastlake",
      "neighborhoodGroup": "Lake Union",
      "units": "A4 M1"
    }
  },
  {
    "id_str": "F200070383",
    "created_at": "7/18/2020 12:09:04 PM",
    "derived": {
      "lat": 47.597409,
      "long": -122.317227,
      "timestamp": 1595099344000,
      "description": "Aid Response",
      "address": "611 12th Av S",
      "active": false,
      "unitCount": 1,
      "severity": 0,
      "neighborhood": "Pioneer Square/International District",
      "neighborhoodGroup": "Downtown",
      "units": "A10"
    }
  },
  {
    "id_str": "F200070382",
    "created_at": "7/18/2020 12:01:40 PM",
    "derived": {
      "lat": 47.591454,
      "long": -122.317281,
      "timestamp": 1595098900000,
      "description": "1RED 1 Unit",
      "address": "1311 12th Av S",
      "active": false,
      "unitCount": 1,
      "severity": 0,
      "neighborhood": "Duwamish/SODO",
      "neighborhoodGroup": "Greater Duwamish",
      "units": "E13"
    }
  },
  {
    "id_str": "F200070379",
    "created_at": "7/18/2020 11:49:54 AM",
    "derived": {
      "lat": 47.638407,
      "long": -122.39835,
      "timestamp": 1595098194000,
      "description": "Aid Response",
      "address": "2222 32nd Av W",
      "active": false,
      "unitCount": 1,
      "severity": 0,
      "neighborhood": "Magnolia",
      "neighborhoodGroup": "Magnolia/Queen Anne",
      "units": "E41"
    }
  },
  {
    "id_str": "F200070377",
    "created_at": "7/18/2020 11:44:18 AM",
    "derived": {
      "lat": 47.600659,
      "long": -122.308964,
      "timestamp": 1595097858000,
      "description": "Low Acuity Response",
      "address": "221 18th Av S",
      "active": false,
      "unitCount": 1,
      "severity": 0,
      "neighborhood": "Judkins Park",
      "neighborhoodGroup": "Central",
      "units": "A10"
    }
  },
  {
    "id_str": "F200070374",
    "created_at": "7/18/2020 11:28:06 AM",
    "derived": {
      "lat": 47.538128,
      "long": -122.319709,
      "timestamp": 1595096886000,
      "description": "Aid Response",
      "address": "7240 East Marginal Way S",
      "active": false,
      "unitCount": 1,
      "severity": 0,
      "neighborhood": "Georgetown",
      "neighborhoodGroup": "Greater Duwamish",
      "units": "E26"
    }
  },
  {
    "id_str": "F200070372",
    "created_at": "7/18/2020 11:23:14 AM",
    "derived": {
      "lat": 47.61973,
      "long": -122.345007,
      "timestamp": 1595096594000,
      "description": "Aid Response",
      "address": "200 6th Av N",
      "active": false,
      "unitCount": 1,
      "severity": 0,
      "neighborhood": "Cascade/Eastlake",
      "neighborhoodGroup": "Lake Union",
      "units": "A4"
    }
  },
  {
    "id_str": "F200070370",
    "created_at": "7/18/2020 11:17:27 AM",
    "derived": {
      "lat": 47.596646,
      "long": -122.308936,
      "timestamp": 1595096247000,
      "description": "Aid Response",
      "address": "1803 S Lane St",
      "active": false,
      "unitCount": 1,
      "severity": 0,
      "neighborhood": "Judkins Park",
      "neighborhoodGroup": "Central",
      "units": "L3"
    }
  },
  {
    "id_str": "F200070369",
    "created_at": "7/18/2020 11:14:59 AM",
    "derived": {
      "lat": 47.665845,
      "long": -122.301932,
      "timestamp": 1595096099000,
      "description": "Aid Response",
      "address": "2401 Ne Blakeley St",
      "active": false,
      "unitCount": 1,
      "severity": 0,
      "neighborhood": "Ravenna/Bryant",
      "neighborhoodGroup": "Northeast",
      "units": "E17"
    }
  },
  {
    "id_str": "F200070368",
    "created_at": "7/18/2020 11:13:13 AM",
    "derived": {
      "lat": 47.621046,
      "long": -122.325301,
      "timestamp": 1595095993000,
      "description": "Rubbish Fire",
      "address": "319 Summit Av E",
      "active": false,
      "unitCount": 2,
      "severity": 0,
      "neighborhood": "Capitol Hill",
      "neighborhoodGroup": "East",
      "units": "E2 L10"
    }
  },
  {
    "id_str": "F200070364",
    "created_at": "7/18/2020 10:55:17 AM",
    "derived": {
      "lat": 47.711417,
      "long": -122.330035,
      "timestamp": 1595094917000,
      "description": "Automatic Fire Alarm Resd",
      "address": "11315 Sunnyside Ave N",
      "active": false,
      "unitCount": 1,
      "severity": 0,
      "neighborhood": "Northgate/Maple Leaf",
      "neighborhoodGroup": "North",
      "units": "E21"
    }
  },
  {
    "id_str": "F200070363",
    "created_at": "7/18/2020 10:46:15 AM",
    "derived": {
      "lat": 47.671998,
      "long": -122.273899,
      "timestamp": 1595094375000,
      "description": "Aid Response",
      "address": "6003 50th Ave Ne",
      "active": false,
      "unitCount": 1,
      "severity": 0,
      "neighborhood": "Ravenna/Bryant",
      "neighborhoodGroup": "Northeast",
      "units": "E38"
    }
  },
  {
    "id_str": "F200070361",
    "created_at": "7/18/2020 10:39:34 AM",
    "derived": {
      "lat": 47.599194,
      "long": -122.327334,
      "timestamp": 1595093974000,
      "description": "Aid Response",
      "address": "525 S Jackson St",
      "active": false,
      "unitCount": 1,
      "severity": 0,
      "neighborhood": "Pioneer Square/International District",
      "neighborhoodGroup": "Downtown",
      "units": "A5"
    }
  },
  {
    "id_str": "F200070360",
    "created_at": "7/18/2020 10:29:33 AM",
    "derived": {
      "lat": 47.649764,
      "long": -122.357657,
      "timestamp": 1595093373000,
      "description": "Aid Response",
      "address": "4 Nickerson St",
      "active": false,
      "unitCount": 1,
      "severity": 0,
      "neighborhood": "Queen Anne",
      "neighborhoodGroup": "Magnolia/Queen Anne",
      "units": "E20"
    }
  },
  {
    "id_str": "F200070359",
    "created_at": "7/18/2020 10:10:03 AM",
    "derived": {
      "lat": 47.502829,
      "long": -122.378211,
      "timestamp": 1595092203000,
      "description": "Aid Response",
      "address": "3612 Sw 112th St",
      "active": false,
      "unitCount": 2,
      "severity": 0,
      "neighborhood": "Arbor Heights",
      "neighborhoodGroup": "Southwest",
      "units": "E37 M32"
    }
  },
  {
    "id_str": "F200070358",
    "created_at": "7/18/2020 10:08:13 AM",
    "derived": {
      "lat": 47.675933,
      "long": -122.317364,
      "timestamp": 1595092093000,
      "description": "Aid Response",
      "address": "6515 Roosevelt Way Ne",
      "active": false,
      "unitCount": 1,
      "severity": 0,
      "neighborhood": "Ravenna/Bryant",
      "neighborhoodGroup": "Northeast",
      "units": "E16"
    }
  },
  {
    "id_str": "F200070356",
    "created_at": "7/18/2020 9:47:57 AM",
    "derived": {
      "lat": 47.602348,
      "long": -122.337148,
      "timestamp": 1595090877000,
      "description": "Aid Response",
      "address": "801 Alaskan Way",
      "active": false,
      "unitCount": 1,
      "severity": 0,
      "neighborhood": "Downtown Commercial Core",
      "neighborhoodGroup": "Downtown",
      "units": "E5"
    }
  },
  {
    "id_str": "F200070355",
    "created_at": "7/18/2020 9:47:36 AM",
    "derived": {
      "lat": 47.678821,
      "long": -122.262227,
      "timestamp": 1595090856000,
      "description": "Aid Response",
      "address": "6940 62nd Av Ne",
      "active": false,
      "unitCount": 1,
      "severity": 0,
      "neighborhood": "Laurelhurst/Sand Point",
      "neighborhoodGroup": "Northeast",
      "units": "E38"
    }
  },
  {
    "id_str": "F200070354",
    "created_at": "7/18/2020 9:45:18 AM",
    "derived": {
      "lat": 47.639042,
      "long": -122.376151,
      "timestamp": 1595090718000,
      "description": "Aid Response",
      "address": "2247 15th Av W",
      "active": false,
      "unitCount": 1,
      "severity": 0,
      "neighborhood": "Interbay",
      "neighborhoodGroup": "Magnolia/Queen Anne",
      "units": "E20"
    }
  },
  {
    "id_str": "F200070352",
    "created_at": "7/18/2020 9:35:18 AM",
    "derived": {
      "lat": 47.678007,
      "long": -122.32259,
      "timestamp": 1595090118000,
      "description": "1RED 1 Unit",
      "address": "6823 Oswego Pl Ne",
      "active": false,
      "unitCount": 1,
      "severity": 0,
      "neighborhood": "Green Lake",
      "neighborhoodGroup": "Northwest",
      "units": "E16"
    }
  },
  {
    "id_str": "F200070351",
    "created_at": "7/18/2020 9:32:43 AM",
    "derived": {
      "lat": 47.621968,
      "long": -122.331577,
      "timestamp": 1595089963000,
      "description": "Aid Response",
      "address": "1255 Harrison St",
      "active": false,
      "unitCount": 1,
      "severity": 0,
      "neighborhood": "Cascade/Eastlake",
      "neighborhoodGroup": "Lake Union",
      "units": "A4"
    }
  },
  {
    "id_str": "F200070349",
    "created_at": "7/18/2020 9:27:58 AM",
    "derived": {
      "lat": 47.562656,
      "long": -122.290983,
      "timestamp": 1595089678000,
      "description": "Aid Response",
      "address": "4508 33rd Ave S",
      "active": false,
      "unitCount": 1,
      "severity": 0,
      "neighborhood": "Columbia City",
      "neighborhoodGroup": "Southeast",
      "units": "E30"
    }
  },
  {
    "id_str": "F200070347",
    "created_at": "7/18/2020 9:23:53 AM",
    "derived": {
      "lat": 47.661304,
      "long": -122.31842,
      "timestamp": 1595089433000,
      "description": "AFA4 - Auto Alarm 2 + 1 + 1",
      "address": "4500 9th Av Ne",
      "active": false,
      "unitCount": 4,
      "severity": 0,
      "neighborhood": "Wallingford",
      "neighborhoodGroup": "Lake Union",
      "units": "B6 E17 E31 L9"
    }
  },
  {
    "id_str": "F200070346",
    "created_at": "7/18/2020 9:18:26 AM",
    "derived": {
      "lat": 47.573412,
      "long": -122.321756,
      "timestamp": 1595089106000,
      "description": "Auto Fire Alarm",
      "address": "3407 Airport Way S",
      "active": false,
      "unitCount": 2,
      "severity": 0,
      "neighborhood": "Duwamish/SODO",
      "neighborhoodGroup": "Greater Duwamish",
      "units": "E13 R1"
    }
  },
  {
    "id_str": "F200070342",
    "created_at": "7/18/2020 9:01:09 AM",
    "derived": {
      "lat": 47.69418,
      "long": -122.343489,
      "timestamp": 1595088069000,
      "description": "Aid Response",
      "address": "N 90th St / Nesbit Ave N",
      "active": false,
      "unitCount": 1,
      "severity": 0,
      "neighborhood": "Licton Springs",
      "neighborhoodGroup": "Northwest",
      "units": "E21"
    }
  },
  {
    "id_str": "F200070339",
    "created_at": "7/18/2020 8:56:13 AM",
    "derived": {
      "lat": 47.633523,
      "long": -122.277157,
      "timestamp": 1595087773000,
      "description": "Aid Response",
      "address": "1630 43rd Av E",
      "active": false,
      "unitCount": 1,
      "severity": 0,
      "neighborhood": "Madison Park",
      "neighborhoodGroup": "East",
      "units": "E34"
    }
  },
  {
    "id_str": "F200070338",
    "created_at": "7/18/2020 8:53:18 AM",
    "derived": {
      "lat": 47.608008,
      "long": -122.302467,
      "timestamp": 1595087598000,
      "description": "Medic Response",
      "address": "2323 E Cherry St",
      "active": false,
      "unitCount": 2,
      "severity": 0,
      "neighborhood": "Central Area/Squire Park",
      "neighborhoodGroup": "Central",
      "units": "A25 M10"
    }
  },
  {
    "id_str": "F200070337",
    "created_at": "7/18/2020 8:53:18 AM",
    "derived": {
      "lat": 47.617873,
      "long": -122.284716,
      "timestamp": 1595087598000,
      "description": "Automatic Fire Alarm Resd",
      "address": "1810 Madrona Dr",
      "active": false,
      "unitCount": 1,
      "severity": 0,
      "neighborhood": "Madrona/Leschi",
      "neighborhoodGroup": "Central",
      "units": "E34"
    }
  },
  {
    "id_str": "F200070335",
    "created_at": "7/18/2020 8:29:10 AM",
    "derived": {
      "lat": 47.67834,
      "long": -122.32895,
      "timestamp": 1595086150000,
      "description": "Aid Response",
      "address": "6720 East Green Lake Way N",
      "active": false,
      "unitCount": 1,
      "severity": 0,
      "neighborhood": "Green Lake",
      "neighborhoodGroup": "Northwest",
      "units": "E16"
    }
  },
  {
    "id_str": "F200070334",
    "created_at": "7/18/2020 8:28:31 AM",
    "derived": {
      "lat": 47.623238,
      "long": -122.338446,
      "timestamp": 1595086111000,
      "description": "Water Job Minor",
      "address": "503 Westlake Av N",
      "active": false,
      "unitCount": 1,
      "severity": 0,
      "neighborhood": "Cascade/Eastlake",
      "neighborhoodGroup": "Lake Union",
      "units": "L4"
    }
  },
  {
    "id_str": "F200070332",
    "created_at": "7/18/2020 8:18:19 AM",
    "derived": {
      "lat": 47.693785,
      "long": -122.395705,
      "timestamp": 1595085499000,
      "description": "Low Acuity Response",
      "address": "8915 30th Ave Nw",
      "active": false,
      "unitCount": 1,
      "severity": 0,
      "neighborhood": "North Beach/Blue Ridge",
      "neighborhoodGroup": "Ballard",
      "units": "E35"
    }
  },
  {
    "id_str": "F200070331",
    "created_at": "7/18/2020 8:17:41 AM",
    "derived": {
      "lat": 47.606982,
      "long": -122.326056,
      "timestamp": 1595085461000,
      "description": "Aid Response",
      "address": "801 9th Av",
      "active": false,
      "unitCount": 1,
      "severity": 0,
      "neighborhood": "First Hill",
      "neighborhoodGroup": "East",
      "units": "A5"
    }
  },
  {
    "id_str": "F200070329",
    "created_at": "7/18/2020 8:05:06 AM",
    "derived": {
      "lat": 47.589986,
      "long": -122.335119,
      "timestamp": 1595084706000,
      "description": "Auto Fire Alarm",
      "address": "1531 UTAH AV S",
      "active": false,
      "unitCount": 2,
      "severity": 0,
      "neighborhood": "Duwamish/SODO",
      "neighborhoodGroup": "Greater Duwamish",
      "units": "E10 L1"
    }
  },
  {
    "id_str": "F200070328",
    "created_at": "7/18/2020 8:03:24 AM",
    "derived": {
      "lat": 47.695927,
      "long": -122.331051,
      "timestamp": 1595084604000,
      "description": "Aid Response",
      "address": "2305 N 92nd St",
      "active": false,
      "unitCount": 1,
      "severity": 0,
      "neighborhood": "Northgate/Maple Leaf",
      "neighborhoodGroup": "North",
      "units": "E16"
    }
  },
  {
    "id_str": "F200070325",
    "created_at": "7/18/2020 7:58:24 AM",
    "derived": {
      "lat": 47.708356,
      "long": -122.289374,
      "timestamp": 1595084304000,
      "description": "Medic Response",
      "address": "3540 Ne 110th St",
      "active": false,
      "unitCount": 2,
      "severity": 0,
      "neighborhood": "Cedar Park/Meadowbrook",
      "neighborhoodGroup": "North",
      "units": "E40 M17"
    }
  },
  {
    "id_str": "F200070323",
    "created_at": "7/18/2020 7:36:55 AM",
    "derived": {
      "lat": 47.656978,
      "long": -122.317817,
      "timestamp": 1595083015000,
      "description": "Medic Response",
      "address": "4115 Roosevelt Way Ne",
      "active": false,
      "unitCount": 2,
      "severity": 0,
      "neighborhood": "Wallingford",
      "neighborhoodGroup": "Lake Union",
      "units": "E17 M17"
    }
  },
  {
    "id_str": "F200070322",
    "created_at": "7/18/2020 7:35:57 AM",
    "derived": {
      "lat": 47.618693,
      "long": -122.334256,
      "timestamp": 1595082957000,
      "description": "Aid Response",
      "address": "116 Fairview Av N",
      "active": false,
      "unitCount": 1,
      "severity": 0,
      "neighborhood": "Cascade/Eastlake",
      "neighborhoodGroup": "Lake Union",
      "units": "A2"
    }
  },
  {
    "id_str": "F200070319",
    "created_at": "7/18/2020 7:05:59 AM",
    "derived": {
      "lat": 47.522118,
      "long": -122.324981,
      "timestamp": 1595081159000,
      "description": "Medic Response",
      "address": "9112 7th Ave S",
      "active": false,
      "unitCount": 2,
      "severity": 0,
      "neighborhood": "South Park",
      "neighborhoodGroup": "Greater Duwamish",
      "units": "E26 M26"
    }
  },
  {
    "id_str": "F200070316",
    "created_at": "7/18/2020 6:49:08 AM",
    "derived": {
      "lat": 47.601557,
      "long": -122.295822,
      "timestamp": 1595080148000,
      "description": "Automatic Fire Alarm Resd",
      "address": "112 28th Ave S",
      "active": false,
      "unitCount": 1,
      "severity": 0,
      "neighborhood": "Madrona/Leschi",
      "neighborhoodGroup": "Central",
      "units": "E6"
    }
  },
  {
    "id_str": "F200070314",
    "created_at": "7/18/2020 6:32:20 AM",
    "derived": {
      "lat": 47.690648,
      "long": -122.401956,
      "timestamp": 1595079140000,
      "description": "1RED 1 Unit",
      "address": "8301 Golden Gardens Dr Nw",
      "active": false,
      "unitCount": 1,
      "severity": 0,
      "neighborhood": "Sunset Hill/Loyal Heights",
      "neighborhoodGroup": "Ballard",
      "units": "E35"
    }
  },
  {
    "id_str": "F200070311",
    "created_at": "7/18/2020 6:26:55 AM",
    "derived": {
      "lat": 47.587138,
      "long": -122.320156,
      "timestamp": 1595078815000,
      "description": "Brush Fire",
      "address": "Nb I5 At I90",
      "active": false,
      "unitCount": 4,
      "severity": 0,
      "neighborhood": "Duwamish/SODO",
      "neighborhoodGroup": "Greater Duwamish",
      "units": "B5 E13 E30 E36"
    }
  },
  {
    "id_str": "F200070309",
    "created_at": "7/18/2020 6:26:32 AM",
    "derived": {
      "lat": 47.545345,
      "long": -122.30033,
      "timestamp": 1595078792000,
      "description": "MVI - Motor Vehicle Incident",
      "address": "Beacon Ave S / S Eddy St",
      "active": false,
      "unitCount": 1,
      "severity": 0,
      "neighborhood": "South Beacon Hill/NewHolly",
      "neighborhoodGroup": "Greater Duwamish",
      "units": "E28"
    }
  },
  {
    "id_str": "F200070310",
    "created_at": "7/18/2020 6:25:37 AM",
    "derived": {
      "lat": 47.601718,
      "long": -122.331581,
      "timestamp": 1595078737000,
      "description": "Aid Response",
      "address": "223 Yesler Way",
      "active": false,
      "unitCount": 1,
      "severity": 0,
      "neighborhood": "Downtown Commercial Core",
      "neighborhoodGroup": "Downtown",
      "units": "A10"
    }
  },
  {
    "id_str": "F200070305",
    "created_at": "7/18/2020 6:18:42 AM",
    "derived": {
      "lat": 47.703249,
      "long": -122.328527,
      "timestamp": 1595078322000,
      "description": "AFA4 - Auto Alarm 2 + 1 + 1",
      "address": "10302 1st Ave Ne",
      "active": false,
      "unitCount": 4,
      "severity": 0,
      "neighborhood": "Northgate/Maple Leaf",
      "neighborhoodGroup": "North",
      "units": "B6 E16 E39 L5"
    }
  },
  {
    "id_str": "F200070303",
    "created_at": "7/18/2020 6:09:24 AM",
    "derived": {
      "lat": 47.562739,
      "long": -122.384135,
      "timestamp": 1595077764000,
      "description": "Aid Response",
      "address": "4515 41st Av Sw",
      "active": false,
      "unitCount": 1,
      "severity": 0,
      "neighborhood": "West Seattle Junction/Genesee Hill",
      "neighborhoodGroup": "Southwest",
      "units": "E32"
    }
  },
  {
    "id_str": "F200070300",
    "created_at": "7/18/2020 5:46:13 AM",
    "derived": {
      "lat": 47.688389,
      "long": -122.344511,
      "timestamp": 1595076373000,
      "description": "Fire in Building",
      "address": "8201 Aurora Av N",
      "active": false,
      "unitCount": 19,
      "severity": 2,
      "neighborhood": "Green Lake",
      "neighborhoodGroup": "Northwest",
      "units": "A25 AIR10 B4 B6 DEP1 E16 E17 E21 E31 E35 L5 L8 L9 M31 M44 MAR5 REHAB1 SAFT2 STAF10"
    }
  },
  {
    "id_str": "F200070298",
    "created_at": "7/18/2020 5:31:02 AM",
    "derived": {
      "lat": 47.71576,
      "long": -122.294048,
      "timestamp": 1595075462000,
      "description": "Aid Response",
      "address": "12035 32nd Av Ne",
      "active": false,
      "unitCount": 1,
      "severity": 0,
      "neighborhood": "Olympic Hills/Victory Heights",
      "neighborhoodGroup": "North",
      "units": "E39"
    }
  },
  {
    "id_str": "F200070297",
    "created_at": "7/18/2020 5:28:28 AM",
    "derived": {
      "lat": 47.602114,
      "long": -122.330809,
      "timestamp": 1595075308000,
      "description": "Aid Response",
      "address": "509 3rd Av",
      "active": false,
      "unitCount": 1,
      "severity": 0,
      "neighborhood": "Downtown Commercial Core",
      "neighborhoodGroup": "Downtown",
      "units": "A5"
    }
  },
  {
    "id_str": "F200070295",
    "created_at": "7/18/2020 5:25:20 AM",
    "derived": {
      "lat": 47.524548,
      "long": -122.355085,
      "timestamp": 1595075120000,
      "description": "Scenes Of Violence 7",
      "address": "8817 16th Ave Sw",
      "active": false,
      "unitCount": 6,
      "severity": 1,
      "neighborhood": "Highland Park",
      "neighborhoodGroup": "Delridge Neighborhoods",
      "units": "B7 E11 E37 L13 M26 M44"
    }
  },
  {
    "id_str": "F200070293",
    "created_at": "7/18/2020 5:06:19 AM",
    "derived": {
      "lat": 47.629592,
      "long": -122.361933,
      "timestamp": 1595073979000,
      "description": "Automatic Fire Alarm Resd",
      "address": "410 W Highland Dr",
      "active": false,
      "unitCount": 1,
      "severity": 0,
      "neighborhood": "Queen Anne",
      "neighborhoodGroup": "Magnolia/Queen Anne",
      "units": "E8"
    }
  },
  {
    "id_str": "F200070292",
    "created_at": "7/18/2020 4:58:57 AM",
    "derived": {
      "lat": 47.553494,
      "long": -122.362966,
      "timestamp": 1595073537000,
      "description": "Low Acuity Response",
      "address": "5425 Delridge Way Sw",
      "active": false,
      "unitCount": 1,
      "severity": 0,
      "neighborhood": "High Point",
      "neighborhoodGroup": "Delridge Neighborhoods",
      "units": "E36"
    }
  },
  {
    "id_str": "F200070290",
    "created_at": "7/18/2020 4:15:22 AM",
    "derived": {
      "lat": 47.581214,
      "long": -122.391903,
      "timestamp": 1595070922000,
      "description": "Aid Response",
      "address": "4700 Sw Admiral Way",
      "active": false,
      "unitCount": 1,
      "severity": 0,
      "neighborhood": "West Seattle Junction/Genesee Hill",
      "neighborhoodGroup": "Southwest",
      "units": "E29"
    }
  },
  {
    "id_str": "F200070288",
    "created_at": "7/18/2020 4:12:07 AM",
    "derived": {
      "lat": 47.692619,
      "long": -122.343471,
      "timestamp": 1595070727000,
      "description": "Medic Response",
      "address": "8828 NESBIT AV N",
      "active": false,
      "unitCount": 2,
      "severity": 0,
      "neighborhood": "Licton Springs",
      "neighborhoodGroup": "Northwest",
      "units": "E21 M31"
    }
  },
  {
    "id_str": "F200070283",
    "created_at": "7/18/2020 3:23:53 AM",
    "derived": {
      "lat": 47.677685,
      "long": -122.300621,
      "timestamp": 1595067833000,
      "description": "Automatic Fire Alarm Resd",
      "address": "6811 25th Ave Ne",
      "active": false,
      "unitCount": 1,
      "severity": 0,
      "neighborhood": "Ravenna/Bryant",
      "neighborhoodGroup": "Northeast",
      "units": "E16"
    }
  },
  {
    "id_str": "F200070281",
    "created_at": "7/18/2020 3:19:51 AM",
    "derived": {
      "lat": 47.556785,
      "long": -122.286143,
      "timestamp": 1595067591000,
      "description": "Aid Response",
      "address": "5033 37th Av S",
      "active": false,
      "unitCount": 1,
      "severity": 0,
      "neighborhood": "Columbia City",
      "neighborhoodGroup": "Southeast",
      "units": "E28"
    }
  },
  {
    "id_str": "F200070279",
    "created_at": "7/18/2020 2:34:35 AM",
    "derived": {
      "lat": 47.693461,
      "long": -122.344556,
      "timestamp": 1595064875000,
      "description": "Medic Response",
      "address": "8900 Aurora Av N",
      "active": false,
      "unitCount": 3,
      "severity": 0,
      "neighborhood": "Licton Springs",
      "neighborhoodGroup": "Northwest",
      "units": "E21 M17 M31"
    }
  },
  {
    "id_str": "F200070274",
    "created_at": "7/18/2020 2:30:13 AM",
    "derived": {
      "lat": 47.633045,
      "long": -122.376136,
      "timestamp": 1595064613000,
      "description": "Rescue Extrication",
      "address": "15TH AVE W / W GARFIELD ST",
      "active": false,
      "unitCount": 20,
      "severity": 2,
      "neighborhood": "Interbay",
      "neighborhoodGroup": "Magnolia/Queen Anne",
      "units": "A14 A2 A25 B2 B4 B6 E20 E22 E25 E41 L10 L6 M1 M10 M18 M31 M44 PIO R1 SAFT2"
    }
  },
  {
    "id_str": "F200070271",
    "created_at": "7/18/2020 2:00:19 AM",
    "derived": {
      "lat": 47.61305,
      "long": -122.316747,
      "timestamp": 1595062819000,
      "description": "Natural Gas Odor",
      "address": "1414 12th Ave",
      "active": false,
      "unitCount": 1,
      "severity": 0,
      "neighborhood": "Capitol Hill",
      "neighborhoodGroup": "East",
      "units": "L10"
    }
  },
  {
    "id_str": "F200070270",
    "created_at": "7/18/2020 1:58:22 AM",
    "derived": {
      "lat": 47.661332,
      "long": -122.314285,
      "timestamp": 1595062702000,
      "description": "Aid Response",
      "address": "4507 Brooklyn Av Ne",
      "active": false,
      "unitCount": 1,
      "severity": 0,
      "neighborhood": "University District",
      "neighborhoodGroup": "Northeast",
      "units": "E17"
    }
  },
  {
    "id_str": "F200070269",
    "created_at": "7/18/2020 1:55:42 AM",
    "derived": {
      "lat": 47.610387,
      "long": -122.341198,
      "timestamp": 1595062542000,
      "description": "Aid Response",
      "address": "116 Stewart St",
      "active": false,
      "unitCount": 1,
      "severity": 0,
      "neighborhood": "Belltown",
      "neighborhoodGroup": "Downtown",
      "units": "A2"
    }
  },
  {
    "id_str": "F200070268",
    "created_at": "7/18/2020 1:53:50 AM",
    "derived": {
      "lat": 47.717811,
      "long": -122.318083,
      "timestamp": 1595062430000,
      "description": "Aid Response",
      "address": "12320 Roosevelt Way Ne",
      "active": false,
      "unitCount": 2,
      "severity": 0,
      "neighborhood": "Haller Lake",
      "neighborhoodGroup": "Northwest",
      "units": "E39 M17"
    }
  },
  {
    "id_str": "F200070267",
    "created_at": "7/18/2020 1:37:27 AM",
    "derived": {
      "lat": 47.625508,
      "long": -122.309983,
      "timestamp": 1595061447000,
      "description": "Aid Response",
      "address": "733 17th Ave E",
      "active": false,
      "unitCount": 1,
      "severity": 0,
      "neighborhood": "Miller Park",
      "neighborhoodGroup": "East",
      "units": "A25"
    }
  },
  {
    "id_str": "F200070265",
    "created_at": "7/18/2020 1:17:53 AM",
    "derived": {
      "lat": 47.615007,
      "long": -122.337781,
      "timestamp": 1595060273000,
      "description": "Aid Response",
      "address": "2008 Westlake Ave",
      "active": false,
      "unitCount": 1,
      "severity": 0,
      "neighborhood": "Cascade/Eastlake",
      "neighborhoodGroup": "Lake Union",
      "units": "A2"
    }
  },
  {
    "id_str": "F200070264",
    "created_at": "7/18/2020 1:15:29 AM",
    "derived": {
      "lat": 47.698678,
      "long": -122.33505,
      "timestamp": 1595060129000,
      "description": "Auto Fire Alarm",
      "address": "9600 College Way N",
      "active": false,
      "unitCount": 2,
      "severity": 0,
      "neighborhood": "Licton Springs",
      "neighborhoodGroup": "Northwest",
      "units": "E16 L9"
    }
  },
  {
    "id_str": "F200070261",
    "created_at": "7/18/2020 12:44:40 AM",
    "derived": {
      "lat": 47.512722,
      "long": -122.253509,
      "timestamp": 1595058280000,
      "description": "Medic Response",
      "address": "9920 64th Ave S",
      "active": false,
      "unitCount": 2,
      "severity": 0,
      "neighborhood": "Rainier Beach",
      "neighborhoodGroup": "Southeast",
      "units": "E33 M28"
    }
  },
  {
    "id_str": "F200070259",
    "created_at": "7/18/2020 12:30:51 AM",
    "derived": {
      "lat": 47.554937,
      "long": -122.282393,
      "timestamp": 1595057451000,
      "description": "Aid Response",
      "address": "5270 Rainier Av S",
      "active": false,
      "unitCount": 1,
      "severity": 0,
      "neighborhood": "Columbia City",
      "neighborhoodGroup": "Southeast",
      "units": "E28"
    }
  },
  {
    "id_str": "F200070258",
    "created_at": "7/18/2020 12:21:26 AM",
    "derived": {
      "lat": 47.659897,
      "long": -122.318785,
      "timestamp": 1595056886000,
      "description": "1RED 1 Unit",
      "address": "4348 9th Av Ne",
      "active": false,
      "unitCount": 2,
      "severity": 0,
      "neighborhood": "Wallingford",
      "neighborhoodGroup": "Lake Union",
      "units": "E31 MAR5"
    }
  },
  {
    "id_str": "F200070257",
    "created_at": "7/18/2020 12:20:30 AM",
    "derived": {
      "lat": 47.618412,
      "long": -122.355206,
      "timestamp": 1595056830000,
      "description": "Aid Response",
      "address": "94 Bay St",
      "active": false,
      "unitCount": 1,
      "severity": 0,
      "neighborhood": "Belltown",
      "neighborhoodGroup": "Downtown",
      "units": "A2"
    }
  },
  {
    "id_str": "F200070256",
    "created_at": "7/18/2020 12:14:39 AM",
    "derived": {
      "lat": 47.602272,
      "long": -122.327883,
      "timestamp": 1595056479000,
      "description": "Medic Response",
      "address": "401 5th Av",
      "active": false,
      "unitCount": 1,
      "severity": 0,
      "neighborhood": "First Hill",
      "neighborhoodGroup": "East",
      "units": "A10"
    }
  },
  {
    "id_str": "F200070254",
    "created_at": "7/18/2020 12:01:11 AM",
    "derived": {
      "lat": 47.60739,
      "long": -122.332564,
      "timestamp": 1595055671000,
      "description": "Auto Fire Alarm",
      "address": "1118 5th Av",
      "active": false,
      "unitCount": 2,
      "severity": 0,
      "neighborhood": "Downtown Commercial Core",
      "neighborhoodGroup": "Downtown",
      "units": "E5 L1"
    }
  },
  {
    "id_str": "F200070252",
    "created_at": "7/17/2020 11:43:52 PM",
    "derived": {
      "lat": 47.650137,
      "long": -122.304371,
      "timestamp": 1595054632000,
      "description": "Aid Response",
      "address": "3754 Montlake Blvd Ne",
      "active": false,
      "unitCount": 1,
      "severity": 0,
      "neighborhood": "University District",
      "neighborhoodGroup": "Northeast",
      "units": "E17"
    }
  },
  {
    "id_str": "F200070250",
    "created_at": "7/17/2020 11:40:23 PM",
    "derived": {
      "lat": 47.604669,
      "long": -122.297847,
      "timestamp": 1595054423000,
      "description": "Activated CO Detector",
      "address": "343 27th Ave",
      "active": false,
      "unitCount": 1,
      "severity": 0,
      "neighborhood": "Central Area/Squire Park",
      "neighborhoodGroup": "Central",
      "units": "L3"
    }
  },
  {
    "id_str": "F200070249",
    "created_at": "7/17/2020 11:32:33 PM",
    "derived": {
      "lat": 47.683456,
      "long": -122.318588,
      "timestamp": 1595053953000,
      "description": "Medic Response",
      "address": "7556 9th Ave Ne",
      "active": false,
      "unitCount": 2,
      "severity": 0,
      "neighborhood": "Green Lake",
      "neighborhoodGroup": "Northwest",
      "units": "E31 M17"
    }
  },
  {
    "id_str": "F200070247",
    "created_at": "7/17/2020 11:21:51 PM",
    "derived": {
      "lat": 47.597515,
      "long": -122.326367,
      "timestamp": 1595053311000,
      "description": "1RED 1 Unit",
      "address": "6th Ave S / S Weller St",
      "active": false,
      "unitCount": 1,
      "severity": 0,
      "neighborhood": "Pioneer Square/International District",
      "neighborhoodGroup": "Downtown",
      "units": "E10"
    }
  },
  {
    "id_str": "F200070244",
    "created_at": "7/17/2020 11:13:11 PM",
    "derived": {
      "lat": 47.510486,
      "long": -122.243305,
      "timestamp": 1595052791000,
      "description": "Medic Response, 6 per Rule",
      "address": "7253 S Taft St",
      "active": false,
      "unitCount": 4,
      "severity": 0,
      "neighborhood": "Rainier Beach",
      "neighborhoodGroup": "Southeast",
      "units": "E13 E28 E30 M26"
    }
  },
  {
    "id_str": "F200070243",
    "created_at": "7/17/2020 11:12:18 PM",
    "derived": {
      "lat": 47.52331,
      "long": -122.272812,
      "timestamp": 1595052738000,
      "description": "MVI - Motor Vehicle Incident",
      "address": "4803 S Henderson St",
      "active": false,
      "unitCount": 1,
      "severity": 0,
      "neighborhood": "Rainier Beach",
      "neighborhoodGroup": "Southeast",
      "units": "E33"
    }
  },
  {
    "id_str": "F200070242",
    "created_at": "7/17/2020 11:10:51 PM",
    "derived": {
      "lat": 47.52331,
      "long": -122.272812,
      "timestamp": 1595052651000,
      "description": "Rescue Extrication",
      "address": "4803 S Henderson St",
      "active": false,
      "unitCount": 12,
      "severity": 2,
      "neighborhood": "Rainier Beach",
      "neighborhoodGroup": "Southeast",
      "units": "A14 A5 B2 B5 E27 E28 E33 L12 M28 M44 R1 SAFT2"
    }
  },
  {
    "id_str": "F200070240",
    "created_at": "7/17/2020 11:02:37 PM",
    "derived": {
      "lat": 47.703249,
      "long": -122.328527,
      "timestamp": 1595052157000,
      "description": "AFA4 - Auto Alarm 2 + 1 + 1",
      "address": "10302 1st Ave Ne",
      "active": false,
      "unitCount": 4,
      "severity": 0,
      "neighborhood": "Northgate/Maple Leaf",
      "neighborhoodGroup": "North",
      "units": "B4 E16 E39 L5"
    }
  },
  {
    "id_str": "F200070239",
    "created_at": "7/17/2020 10:56:36 PM",
    "derived": {
      "lat": 47.533444,
      "long": -122.281843,
      "timestamp": 1595051796000,
      "description": "Low Acuity Response",
      "address": "7618 40th Ave S",
      "active": false,
      "unitCount": 1,
      "severity": 0,
      "neighborhood": "South Beacon Hill/NewHolly",
      "neighborhoodGroup": "Greater Duwamish",
      "units": "E28"
    }
  },
  {
    "id_str": "F200070238",
    "created_at": "7/17/2020 10:53:45 PM",
    "derived": {
      "lat": 47.661285,
      "long": -122.315442,
      "timestamp": 1595051625000,
      "description": "Aid Response",
      "address": "12th Ave Ne / Ne 45th St",
      "active": false,
      "unitCount": 1,
      "severity": 0,
      "neighborhood": "University District",
      "neighborhoodGroup": "Northeast",
      "units": "E17"
    }
  },
  {
    "id_str": "F200070237",
    "created_at": "7/17/2020 10:49:56 PM",
    "derived": {
      "lat": 47.614174,
      "long": -122.327923,
      "timestamp": 1595051396000,
      "description": "Aid Response",
      "address": "1520 Melrose Av",
      "active": false,
      "unitCount": 1,
      "severity": 0,
      "neighborhood": "Capitol Hill",
      "neighborhoodGroup": "East",
      "units": "E25"
    }
  },
  {
    "id_str": "F200070236",
    "created_at": "7/17/2020 10:47:14 PM",
    "derived": {
      "lat": 47.625525,
      "long": -122.309983,
      "timestamp": 1595051234000,
      "description": "Aid Response",
      "address": "735 17th Ave E",
      "active": false,
      "unitCount": 1,
      "severity": 0,
      "neighborhood": "Miller Park",
      "neighborhoodGroup": "East",
      "units": "A25"
    }
  },
  {
    "id_str": "F200070235",
    "created_at": "7/17/2020 10:38:24 PM",
    "derived": {
      "lat": 47.728275,
      "long": -122.293632,
      "timestamp": 1595050704000,
      "description": "Aid Response",
      "address": "13711 32nd Av Ne",
      "active": false,
      "unitCount": 1,
      "severity": 0,
      "neighborhood": "Cedar Park/Meadowbrook",
      "neighborhoodGroup": "North",
      "units": "E39"
    }
  },
  {
    "id_str": "F200070232",
    "created_at": "7/17/2020 10:31:00 PM",
    "derived": {
      "lat": 47.693461,
      "long": -122.344556,
      "timestamp": 1595050260000,
      "description": "Aid Response",
      "address": "8900 Aurora Av N",
      "active": false,
      "unitCount": 1,
      "severity": 0,
      "neighborhood": "Licton Springs",
      "neighborhoodGroup": "Northwest",
      "units": "E16"
    }
  },
  {
    "id_str": "F200070231",
    "created_at": "7/17/2020 10:15:56 PM",
    "derived": {
      "lat": 47.686939,
      "long": -122.349878,
      "timestamp": 1595049356000,
      "description": "Aid Response",
      "address": "702 N 80th St",
      "active": false,
      "unitCount": 1,
      "severity": 0,
      "neighborhood": "Greenwood/Phinney Ridge",
      "neighborhoodGroup": "Northwest",
      "units": "E21"
    }
  },
  {
    "id_str": "F200070229",
    "created_at": "7/17/2020 10:09:49 PM",
    "derived": {
      "lat": 47.514344,
      "long": -122.270038,
      "timestamp": 1595048989000,
      "description": "Low Acuity Response",
      "address": "9694 51st Ave S",
      "active": false,
      "unitCount": 1,
      "severity": 0,
      "neighborhood": "Rainier Beach",
      "neighborhoodGroup": "Southeast",
      "units": "E33"
    }
  },
  {
    "id_str": "F200070228",
    "created_at": "7/17/2020 10:08:27 PM",
    "derived": {
      "lat": 47.604197,
      "long": -122.332714,
      "timestamp": 1595048907000,
      "description": "Aid Response",
      "address": "3rd Ave / Columbia St",
      "active": false,
      "unitCount": 1,
      "severity": 0,
      "neighborhood": "Downtown Commercial Core",
      "neighborhoodGroup": "Downtown",
      "units": "A10"
    }
  },
  {
    "id_str": "F200070226",
    "created_at": "7/17/2020 10:02:32 PM",
    "derived": {
      "lat": 47.576669,
      "long": -122.381343,
      "timestamp": 1595048552000,
      "description": "Investigate Out Of Service",
      "address": "3039 39th Ave Sw",
      "active": false,
      "unitCount": 1,
      "severity": 0,
      "neighborhood": "West Seattle Junction/Genesee Hill",
      "neighborhoodGroup": "Southwest",
      "units": "E29"
    }
  },
  {
    "id_str": "F200070222",
    "created_at": "7/17/2020 9:56:59 PM",
    "derived": {
      "lat": 47.6498,
      "long": -122.36625,
      "timestamp": 1595048219000,
      "description": "Aid Response",
      "address": "3304 7th Ave W",
      "active": false,
      "unitCount": 1,
      "severity": 0,
      "neighborhood": "Queen Anne",
      "neighborhoodGroup": "Magnolia/Queen Anne",
      "units": "E20"
    }
  },
  {
    "id_str": "F200070221",
    "created_at": "7/17/2020 9:53:18 PM",
    "derived": {
      "lat": 47.515534,
      "long": -122.387511,
      "timestamp": 1595047998000,
      "description": "Low Acuity Response",
      "address": "9811 California Ave Sw",
      "active": false,
      "unitCount": 1,
      "severity": 0,
      "neighborhood": "Arbor Heights",
      "neighborhoodGroup": "Southwest",
      "units": "L13"
    }
  },
  {
    "id_str": "F200070220",
    "created_at": "7/17/2020 9:51:31 PM",
    "derived": {
      "lat": 47.518178,
      "long": -122.367277,
      "timestamp": 1595047891000,
      "description": "Medic Response",
      "address": "9455 27th Av Sw",
      "active": false,
      "unitCount": 2,
      "severity": 0,
      "neighborhood": "Roxhill/Westwood",
      "neighborhoodGroup": "Delridge Neighborhoods",
      "units": "E37 M26"
    }
  },
  {
    "id_str": "F200070219",
    "created_at": "7/17/2020 9:50:41 PM",
    "derived": {
      "lat": 47.732151,
      "long": -122.315418,
      "timestamp": 1595047841000,
      "description": "Investigate Out Of Service",
      "address": "1200 Ne 143rd St",
      "active": false,
      "unitCount": 1,
      "severity": 0,
      "neighborhood": "Olympic Hills/Victory Heights",
      "neighborhoodGroup": "North",
      "units": "E39"
    }
  },
  {
    "id_str": "F200070217",
    "created_at": "7/17/2020 9:42:20 PM",
    "derived": {
      "lat": 47.679732,
      "long": -122.374659,
      "timestamp": 1595047340000,
      "description": "Medic Response",
      "address": "7032 Alonzo Ave Nw",
      "active": false,
      "unitCount": 2,
      "severity": 0,
      "neighborhood": "Whittier Heights",
      "neighborhoodGroup": "Ballard",
      "units": "E18 M18"
    }
  },
  {
    "id_str": "F200070216",
    "created_at": "7/17/2020 9:32:58 PM",
    "derived": {
      "lat": 47.606206,
      "long": -122.318111,
      "timestamp": 1595046778000,
      "description": "Medic Response, 6 per Rule",
      "address": "11TH AVE / E JEFFERSON ST",
      "active": false,
      "unitCount": 3,
      "severity": 0,
      "neighborhood": "First Hill",
      "neighborhoodGroup": "East",
      "units": "A25 E25 M1"
    }
  },
  {
    "id_str": "F200070215",
    "created_at": "7/17/2020 9:28:35 PM",
    "derived": {
      "lat": 47.511935,
      "long": -122.371064,
      "timestamp": 1595046515000,
      "description": "Investigate Out Of Service",
      "address": "3009 Sw 102nd St",
      "active": false,
      "unitCount": 1,
      "severity": 0,
      "units": "E37"
    }
  },
  {
    "id_str": "F200070214",
    "created_at": "7/17/2020 9:21:30 PM",
    "derived": {
      "lat": 47.617908,
      "long": -122.34823,
      "timestamp": 1595046090000,
      "description": "Aid Response",
      "address": "2721 4th Av",
      "active": false,
      "unitCount": 1,
      "severity": 0,
      "neighborhood": "Cascade/Eastlake",
      "neighborhoodGroup": "Lake Union",
      "units": "A2"
    }
  },
  {
    "id_str": "F200070211",
    "created_at": "7/17/2020 9:16:36 PM",
    "derived": {
      "lat": 47.631254,
      "long": -122.390196,
      "timestamp": 1595045796000,
      "description": "Auto Fire Alarm",
      "address": "2601 W Marina Pl",
      "active": false,
      "unitCount": 2,
      "severity": 0,
      "neighborhood": "Interbay",
      "neighborhoodGroup": "Magnolia/Queen Anne",
      "units": "E20 L6"
    }
  },
  {
    "id_str": "F200070208",
    "created_at": "7/17/2020 9:05:48 PM",
    "derived": {
      "lat": 47.663253,
      "long": -122.305459,
      "timestamp": 1595045148000,
      "description": "AFA4 - Auto Alarm 2 + 1 + 1",
      "address": "4730 21st Ave Ne",
      "active": false,
      "unitCount": 4,
      "severity": 0,
      "neighborhood": "Ravenna/Bryant",
      "neighborhoodGroup": "Northeast",
      "units": "B2 E17 E31 L9"
    }
  },
  {
    "id_str": "F200070207",
    "created_at": "7/17/2020 9:01:46 PM",
    "derived": {
      "lat": 47.513581,
      "long": -122.373064,
      "timestamp": 1595044906000,
      "description": "Illegal Burn",
      "address": "10019 32nd Ave Sw",
      "active": false,
      "unitCount": 1,
      "severity": 0,
      "neighborhood": "Arbor Heights",
      "neighborhoodGroup": "Southwest",
      "units": "E37"
    }
  },
  {
    "id_str": "F200070205",
    "created_at": "7/17/2020 8:57:38 PM",
    "derived": {
      "lat": 47.649211,
      "long": -122.33938,
      "timestamp": 1595044658000,
      "description": "Aid Response",
      "address": "N 35th St / Carr Pl N",
      "active": false,
      "unitCount": 1,
      "severity": 0,
      "neighborhood": "Fremont",
      "neighborhoodGroup": "Lake Union",
      "units": "E9"
    }
  },
  {
    "id_str": "F200070202",
    "created_at": "7/17/2020 8:50:19 PM",
    "derived": {
      "lat": 47.689835,
      "long": -122.3443,
      "timestamp": 1595044219000,
      "description": "Scenes Of Violence 7",
      "address": "1116 N 84th St",
      "active": false,
      "unitCount": 5,
      "severity": 1,
      "neighborhood": "Green Lake",
      "neighborhoodGroup": "Northwest",
      "units": "B6 E16 E21 M31 M44"
    }
  },
  {
    "id_str": "F200070201",
    "created_at": "7/17/2020 8:43:17 PM",
    "derived": {
      "lat": 47.613329,
      "long": -122.340484,
      "timestamp": 1595043797000,
      "description": "Aid Response",
      "address": "2035 4th Av",
      "active": false,
      "unitCount": 1,
      "severity": 0,
      "neighborhood": "Cascade/Eastlake",
      "neighborhoodGroup": "Lake Union",
      "units": "E2"
    }
  },
  {
    "id_str": "F200070200",
    "created_at": "7/17/2020 8:41:35 PM",
    "derived": {
      "lat": 47.518178,
      "long": -122.367277,
      "timestamp": 1595043695000,
      "description": "Aid Response",
      "address": "9455 27th Av Sw",
      "active": false,
      "unitCount": 1,
      "severity": 0,
      "neighborhood": "Roxhill/Westwood",
      "neighborhoodGroup": "Delridge Neighborhoods",
      "units": "E37"
    }
  },
  {
    "id_str": "F200070197",
    "created_at": "7/17/2020 8:36:59 PM",
    "derived": {
      "lat": 47.734128,
      "long": -122.345097,
      "timestamp": 1595043419000,
      "description": "Aid Response",
      "address": "Aurora Ave N / N 145th St",
      "active": false,
      "unitCount": 1,
      "severity": 0,
      "units": "E24"
    }
  },
  {
    "id_str": "F200070196",
    "created_at": "7/17/2020 8:36:19 PM",
    "derived": {
      "lat": 47.533045,
      "long": -122.337863,
      "timestamp": 1595043379000,
      "description": "Aid Response",
      "address": "7801 Detroit Ave Sw",
      "active": false,
      "unitCount": 1,
      "severity": 0,
      "neighborhood": "Highland Park",
      "neighborhoodGroup": "Delridge Neighborhoods",
      "units": "E26"
    }
  },
  {
    "id_str": "F200070198",
    "created_at": "7/17/2020 8:34:44 PM",
    "derived": {
      "lat": 47.569767,
      "long": -122.288914,
      "timestamp": 1595043284000,
      "description": "1RED 1 Unit",
      "address": "35th Ave S / S Charlestown St",
      "active": false,
      "unitCount": 1,
      "severity": 0,
      "neighborhood": "Columbia City",
      "neighborhoodGroup": "Southeast",
      "units": "E28"
    }
  },
  {
    "id_str": "F200070195",
    "created_at": "7/17/2020 8:34:14 PM",
    "derived": {
      "lat": 47.571722,
      "long": -122.337181,
      "timestamp": 1595043254000,
      "description": "AFA4 - Auto Alarm 2 + 1 + 1",
      "address": "40 S Spokane St",
      "active": false,
      "unitCount": 4,
      "severity": 0,
      "neighborhood": "Duwamish/SODO",
      "neighborhoodGroup": "Greater Duwamish",
      "units": "B5 E13 E36 R1"
    }
  },
  {
    "id_str": "F200070194",
    "created_at": "7/17/2020 8:29:19 PM",
    "derived": {
      "lat": 47.615007,
      "long": -122.337781,
      "timestamp": 1595042959000,
      "description": "Aid Response",
      "address": "2008 Westlake Av",
      "active": false,
      "unitCount": 2,
      "severity": 0,
      "neighborhood": "Cascade/Eastlake",
      "neighborhoodGroup": "Lake Union",
      "units": "A2 A4"
    }
  },
  {
    "id_str": "F200070193",
    "created_at": "7/17/2020 8:27:57 PM",
    "derived": {
      "lat": 47.572978,
      "long": -122.293838,
      "timestamp": 1595042877000,
      "description": "Aid Response",
      "address": "3014 S Walden St",
      "active": false,
      "unitCount": 1,
      "severity": 0,
      "neighborhood": "Columbia City",
      "neighborhoodGroup": "Southeast",
      "units": "E30"
    }
  },
  {
    "id_str": "F200070192",
    "created_at": "7/17/2020 8:24:15 PM",
    "derived": {
      "lat": 47.599924,
      "long": -122.31027,
      "timestamp": 1595042655000,
      "description": "Aid Response",
      "address": "310 17th Av S",
      "active": false,
      "unitCount": 1,
      "severity": 0,
      "neighborhood": "Judkins Park",
      "neighborhoodGroup": "Central",
      "units": "E6"
    }
  },
  {
    "id_str": "F200070189",
    "created_at": "7/17/2020 8:18:47 PM",
    "derived": {
      "lat": 47.51894,
      "long": -122.36727,
      "timestamp": 1595042327000,
      "description": "Aid Response",
      "address": "9414 27th Av Sw",
      "active": false,
      "unitCount": 1,
      "severity": 0,
      "neighborhood": "Roxhill/Westwood",
      "neighborhoodGroup": "Delridge Neighborhoods",
      "units": "E11"
    }
  },
  {
    "id_str": "F200070185",
    "created_at": "7/17/2020 8:07:09 PM",
    "derived": {
      "lat": 47.627192,
      "long": -122.356823,
      "timestamp": 1595041629000,
      "description": "Aid Response",
      "address": "11 W Aloha St",
      "active": false,
      "unitCount": 1,
      "severity": 0,
      "neighborhood": "Queen Anne",
      "neighborhoodGroup": "Magnolia/Queen Anne",
      "units": "E8"
    }
  },
  {
    "id_str": "F200070184",
    "created_at": "7/17/2020 8:01:02 PM",
    "derived": {
      "lat": 47.521679,
      "long": -122.264284,
      "timestamp": 1595041262000,
      "description": "Aid Response",
      "address": "9061 Seward Park Av S",
      "active": false,
      "unitCount": 1,
      "severity": 0,
      "neighborhood": "Rainier Beach",
      "neighborhoodGroup": "Southeast",
      "units": "E33"
    }
  },
  {
    "id_str": "F200070182",
    "created_at": "7/17/2020 7:49:15 PM",
    "derived": {
      "lat": 47.588226,
      "long": -122.32597,
      "timestamp": 1595040555000,
      "description": "Illegal Burn",
      "address": "6th Ave S / S Massachusetts St",
      "active": false,
      "unitCount": 1,
      "severity": 0,
      "neighborhood": "Duwamish/SODO",
      "neighborhoodGroup": "Greater Duwamish",
      "units": "E10"
    }
  },
  {
    "id_str": "F200070181",
    "created_at": "7/17/2020 7:46:55 PM",
    "derived": {
      "lat": 47.656,
      "long": -122.314425,
      "timestamp": 1595040415000,
      "description": "Aid Response",
      "address": "NE CAMPUS PKWY / BROOKLYN AVE NE",
      "active": false,
      "unitCount": 1,
      "severity": 0,
      "neighborhood": "University District",
      "neighborhoodGroup": "Northeast",
      "units": "E17"
    }
  },
  {
    "id_str": "F200070180",
    "created_at": "7/17/2020 7:43:01 PM",
    "derived": {
      "lat": 47.712167,
      "long": -122.312433,
      "timestamp": 1595040181000,
      "description": "Aid Response",
      "address": "11501 15th Av Ne",
      "active": false,
      "unitCount": 1,
      "severity": 0,
      "neighborhood": "Olympic Hills/Victory Heights",
      "neighborhoodGroup": "North",
      "units": "E39"
    }
  },
  {
    "id_str": "F200070177",
    "created_at": "7/17/2020 7:28:17 PM",
    "derived": {
      "lat": 47.598322,
      "long": -122.3134,
      "timestamp": 1595039297000,
      "description": "Aid Response",
      "address": "501 Rainier Ave S",
      "active": false,
      "unitCount": 1,
      "severity": 0,
      "neighborhood": "Judkins Park",
      "neighborhoodGroup": "Central",
      "units": "E6"
    }
  },
  {
    "id_str": "F200070176",
    "created_at": "7/17/2020 7:24:34 PM",
    "derived": {
      "lat": 47.658668,
      "long": -122.403578,
      "timestamp": 1595039074000,
      "description": "Aid Response",
      "address": "4320 36th Av W",
      "active": false,
      "unitCount": 1,
      "severity": 0,
      "neighborhood": "Magnolia",
      "neighborhoodGroup": "Magnolia/Queen Anne",
      "units": "E41"
    }
  },
  {
    "id_str": "F200070175",
    "created_at": "7/17/2020 7:22:49 PM",
    "derived": {
      "lat": 47.668737,
      "long": -122.295064,
      "timestamp": 1595038969000,
      "description": "Aid Response",
      "address": "5525 30th Ave Ne",
      "active": false,
      "unitCount": 1,
      "severity": 0,
      "neighborhood": "Ravenna/Bryant",
      "neighborhoodGroup": "Northeast",
      "units": "E38"
    }
  },
  {
    "id_str": "F200070172",
    "created_at": "7/17/2020 7:13:38 PM",
    "derived": {
      "lat": 47.610972,
      "long": -122.340465,
      "timestamp": 1595038418000,
      "description": "Aid Response",
      "address": "1902 2nd Av",
      "active": false,
      "unitCount": 1,
      "severity": 0,
      "neighborhood": "Belltown",
      "neighborhoodGroup": "Downtown",
      "units": "A4"
    }
  },
  {
    "id_str": "F200070170",
    "created_at": "7/17/2020 6:53:20 PM",
    "derived": {
      "lat": 47.60634,
      "long": -122.325233,
      "timestamp": 1595037200000,
      "description": "Aid Response",
      "address": "915 Cherry St",
      "active": false,
      "unitCount": 1,
      "severity": 0,
      "neighborhood": "First Hill",
      "neighborhoodGroup": "East",
      "units": "A5"
    }
  },
  {
    "id_str": "F200070166",
    "created_at": "7/17/2020 6:32:19 PM",
    "derived": {
      "lat": 47.571853,
      "long": -122.293193,
      "timestamp": 1595035939000,
      "description": "Aid Response",
      "address": "3501 Rainier Av S",
      "active": false,
      "unitCount": 1,
      "severity": 0,
      "neighborhood": "Columbia City",
      "neighborhoodGroup": "Southeast",
      "units": "E30"
    }
  },
  {
    "id_str": "F200070165",
    "created_at": "7/17/2020 6:31:11 PM",
    "derived": {
      "lat": 47.565871,
      "long": -122.296451,
      "timestamp": 1595035871000,
      "description": "Aid Response",
      "address": "4138 M L King Jr Way S",
      "active": false,
      "unitCount": 1,
      "severity": 0,
      "neighborhood": "Columbia City",
      "neighborhoodGroup": "Southeast",
      "units": "L3"
    }
  },
  {
    "id_str": "F200070163",
    "created_at": "7/17/2020 6:27:11 PM",
    "derived": {
      "lat": 47.567771,
      "long": -122.38545,
      "timestamp": 1595035631000,
      "description": "Automatic Fire Alarm Resd",
      "address": "4032 42nd Ave Sw",
      "active": false,
      "unitCount": 1,
      "severity": 0,
      "neighborhood": "West Seattle Junction/Genesee Hill",
      "neighborhoodGroup": "Southwest",
      "units": "E32"
    }
  },
  {
    "id_str": "F200070164",
    "created_at": "7/17/2020 6:26:38 PM",
    "derived": {
      "lat": 47.58617,
      "long": -122.329062,
      "timestamp": 1595035598000,
      "description": "Aid Response",
      "address": "4th Ave S / S Holgate St",
      "active": false,
      "unitCount": 1,
      "severity": 0,
      "neighborhood": "Duwamish/SODO",
      "neighborhoodGroup": "Greater Duwamish",
      "units": "A14"
    }
  },
  {
    "id_str": "F200070159",
    "created_at": "7/17/2020 6:11:41 PM",
    "derived": {
      "lat": 47.599197,
      "long": -122.328968,
      "timestamp": 1595034701000,
      "description": "Aid Response",
      "address": "400 S Jackson St",
      "active": false,
      "unitCount": 1,
      "severity": 0,
      "neighborhood": "Pioneer Square/International District",
      "neighborhoodGroup": "Downtown",
      "units": "A10"
    }
  },
  {
    "id_str": "F200070158",
    "created_at": "7/17/2020 6:09:32 PM",
    "derived": {
      "lat": 47.574853,
      "long": -122.295888,
      "timestamp": 1595034572000,
      "description": "Rescue Elevator",
      "address": "2870 S Hanford St",
      "active": false,
      "unitCount": 1,
      "severity": 0,
      "neighborhood": "Mt. Baker/North Rainier",
      "neighborhoodGroup": "Southeast",
      "units": "L3"
    }
  },
  {
    "id_str": "F200070157",
    "created_at": "7/17/2020 6:04:37 PM",
    "derived": {
      "lat": 47.602985,
      "long": -122.328535,
      "timestamp": 1595034277000,
      "description": "Aid Response",
      "address": "500 5th Av",
      "active": false,
      "unitCount": 1,
      "severity": 0,
      "neighborhood": "First Hill",
      "neighborhoodGroup": "East",
      "units": "A5"
    }
  },
  {
    "id_str": "F200070155",
    "created_at": "7/17/2020 5:54:19 PM",
    "derived": {
      "lat": 47.546206,
      "long": -122.361152,
      "timestamp": 1595033659000,
      "description": "Automatic Fire Alarm Resd",
      "address": "6321 22nd Ave Sw",
      "active": false,
      "unitCount": 1,
      "severity": 0,
      "neighborhood": "Riverview",
      "neighborhoodGroup": "Delridge Neighborhoods",
      "units": "E11"
    }
  },
  {
    "id_str": "F200070154",
    "created_at": "7/17/2020 5:52:45 PM",
    "derived": {
      "lat": 47.692409,
      "long": -122.282626,
      "timestamp": 1595033565000,
      "description": "Medic Response",
      "address": "8812 42nd Ave Ne",
      "active": false,
      "unitCount": 2,
      "severity": 0,
      "neighborhood": "Wedgwood/View Ridge",
      "neighborhoodGroup": "Northeast",
      "units": "E40 M17"
    }
  },
  {
    "id_str": "F200070153",
    "created_at": "7/17/2020 5:52:08 PM",
    "derived": {
      "lat": 47.571924,
      "long": -122.308253,
      "timestamp": 1595033528000,
      "description": "Aid Response",
      "address": "3601 Beacon Av S",
      "active": false,
      "unitCount": 1,
      "severity": 0,
      "neighborhood": "North Beacon Hill/Jefferson Park",
      "neighborhoodGroup": "Greater Duwamish",
      "units": "E13"
    }
  },
  {
    "id_str": "F200070152",
    "created_at": "7/17/2020 5:48:39 PM",
    "derived": {
      "lat": 47.670061,
      "long": -122.320099,
      "timestamp": 1595033319000,
      "description": "Aid Response",
      "address": "5701 8th Av Ne",
      "active": false,
      "unitCount": 1,
      "severity": 0,
      "neighborhood": "Wallingford",
      "neighborhoodGroup": "Lake Union",
      "units": "E31"
    }
  },
  {
    "id_str": "F200070151",
    "created_at": "7/17/2020 5:43:42 PM",
    "derived": {
      "lat": 47.610214,
      "long": -122.336683,
      "timestamp": 1595033022000,
      "description": "Aid Response",
      "address": "1501 4th Av",
      "active": false,
      "unitCount": 1,
      "severity": 0,
      "neighborhood": "Downtown Commercial Core",
      "neighborhoodGroup": "Downtown",
      "units": "A4"
    }
  },
  {
    "id_str": "F200070148",
    "created_at": "7/17/2020 5:35:24 PM",
    "derived": {
      "lat": 47.679973,
      "long": -122.262231,
      "timestamp": 1595032524000,
      "description": "Aid Response",
      "address": "7101 62nd Av Ne",
      "active": false,
      "unitCount": 1,
      "severity": 0,
      "neighborhood": "Laurelhurst/Sand Point",
      "neighborhoodGroup": "Northeast",
      "units": "E38"
    }
  },
  {
    "id_str": "F200070147",
    "created_at": "7/17/2020 5:33:34 PM",
    "derived": {
      "lat": 47.64562,
      "long": -122.321809,
      "timestamp": 1595032414000,
      "description": "Aid Response",
      "address": "817 E Hamlin St",
      "active": false,
      "unitCount": 1,
      "severity": 0,
      "neighborhood": "Montlake/Portage Bay",
      "neighborhoodGroup": "Northeast",
      "units": "E22"
    }
  },
  {
    "id_str": "F200070145",
    "created_at": "7/17/2020 5:21:05 PM",
    "derived": {
      "lat": 47.62144,
      "long": -122.285757,
      "timestamp": 1595031665000,
      "description": "Activated CO Detector",
      "address": "317 37th Ave E",
      "active": false,
      "unitCount": 1,
      "severity": 0,
      "neighborhood": "Madrona/Leschi",
      "neighborhoodGroup": "Central",
      "units": "L10"
    }
  },
  {
    "id_str": "F200070141",
    "created_at": "7/17/2020 5:06:15 PM",
    "derived": {
      "lat": 47.557413,
      "long": -122.339111,
      "timestamp": 1595030775000,
      "description": "MVI - Motor Vehicle Incident",
      "address": "East Marginal Way S / S Hudson St",
      "active": false,
      "unitCount": 1,
      "severity": 0,
      "neighborhood": "Duwamish/SODO",
      "neighborhoodGroup": "Greater Duwamish",
      "units": "E27"
    }
  }
]