[
  {
    "id_str": "F210032204",
    "created_at": "4/4/2021 4:57:27 PM",
    "timestamp": 1617580647000,
    "description": "Auto Fire Alarm",
    "address": "1425 Dexter Ave N",
    "active": false,
    "unitCount": 3,
    "severity": 0,
    "lat": 47.631629,
    "long": -122.342287,
    "neighborhood": "Queen Anne",
    "neighborhoodGroup": "Magnolia/Queen Anne",
    "units": "E2 E8 L6"
  },
  {
    "id_str": "F210032203",
    "created_at": "4/4/2021 4:55:43 PM",
    "timestamp": 1617580543000,
    "description": "Medic Response",
    "address": "200 2nd Ave W",
    "active": false,
    "unitCount": 2,
    "severity": 0,
    "lat": 47.619785,
    "long": -122.359358,
    "neighborhood": "Queen Anne",
    "neighborhoodGroup": "Magnolia/Queen Anne",
    "units": "L4 M17"
  },
  {
    "id_str": "F210032202",
    "created_at": "4/4/2021 4:55:15 PM",
    "timestamp": 1617580515000,
    "description": "1RED 1 Unit",
    "address": "701 Galer St",
    "active": false,
    "unitCount": 2,
    "severity": 0,
    "lat": 47.6323,
    "long": -122.343336,
    "neighborhood": "Queen Anne",
    "neighborhoodGroup": "Magnolia/Queen Anne",
    "units": "E2 L6"
  },
  {
    "id_str": "F210032201",
    "created_at": "4/4/2021 4:54:46 PM",
    "timestamp": 1617580486000,
    "description": "Aid Response",
    "address": "Rainier Ave S / S Graham St",
    "active": false,
    "unitCount": 1,
    "severity": 0,
    "lat": 47.546027,
    "long": -122.275989,
    "neighborhood": "Seward Park",
    "neighborhoodGroup": "Southeast",
    "units": "E28"
  },
  {
    "id_str": "F210032200",
    "created_at": "4/4/2021 4:53:28 PM",
    "timestamp": 1617580408000,
    "description": "Auto Fire Alarm",
    "address": "815 E Pine St",
    "active": false,
    "unitCount": 2,
    "severity": 0,
    "lat": 47.615227,
    "long": -122.321926,
    "neighborhood": "Capitol Hill",
    "neighborhoodGroup": "East",
    "units": "E25 L10"
  },
  {
    "id_str": "F210032199",
    "created_at": "4/4/2021 4:52:10 PM",
    "timestamp": 1617580330000,
    "description": "Aid Response",
    "address": "102 Pike St",
    "active": false,
    "unitCount": 1,
    "severity": 0,
    "lat": 47.60883,
    "long": -122.33999,
    "neighborhood": "Downtown Commercial Core",
    "neighborhoodGroup": "Downtown",
    "units": "E5"
  },
  {
    "id_str": "F210032198",
    "created_at": "4/4/2021 4:48:59 PM",
    "timestamp": 1617580139000,
    "description": "Aid Response",
    "address": "15th Ave Sw/sw Roxbury St",
    "active": false,
    "unitCount": 1,
    "severity": 0,
    "lat": 47.517354,
    "long": -122.354035,
    "units": "E11"
  },
  {
    "id_str": "F210032197",
    "created_at": "4/4/2021 4:44:33 PM",
    "timestamp": 1617579873000,
    "description": "Aid Response",
    "address": "4707 Denver Ave S",
    "active": false,
    "unitCount": 2,
    "severity": 0,
    "lat": 47.562054,
    "long": -122.335283,
    "neighborhood": "Duwamish/SODO",
    "neighborhoodGroup": "Greater Duwamish",
    "units": "M10 R1"
  },
  {
    "id_str": "F210032195",
    "created_at": "4/4/2021 4:39:44 PM",
    "timestamp": 1617579584000,
    "description": "Medic Response",
    "address": "S Holgate St / 6th Ave S",
    "active": false,
    "unitCount": 2,
    "severity": 0,
    "lat": 47.586175,
    "long": -122.325975,
    "neighborhood": "Duwamish/SODO",
    "neighborhoodGroup": "Greater Duwamish",
    "units": "A14 M10"
  },
  {
    "id_str": "F210032194",
    "created_at": "4/4/2021 4:27:18 PM",
    "timestamp": 1617578838000,
    "description": "Aid Response",
    "address": "Yesler Way / 3rd Ave",
    "active": false,
    "unitCount": 1,
    "severity": 0,
    "lat": 47.601716,
    "long": -122.330265,
    "neighborhood": "Downtown Commercial Core",
    "neighborhoodGroup": "Downtown",
    "units": "A10"
  },
  {
    "id_str": "F210032193",
    "created_at": "4/4/2021 4:23:27 PM",
    "timestamp": 1617578607000,
    "description": "Aid Response",
    "address": "525 14th Ave E",
    "active": false,
    "unitCount": 1,
    "severity": 0,
    "lat": 47.623391,
    "long": -122.314649,
    "neighborhood": "Capitol Hill",
    "neighborhoodGroup": "East",
    "units": "E25"
  },
  {
    "id_str": "F210032189",
    "created_at": "4/4/2021 4:05:00 PM",
    "timestamp": 1617577500000,
    "description": "Aid Response",
    "address": "2201 E Madison St",
    "active": false,
    "unitCount": 1,
    "severity": 0,
    "lat": 47.618428,
    "long": -122.303639,
    "neighborhood": "Central Area/Squire Park",
    "neighborhoodGroup": "Central",
    "units": "E25"
  },
  {
    "id_str": "F210032188",
    "created_at": "4/4/2021 3:59:08 PM",
    "timestamp": 1617577148000,
    "description": "Illegal Burn",
    "address": "Nickerson Turn Rd / W Nickerson St",
    "active": false,
    "unitCount": 1,
    "severity": 0,
    "lat": 47.654308,
    "long": -122.375635,
    "neighborhood": "Queen Anne",
    "neighborhoodGroup": "Magnolia/Queen Anne",
    "units": "E20"
  },
  {
    "id_str": "F210032186",
    "created_at": "4/4/2021 3:54:06 PM",
    "timestamp": 1617576846000,
    "description": "MVI Freeway",
    "address": "Eb Sr520 At Montlake",
    "active": false,
    "unitCount": 3,
    "severity": 0,
    "lat": 47.643417,
    "long": -122.308528,
    "neighborhood": "Montlake/Portage Bay",
    "neighborhoodGroup": "Northeast",
    "units": "A25 E17 E31"
  },
  {
    "id_str": "F210032185",
    "created_at": "4/4/2021 3:51:42 PM",
    "timestamp": 1617576702000,
    "description": "Illegal Burn",
    "address": "12526 27th Ave Ne",
    "active": false,
    "unitCount": 1,
    "severity": 0,
    "lat": 47.71953,
    "long": -122.299091,
    "neighborhood": "Olympic Hills/Victory Heights",
    "neighborhoodGroup": "North",
    "units": "E39"
  },
  {
    "id_str": "F210032184",
    "created_at": "4/4/2021 3:48:05 PM",
    "timestamp": 1617576485000,
    "description": "Aid Response",
    "address": "1420 Western Ave",
    "active": false,
    "unitCount": 1,
    "severity": 0,
    "lat": 47.607557,
    "long": -122.340392,
    "neighborhood": "Downtown Commercial Core",
    "neighborhoodGroup": "Downtown",
    "units": "E5"
  },
  {
    "id_str": "F210032182",
    "created_at": "4/4/2021 3:46:35 PM",
    "timestamp": 1617576395000,
    "description": "1RED 1 Unit",
    "address": "4th Ave S / S Washington St",
    "active": false,
    "unitCount": 1,
    "severity": 0,
    "lat": 47.600875,
    "long": -122.328963,
    "neighborhood": "Pioneer Square/International District",
    "neighborhoodGroup": "Downtown",
    "units": "E10"
  },
  {
    "id_str": "F210032181",
    "created_at": "4/4/2021 3:42:22 PM",
    "timestamp": 1617576142000,
    "description": "Illegal Burn",
    "address": "542 31st Ave",
    "active": false,
    "unitCount": 1,
    "severity": 0,
    "lat": 47.606536,
    "long": -122.292608,
    "neighborhood": "Central Area/Squire Park",
    "neighborhoodGroup": "Central",
    "units": "E25"
  },
  {
    "id_str": "F210032180",
    "created_at": "4/4/2021 3:37:25 PM",
    "timestamp": 1617575845000,
    "description": "Medic Response",
    "address": "16th Ave / E Yesler Way",
    "active": false,
    "unitCount": 2,
    "severity": 0,
    "lat": 47.601683,
    "long": -122.311569,
    "neighborhood": "Central Area/Squire Park",
    "neighborhoodGroup": "Central",
    "units": "E6 M1"
  },
  {
    "id_str": "F210032178",
    "created_at": "4/4/2021 3:32:39 PM",
    "timestamp": 1617575559000,
    "description": "Aid Response",
    "address": "3rd Ave / Pine St",
    "active": false,
    "unitCount": 1,
    "severity": 0,
    "lat": 47.610743,
    "long": -122.338702,
    "neighborhood": "Downtown Commercial Core",
    "neighborhoodGroup": "Downtown",
    "units": "A10"
  },
  {
    "id_str": "F210032177",
    "created_at": "4/4/2021 3:31:02 PM",
    "timestamp": 1617575462000,
    "description": "Fast Back Up",
    "address": "16th Ave / E Yesler Way",
    "active": false,
    "unitCount": 2,
    "severity": 0,
    "lat": 47.601683,
    "long": -122.311569,
    "neighborhood": "Central Area/Squire Park",
    "neighborhoodGroup": "Central",
    "units": "B2 SAFT2"
  },
  {
    "id_str": "F210032175",
    "created_at": "4/4/2021 3:25:48 PM",
    "timestamp": 1617575148000,
    "description": "Aid Response",
    "address": "3616 34th Ave S",
    "active": false,
    "unitCount": 1,
    "severity": 0,
    "lat": 47.571435,
    "long": -122.289925,
    "neighborhood": "Columbia City",
    "neighborhoodGroup": "Southeast",
    "units": "E13"
  },
  {
    "id_str": "F210032174",
    "created_at": "4/4/2021 3:21:55 PM",
    "timestamp": 1617574915000,
    "description": "Aid Response",
    "address": "3616 34th Ave S",
    "active": false,
    "unitCount": 1,
    "severity": 0,
    "lat": 47.571435,
    "long": -122.289925,
    "neighborhood": "Columbia City",
    "neighborhoodGroup": "Southeast",
    "units": "E30"
  },
  {
    "id_str": "F210032173",
    "created_at": "4/4/2021 3:21:08 PM",
    "timestamp": 1617574868000,
    "description": "Medic Response",
    "address": "7168 Beacon Ave S",
    "active": false,
    "unitCount": 2,
    "severity": 0,
    "lat": 47.538046,
    "long": -122.294709,
    "neighborhood": "South Beacon Hill/NewHolly",
    "neighborhoodGroup": "Greater Duwamish",
    "units": "E28 M28"
  },
  {
    "id_str": "F210032171",
    "created_at": "4/4/2021 3:09:39 PM",
    "timestamp": 1617574179000,
    "description": "Medic Response",
    "address": "2101 E Yesler Way",
    "active": false,
    "unitCount": 2,
    "severity": 0,
    "lat": 47.601672,
    "long": -122.305031,
    "neighborhood": "Central Area/Squire Park",
    "neighborhoodGroup": "Central",
    "units": "E6 M1"
  },
  {
    "id_str": "F210032169",
    "created_at": "4/4/2021 3:04:39 PM",
    "timestamp": 1617573879000,
    "description": "Aid Response",
    "address": "135 26th Ave E",
    "active": false,
    "unitCount": 1,
    "severity": 0,
    "lat": 47.619355,
    "long": -122.298568,
    "neighborhood": "Central Area/Squire Park",
    "neighborhoodGroup": "Central",
    "units": "A25"
  },
  {
    "id_str": "F210032168",
    "created_at": "4/4/2021 2:53:11 PM",
    "timestamp": 1617573191000,
    "description": "Aid Response",
    "address": "12740 33rd Ave Ne",
    "active": false,
    "unitCount": 2,
    "severity": 0,
    "lat": 47.720938,
    "long": -122.292513,
    "neighborhood": "Cedar Park/Meadowbrook",
    "neighborhoodGroup": "North",
    "units": "E39 L9"
  },
  {
    "id_str": "F210032167",
    "created_at": "4/4/2021 2:52:18 PM",
    "timestamp": 1617573138000,
    "description": "Automatic Fire Alarm Resd",
    "address": "6848 17th Ave Ne",
    "active": false,
    "unitCount": 2,
    "severity": 0,
    "lat": 47.678041,
    "long": -122.309833,
    "neighborhood": "Ravenna/Bryant",
    "neighborhoodGroup": "Northeast",
    "units": "E16 E31"
  },
  {
    "id_str": "F210032166",
    "created_at": "4/4/2021 2:51:35 PM",
    "timestamp": 1617573095000,
    "description": "Medic Response",
    "address": "500 5th Ave",
    "active": false,
    "unitCount": 2,
    "severity": 0,
    "lat": 47.602985,
    "long": -122.328535,
    "neighborhood": "First Hill",
    "neighborhoodGroup": "East",
    "units": "A10 M10"
  },
  {
    "id_str": "F210032165",
    "created_at": "4/4/2021 2:50:38 PM",
    "timestamp": 1617573038000,
    "description": "Aid Response",
    "address": "12740 30th Ave Ne",
    "active": false,
    "unitCount": 1,
    "severity": 0,
    "lat": 47.721329,
    "long": -122.296339,
    "neighborhood": "Cedar Park/Meadowbrook",
    "neighborhoodGroup": "North",
    "units": "L5"
  },
  {
    "id_str": "F210032163",
    "created_at": "4/4/2021 2:47:11 PM",
    "timestamp": 1617572831000,
    "description": "Illegal Burn",
    "address": "Lake City Way Ne / Ne 125th St",
    "active": false,
    "unitCount": 1,
    "severity": 0,
    "lat": 47.719279,
    "long": -122.295233,
    "neighborhood": "Cedar Park/Meadowbrook",
    "neighborhoodGroup": "North",
    "units": "E39"
  },
  {
    "id_str": "F210032161",
    "created_at": "4/4/2021 2:34:46 PM",
    "timestamp": 1617572086000,
    "description": "Aid Response",
    "address": "333 Ne 97th St",
    "active": false,
    "unitCount": 1,
    "severity": 0,
    "lat": 47.699156,
    "long": -122.325251,
    "neighborhood": "Northgate/Maple Leaf",
    "neighborhoodGroup": "North",
    "units": "E16"
  },
  {
    "id_str": "F210032160",
    "created_at": "4/4/2021 2:28:55 PM",
    "timestamp": 1617571735000,
    "description": "Investigate Out Of Service",
    "address": "9th Ave W / W Fulton St",
    "active": false,
    "unitCount": 1,
    "severity": 0,
    "lat": 47.645856,
    "long": -122.369373,
    "neighborhood": "Queen Anne",
    "neighborhoodGroup": "Magnolia/Queen Anne",
    "units": "E20"
  },
  {
    "id_str": "F210032159",
    "created_at": "4/4/2021 2:25:47 PM",
    "timestamp": 1617571547000,
    "description": "Medic Response",
    "address": "4251 Aurora Ave N",
    "active": false,
    "unitCount": 2,
    "severity": 0,
    "lat": 47.65932,
    "long": -122.347386,
    "neighborhood": "Fremont",
    "neighborhoodGroup": "Lake Union",
    "units": "E9 M17"
  },
  {
    "id_str": "F210032157",
    "created_at": "4/4/2021 2:19:28 PM",
    "timestamp": 1617571168000,
    "description": "Aid Response",
    "address": "4th Ave S / S Royal Brougham Way",
    "active": false,
    "unitCount": 1,
    "severity": 0,
    "lat": 47.592394,
    "long": -122.329049,
    "neighborhood": "Duwamish/SODO",
    "neighborhoodGroup": "Greater Duwamish",
    "units": "A10"
  },
  {
    "id_str": "F210032156",
    "created_at": "4/4/2021 2:17:39 PM",
    "timestamp": 1617571059000,
    "description": "Automatic Fire Alarm Resd",
    "address": "4214 W Dravus St",
    "active": false,
    "unitCount": 1,
    "severity": 0,
    "lat": 47.648626,
    "long": -122.410908,
    "neighborhood": "Magnolia",
    "neighborhoodGroup": "Magnolia/Queen Anne",
    "units": "E41"
  },
  {
    "id_str": "F210032155",
    "created_at": "4/4/2021 2:16:46 PM",
    "timestamp": 1617571006000,
    "description": "Aid Response",
    "address": "2350 16th Ave S",
    "active": false,
    "unitCount": 1,
    "severity": 0,
    "lat": 47.582476,
    "long": -122.312092,
    "neighborhood": "North Beacon Hill/Jefferson Park",
    "neighborhoodGroup": "Greater Duwamish",
    "units": "E13"
  },
  {
    "id_str": "F210032154",
    "created_at": "4/4/2021 2:09:25 PM",
    "timestamp": 1617570565000,
    "description": "Aid Response",
    "address": "Ne 107th St / 23rd Ave Ne",
    "active": false,
    "unitCount": 1,
    "severity": 0,
    "lat": 47.706623,
    "long": -122.304346,
    "neighborhood": "Olympic Hills/Victory Heights",
    "neighborhoodGroup": "North",
    "units": "E39"
  },
  {
    "id_str": "F210032151",
    "created_at": "4/4/2021 2:03:51 PM",
    "timestamp": 1617570231000,
    "description": "Aid Response",
    "address": "2519 1st Ave",
    "active": false,
    "unitCount": 1,
    "severity": 0,
    "lat": 47.614798,
    "long": -122.348918,
    "neighborhood": "Belltown",
    "neighborhoodGroup": "Downtown",
    "units": "E2"
  },
  {
    "id_str": "F210032149",
    "created_at": "4/4/2021 2:01:14 PM",
    "timestamp": 1617570074000,
    "description": "Auto Fire Alarm",
    "address": "1212 Queen Anne Ave N",
    "active": false,
    "unitCount": 2,
    "severity": 0,
    "lat": 47.62967,
    "long": -122.356621,
    "neighborhood": "Queen Anne",
    "neighborhoodGroup": "Magnolia/Queen Anne",
    "units": "E8 L6"
  },
  {
    "id_str": "F210032147",
    "created_at": "4/4/2021 1:56:32 PM",
    "timestamp": 1617569792000,
    "description": "Low Acuity Response",
    "address": "109 28th Ave S",
    "active": false,
    "unitCount": 1,
    "severity": 0,
    "lat": 47.601581,
    "long": -122.295821,
    "neighborhood": "Madrona/Leschi",
    "neighborhoodGroup": "Central",
    "units": "E6"
  },
  {
    "id_str": "B210032146",
    "created_at": "4/4/2021 1:55:49 PM",
    "timestamp": 1617569749000,
    "description": "Mutual Aid, Ladder",
    "address": "15521 15th Ave Ne",
    "active": false,
    "unitCount": 2,
    "severity": 0,
    "lat": 47.741362,
    "long": -122.31295,
    "units": "B6 L5"
  },
  {
    "id_str": "F210032145",
    "created_at": "4/4/2021 1:53:51 PM",
    "timestamp": 1617569631000,
    "description": "Medic Response",
    "address": "4003 Airport Way S",
    "active": false,
    "unitCount": 2,
    "severity": 0,
    "lat": 47.568046,
    "long": -122.322673,
    "neighborhood": "Duwamish/SODO",
    "neighborhoodGroup": "Greater Duwamish",
    "units": "A14 M1"
  },
  {
    "id_str": "F210032144",
    "created_at": "4/4/2021 1:51:44 PM",
    "timestamp": 1617569504000,
    "description": "Aid Response",
    "address": "4011 23rd Ave Sw",
    "active": false,
    "unitCount": 1,
    "severity": 0,
    "lat": 47.568249,
    "long": -122.362232,
    "neighborhood": "North Delridge",
    "neighborhoodGroup": "Delridge Neighborhoods",
    "units": "E36"
  },
  {
    "id_str": "F210032142",
    "created_at": "4/4/2021 1:41:19 PM",
    "timestamp": 1617568879000,
    "description": "Auto Fire Alarm",
    "address": "1533 Western Ave",
    "active": false,
    "unitCount": 2,
    "severity": 0,
    "lat": 47.608682,
    "long": -122.341421,
    "neighborhood": "Downtown Commercial Core",
    "neighborhoodGroup": "Downtown",
    "units": "E5 L4"
  },
  {
    "id_str": "F210032141",
    "created_at": "4/4/2021 1:38:33 PM",
    "timestamp": 1617568713000,
    "description": "Aid Response",
    "address": "1811 Eastlake Ave",
    "active": false,
    "unitCount": 1,
    "severity": 0,
    "lat": 47.618002,
    "long": -122.329182,
    "neighborhood": "Cascade/Eastlake",
    "neighborhoodGroup": "Lake Union",
    "units": "A25"
  },
  {
    "id_str": "F210032140",
    "created_at": "4/4/2021 1:36:03 PM",
    "timestamp": 1617568563000,
    "description": "Auto Fire Alarm",
    "address": "9201 Rainier Ave S",
    "active": false,
    "unitCount": 2,
    "severity": 0,
    "lat": 47.52101,
    "long": -122.269997,
    "neighborhood": "Rainier Beach",
    "neighborhoodGroup": "Southeast",
    "units": "E33 L12"
  },
  {
    "id_str": "F210032139",
    "created_at": "4/4/2021 1:29:19 PM",
    "timestamp": 1617568159000,
    "description": "Aid Response",
    "address": "1714 California Ave Sw",
    "active": false,
    "unitCount": 1,
    "severity": 0,
    "lat": 47.587956,
    "long": -122.386279,
    "neighborhood": "Alki/Admiral",
    "neighborhoodGroup": "Southwest",
    "units": "E29"
  },
  {
    "id_str": "F210032138",
    "created_at": "4/4/2021 1:24:39 PM",
    "timestamp": 1617567879000,
    "description": "Aid Response",
    "address": "3222 Rainier Ave S",
    "active": false,
    "unitCount": 1,
    "severity": 0,
    "lat": 47.574826,
    "long": -122.295462,
    "neighborhood": "Mt. Baker/North Rainier",
    "neighborhoodGroup": "Southeast",
    "units": "E30"
  },
  {
    "id_str": "F210032137",
    "created_at": "4/4/2021 1:16:04 PM",
    "timestamp": 1617567364000,
    "description": "Automatic Fire Alarm Resd",
    "address": "1509 24th Ave",
    "active": false,
    "unitCount": 1,
    "severity": 0,
    "lat": 47.614241,
    "long": -122.301402,
    "neighborhood": "Central Area/Squire Park",
    "neighborhoodGroup": "Central",
    "units": "E25"
  },
  {
    "id_str": "F210032134",
    "created_at": "4/4/2021 1:11:30 PM",
    "timestamp": 1617567090000,
    "description": "Aid Response",
    "address": "2010 S Jackson St",
    "active": false,
    "unitCount": 1,
    "severity": 0,
    "lat": 47.599258,
    "long": -122.305807,
    "neighborhood": "Judkins Park",
    "neighborhoodGroup": "Central",
    "units": "L3"
  },
  {
    "id_str": "F210032133",
    "created_at": "4/4/2021 1:06:46 PM",
    "timestamp": 1617566806000,
    "description": "Medic Response",
    "address": "7155 38th Ave S",
    "active": false,
    "unitCount": 2,
    "severity": 0,
    "lat": 47.538368,
    "long": -122.284734,
    "neighborhood": "South Beacon Hill/NewHolly",
    "neighborhoodGroup": "Greater Duwamish",
    "units": "E28 M28"
  },
  {
    "id_str": "F210032132",
    "created_at": "4/4/2021 1:03:36 PM",
    "timestamp": 1617566616000,
    "description": "Aid Response",
    "address": "515 1st Ave W",
    "active": false,
    "unitCount": 1,
    "severity": 0,
    "lat": 47.623458,
    "long": -122.358023,
    "neighborhood": "Queen Anne",
    "neighborhoodGroup": "Magnolia/Queen Anne",
    "units": "L6"
  },
  {
    "id_str": "F210032130",
    "created_at": "4/4/2021 12:48:39 PM",
    "timestamp": 1617565719000,
    "description": "Aid Response",
    "address": "W MERCER PL / ELLIOTT AVE W",
    "active": false,
    "unitCount": 1,
    "severity": 0,
    "lat": 47.626585,
    "long": -122.368357,
    "neighborhood": "Queen Anne",
    "neighborhoodGroup": "Magnolia/Queen Anne",
    "units": "E8"
  },
  {
    "id_str": "F210032129",
    "created_at": "4/4/2021 12:45:32 PM",
    "timestamp": 1617565532000,
    "description": "1RED 1 Unit",
    "address": "7508 24th Ave Ne",
    "active": false,
    "unitCount": 1,
    "severity": 0,
    "lat": 47.683111,
    "long": -122.301837,
    "neighborhood": "Ravenna/Bryant",
    "neighborhoodGroup": "Northeast",
    "units": "E16"
  },
  {
    "id_str": "F210032128",
    "created_at": "4/4/2021 12:44:04 PM",
    "timestamp": 1617565444000,
    "description": "MVI - Motor Vehicle Incident",
    "address": "M L King Jr Way S / S Norfolk St",
    "active": false,
    "unitCount": 1,
    "severity": 0,
    "lat": 47.513425,
    "long": -122.278933,
    "neighborhood": "South Beacon Hill/NewHolly",
    "neighborhoodGroup": "Greater Duwamish",
    "units": "E33"
  },
  {
    "id_str": "F210032127",
    "created_at": "4/4/2021 12:42:56 PM",
    "timestamp": 1617565376000,
    "description": "Aid Response",
    "address": "11501 15th Ave Ne",
    "active": false,
    "unitCount": 1,
    "severity": 0,
    "lat": 47.712167,
    "long": -122.312433,
    "neighborhood": "Olympic Hills/Victory Heights",
    "neighborhoodGroup": "North",
    "units": "E39"
  },
  {
    "id_str": "F210032125",
    "created_at": "4/4/2021 12:28:50 PM",
    "timestamp": 1617564530000,
    "description": "Rescue Elevator",
    "address": "206 Western Ave W",
    "active": false,
    "unitCount": 1,
    "severity": 0,
    "lat": 47.620037,
    "long": -122.359786,
    "neighborhood": "Queen Anne",
    "neighborhoodGroup": "Magnolia/Queen Anne",
    "units": "L4"
  },
  {
    "id_str": "F210032124",
    "created_at": "4/4/2021 12:25:50 PM",
    "timestamp": 1617564350000,
    "description": "Aid Response",
    "address": "937 N 96th St",
    "active": false,
    "unitCount": 1,
    "severity": 0,
    "lat": 47.698721,
    "long": -122.34681,
    "neighborhood": "Licton Springs",
    "neighborhoodGroup": "Northwest",
    "units": "E21"
  },
  {
    "id_str": "F210032123",
    "created_at": "4/4/2021 12:24:29 PM",
    "timestamp": 1617564269000,
    "description": "MVI - Motor Vehicle Incident",
    "address": "12th Ave S / Golf Dr S",
    "active": false,
    "unitCount": 1,
    "severity": 0,
    "lat": 47.594282,
    "long": -122.316577,
    "neighborhood": "North Beacon Hill/Jefferson Park",
    "neighborhoodGroup": "Greater Duwamish",
    "units": "E13"
  },
  {
    "id_str": "F210032121",
    "created_at": "4/4/2021 12:18:13 PM",
    "timestamp": 1617563893000,
    "description": "Medic Response",
    "address": "5409 15th Ave Nw",
    "active": false,
    "unitCount": 2,
    "severity": 0,
    "lat": 47.667954,
    "long": -122.376216,
    "neighborhood": "Ballard",
    "neighborhoodGroup": "Ballard",
    "units": "E18 M31"
  },
  {
    "id_str": "F210032120",
    "created_at": "4/4/2021 12:06:55 PM",
    "timestamp": 1617563215000,
    "description": "Aid Response",
    "address": "1235 Ne 91st St",
    "active": false,
    "unitCount": 1,
    "severity": 0,
    "lat": 47.694903,
    "long": -122.314544,
    "neighborhood": "Northgate/Maple Leaf",
    "neighborhoodGroup": "North",
    "units": "E40"
  },
  {
    "id_str": "F210032118",
    "created_at": "4/4/2021 12:04:34 PM",
    "timestamp": 1617563074000,
    "description": "Rubbish Fire",
    "address": "Ne 65th St / Ne Ravenna Blvd",
    "active": false,
    "unitCount": 1,
    "severity": 0,
    "lat": 47.675867,
    "long": -122.321852,
    "neighborhood": "Green Lake",
    "neighborhoodGroup": "Northwest",
    "units": "E16"
  },
  {
    "id_str": "F210032117",
    "created_at": "4/4/2021 12:00:12 PM",
    "timestamp": 1617562812000,
    "description": "Aid Response",
    "address": "14200 Linden Ave N",
    "active": false,
    "unitCount": 1,
    "severity": 0,
    "lat": 47.731677,
    "long": -122.347772,
    "neighborhood": "Broadview/Bitter Lake",
    "neighborhoodGroup": "Northwest",
    "units": "E24"
  },
  {
    "id_str": "F210032114",
    "created_at": "4/4/2021 11:37:52 AM",
    "timestamp": 1617561472000,
    "description": "Medic Response",
    "address": "700 Broadway",
    "active": false,
    "unitCount": 2,
    "severity": 0,
    "lat": 47.608073,
    "long": -122.320755,
    "neighborhood": "First Hill",
    "neighborhoodGroup": "East",
    "units": "A25 M10"
  },
  {
    "id_str": "F210032112",
    "created_at": "4/4/2021 11:30:28 AM",
    "timestamp": 1617561028000,
    "description": "1RED 1 Unit",
    "address": "325 9TH AVE",
    "active": false,
    "unitCount": 2,
    "severity": 0,
    "lat": 47.603588,
    "long": -122.322949,
    "neighborhood": "First Hill",
    "neighborhoodGroup": "East",
    "units": "E10 E25"
  },
  {
    "id_str": "F210032111",
    "created_at": "4/4/2021 11:30:26 AM",
    "timestamp": 1617561026000,
    "description": "Medic Response",
    "address": "1533 Western Ave",
    "active": false,
    "unitCount": 2,
    "severity": 0,
    "lat": 47.608682,
    "long": -122.341421,
    "neighborhood": "Downtown Commercial Core",
    "neighborhoodGroup": "Downtown",
    "units": "E5 M1"
  },
  {
    "id_str": "F210032109",
    "created_at": "4/4/2021 11:20:52 AM",
    "timestamp": 1617560452000,
    "description": "Medic Response",
    "address": "1st Ave S / Yesler Way",
    "active": false,
    "unitCount": 2,
    "severity": 0,
    "lat": 47.601722,
    "long": -122.334179,
    "neighborhood": "Downtown Commercial Core",
    "neighborhoodGroup": "Downtown",
    "units": "A10 M10"
  },
  {
    "id_str": "F210032108",
    "created_at": "4/4/2021 11:18:16 AM",
    "timestamp": 1617560296000,
    "description": "Aid Response",
    "address": "7910 20th Ave Sw",
    "active": false,
    "unitCount": 2,
    "severity": 0,
    "lat": 47.531781,
    "long": -122.359093,
    "neighborhood": "Roxhill/Westwood",
    "neighborhoodGroup": "Delridge Neighborhoods",
    "units": "E11 L13"
  },
  {
    "id_str": "F210032107",
    "created_at": "4/4/2021 11:15:31 AM",
    "timestamp": 1617560131000,
    "description": "Hang-Up, Fire",
    "address": "4616 M L King Jr Way S",
    "active": false,
    "unitCount": 1,
    "severity": 0,
    "lat": 47.561674,
    "long": -122.293783,
    "neighborhood": "Columbia City",
    "neighborhoodGroup": "Southeast",
    "units": "E30"
  },
  {
    "id_str": "F210032106",
    "created_at": "4/4/2021 10:57:43 AM",
    "timestamp": 1617559063000,
    "description": "1RED 1 Unit",
    "address": "14352 Lake City Way Ne",
    "active": false,
    "unitCount": 1,
    "severity": 0,
    "lat": 47.732409,
    "long": -122.292388,
    "neighborhood": "Cedar Park/Meadowbrook",
    "neighborhoodGroup": "North",
    "units": "E39"
  },
  {
    "id_str": "F210032105",
    "created_at": "4/4/2021 10:57:04 AM",
    "timestamp": 1617559024000,
    "description": "1RED 1 Unit",
    "address": "801 HARVARD AVE E",
    "active": false,
    "unitCount": 1,
    "severity": 0,
    "lat": 47.62599,
    "long": -122.322369,
    "neighborhood": "North Capitol Hill",
    "neighborhoodGroup": "East",
    "units": "E22"
  },
  {
    "id_str": "F210032103",
    "created_at": "4/4/2021 10:55:40 AM",
    "timestamp": 1617558940000,
    "description": "Investigate Out Of Service",
    "address": "1819 Nagle Pl",
    "active": false,
    "unitCount": 1,
    "severity": 0,
    "lat": 47.617792,
    "long": -122.320056,
    "neighborhood": "Capitol Hill",
    "neighborhoodGroup": "East",
    "units": "E25"
  },
  {
    "id_str": "F210032102",
    "created_at": "4/4/2021 10:49:52 AM",
    "timestamp": 1617558592000,
    "description": "Aid Response",
    "address": "14100 Linden Ave N",
    "active": false,
    "unitCount": 1,
    "severity": 0,
    "lat": 47.73104,
    "long": -122.347764,
    "neighborhood": "Broadview/Bitter Lake",
    "neighborhoodGroup": "Northwest",
    "units": "E24"
  },
  {
    "id_str": "F210032100",
    "created_at": "4/4/2021 10:39:50 AM",
    "timestamp": 1617557990000,
    "description": "Automatic Fire Alarm Resd",
    "address": "2320 42nd Ave Sw",
    "active": false,
    "unitCount": 1,
    "severity": 0,
    "lat": 47.582872,
    "long": -122.385107,
    "neighborhood": "Alki/Admiral",
    "neighborhoodGroup": "Southwest",
    "units": "E29"
  },
  {
    "id_str": "F210032099",
    "created_at": "4/4/2021 10:38:22 AM",
    "timestamp": 1617557902000,
    "description": "Aid Response",
    "address": "223 Yesler Way",
    "active": false,
    "unitCount": 1,
    "severity": 0,
    "lat": 47.601718,
    "long": -122.331581,
    "neighborhood": "Downtown Commercial Core",
    "neighborhoodGroup": "Downtown",
    "units": "A10"
  },
  {
    "id_str": "F210032097",
    "created_at": "4/4/2021 10:03:42 AM",
    "timestamp": 1617555822000,
    "description": "Aid Response",
    "address": "Lake City Way Ne / Ne 120th St",
    "active": false,
    "unitCount": 1,
    "severity": 0,
    "lat": 47.715614,
    "long": -122.297401,
    "neighborhood": "Olympic Hills/Victory Heights",
    "neighborhoodGroup": "North",
    "units": "E39"
  },
  {
    "id_str": "F210032096",
    "created_at": "4/4/2021 9:59:06 AM",
    "timestamp": 1617555546000,
    "description": "Low Acuity Response",
    "address": "1431 Minor Ave",
    "active": false,
    "unitCount": 1,
    "severity": 0,
    "lat": 47.613247,
    "long": -122.327187,
    "neighborhood": "Capitol Hill",
    "neighborhoodGroup": "East",
    "units": "A25"
  },
  {
    "id_str": "F210032095",
    "created_at": "4/4/2021 9:49:26 AM",
    "timestamp": 1617554966000,
    "description": "Aid Response",
    "address": "3rd Ave / James St",
    "active": false,
    "unitCount": 1,
    "severity": 0,
    "lat": 47.602769,
    "long": -122.331409,
    "neighborhood": "Downtown Commercial Core",
    "neighborhoodGroup": "Downtown",
    "units": "A10"
  },
  {
    "id_str": "F210032094",
    "created_at": "4/4/2021 9:45:32 AM",
    "timestamp": 1617554732000,
    "description": "Aid Response",
    "address": "1323 Nw 77th St",
    "active": false,
    "unitCount": 1,
    "severity": 0,
    "lat": 47.685073,
    "long": -122.373052,
    "neighborhood": "Whittier Heights",
    "neighborhoodGroup": "Ballard",
    "units": "E35"
  },
  {
    "id_str": "F210032093",
    "created_at": "4/4/2021 9:35:10 AM",
    "timestamp": 1617554110000,
    "description": "Aid Response",
    "address": "1321 Queen Anne Ave N",
    "active": false,
    "unitCount": 1,
    "severity": 0,
    "lat": 47.630615,
    "long": -122.356606,
    "neighborhood": "Queen Anne",
    "neighborhoodGroup": "Magnolia/Queen Anne",
    "units": "E8"
  },
  {
    "id_str": "F210032092",
    "created_at": "4/4/2021 9:24:04 AM",
    "timestamp": 1617553444000,
    "description": "Aid Response",
    "address": "3rd Ave / Vine St",
    "active": false,
    "unitCount": 1,
    "severity": 0,
    "lat": 47.616579,
    "long": -122.347964,
    "neighborhood": "Cascade/Eastlake",
    "neighborhoodGroup": "Lake Union",
    "units": "E2"
  },
  {
    "id_str": "F210032091",
    "created_at": "4/4/2021 9:23:46 AM",
    "timestamp": 1617553426000,
    "description": "Low Acuity Response",
    "address": "3003 Ne 88th St",
    "active": false,
    "unitCount": 1,
    "severity": 0,
    "lat": 47.692384,
    "long": -122.295969,
    "neighborhood": "Wedgwood/View Ridge",
    "neighborhoodGroup": "Northeast",
    "units": "E40"
  },
  {
    "id_str": "F210032088",
    "created_at": "4/4/2021 9:07:26 AM",
    "timestamp": 1617552446000,
    "description": "Aid Response",
    "address": "8122 48th Ave S",
    "active": false,
    "unitCount": 2,
    "severity": 0,
    "lat": 47.530197,
    "long": -122.272752,
    "neighborhood": "Rainier Beach",
    "neighborhoodGroup": "Southeast",
    "units": "E33 M28"
  },
  {
    "id_str": "F210032087",
    "created_at": "4/4/2021 9:06:32 AM",
    "timestamp": 1617552392000,
    "description": "Aid Response",
    "address": "3rd Ave / Cherry St",
    "active": false,
    "unitCount": 1,
    "severity": 0,
    "lat": 47.603484,
    "long": -122.332062,
    "neighborhood": "Downtown Commercial Core",
    "neighborhoodGroup": "Downtown",
    "units": "A10"
  },
  {
    "id_str": "F210032086",
    "created_at": "4/4/2021 9:06:22 AM",
    "timestamp": 1617552382000,
    "description": "Auto Fire Alarm",
    "address": "3295 Sw Avalon Way",
    "active": false,
    "unitCount": 2,
    "severity": 0,
    "lat": 47.56411,
    "long": -122.373469,
    "neighborhood": "North Delridge",
    "neighborhoodGroup": "Delridge Neighborhoods",
    "units": "E32 L11"
  },
  {
    "id_str": "F210032082",
    "created_at": "4/4/2021 8:47:03 AM",
    "timestamp": 1617551223000,
    "description": "Aid Response",
    "address": "1119 Mercer St",
    "active": false,
    "unitCount": 1,
    "severity": 0,
    "lat": 47.6246,
    "long": -122.33525,
    "neighborhood": "Cascade/Eastlake",
    "neighborhoodGroup": "Lake Union",
    "units": "E2"
  },
  {
    "id_str": "F210032081",
    "created_at": "4/4/2021 8:44:19 AM",
    "timestamp": 1617551059000,
    "description": "Low Acuity Response",
    "address": "2564 38th Ave W",
    "active": false,
    "unitCount": 1,
    "severity": 0,
    "lat": 47.642503,
    "long": -122.406099,
    "neighborhood": "Magnolia",
    "neighborhoodGroup": "Magnolia/Queen Anne",
    "units": "E41"
  },
  {
    "id_str": "F210032080",
    "created_at": "4/4/2021 8:38:50 AM",
    "timestamp": 1617550730000,
    "description": "Electrical Problem",
    "address": "320 Valley St",
    "active": false,
    "unitCount": 1,
    "severity": 0,
    "lat": 47.626294,
    "long": -122.350929,
    "neighborhood": "Queen Anne",
    "neighborhoodGroup": "Magnolia/Queen Anne",
    "units": "E8"
  },
  {
    "id_str": "F210032076",
    "created_at": "4/4/2021 8:15:42 AM",
    "timestamp": 1617549342000,
    "description": "Aid Response",
    "address": "2904 S Columbian Way",
    "active": false,
    "unitCount": 1,
    "severity": 0,
    "lat": 47.562438,
    "long": -122.295746,
    "neighborhood": "North Beacon Hill/Jefferson Park",
    "neighborhoodGroup": "Greater Duwamish",
    "units": "E30"
  },
  {
    "id_str": "F210032077",
    "created_at": "4/4/2021 8:15:30 AM",
    "timestamp": 1617549330000,
    "description": "Automatic Fire Alarm False",
    "address": "2343 N 61st St",
    "active": false,
    "unitCount": 1,
    "severity": 0,
    "lat": 47.672887,
    "long": -122.33031,
    "neighborhood": "Green Lake",
    "neighborhoodGroup": "Northwest",
    "units": "E16"
  },
  {
    "id_str": "F210032074",
    "created_at": "4/4/2021 7:33:06 AM",
    "timestamp": 1617546786000,
    "description": "Aid Response",
    "address": "13000 Linden Ave N",
    "active": false,
    "unitCount": 1,
    "severity": 0,
    "lat": 47.723218,
    "long": -122.348195,
    "neighborhood": "Broadview/Bitter Lake",
    "neighborhoodGroup": "Northwest",
    "units": "E24"
  },
  {
    "id_str": "F210032073",
    "created_at": "4/4/2021 7:28:15 AM",
    "timestamp": 1617546495000,
    "description": "Medic Response",
    "address": "3026 Nw 63rd St",
    "active": false,
    "unitCount": 2,
    "severity": 0,
    "lat": 47.674439,
    "long": -122.396018,
    "neighborhood": "Sunset Hill/Loyal Heights",
    "neighborhoodGroup": "Ballard",
    "units": "E18 M31"
  },
  {
    "id_str": "F210032072",
    "created_at": "4/4/2021 7:17:46 AM",
    "timestamp": 1617545866000,
    "description": "Aid Response",
    "address": "3601 Greenwood Ave N",
    "active": false,
    "unitCount": 1,
    "severity": 0,
    "lat": 47.652475,
    "long": -122.355493,
    "neighborhood": "Fremont",
    "neighborhoodGroup": "Lake Union",
    "units": "E9"
  },
  {
    "id_str": "F210032071",
    "created_at": "4/4/2021 7:06:51 AM",
    "timestamp": 1617545211000,
    "description": "Advised Incident",
    "address": "16th Ave Sw / Sw Henderson St",
    "active": false,
    "unitCount": 1,
    "severity": 0,
    "units": "E37"
  },
  {
    "id_str": "F210032070",
    "created_at": "4/4/2021 7:05:07 AM",
    "timestamp": 1617545107000,
    "description": "Medic Response",
    "address": "2405 55th Ave Sw",
    "active": false,
    "unitCount": 2,
    "severity": 0,
    "lat": 47.582378,
    "long": -122.402602,
    "neighborhood": "West Seattle Junction/Genesee Hill",
    "neighborhoodGroup": "Southwest",
    "units": "E29 M32"
  },
  {
    "id_str": "F210032069",
    "created_at": "4/4/2021 7:04:54 AM",
    "timestamp": 1617545094000,
    "description": "Medic Response",
    "address": "16th Ave Sw / Sw Henderson St",
    "active": false,
    "unitCount": 3,
    "severity": 0,
    "lat": 47.52287,
    "long": -122.355104,
    "neighborhood": "Highland Park",
    "neighborhoodGroup": "Delridge Neighborhoods",
    "units": "E11 M26 M28"
  },
  {
    "id_str": "F210032068",
    "created_at": "4/4/2021 6:59:10 AM",
    "timestamp": 1617544750000,
    "description": "Rubbish Fire",
    "address": "2425 4th Ave S",
    "active": false,
    "unitCount": 1,
    "severity": 0,
    "lat": 47.581718,
    "long": -122.329055,
    "neighborhood": "Duwamish/SODO",
    "neighborhoodGroup": "Greater Duwamish",
    "units": "E10"
  },
  {
    "id_str": "F210032066",
    "created_at": "4/4/2021 5:52:34 AM",
    "timestamp": 1617540754000,
    "description": "Medic Response",
    "address": "14100 Linden Ave N",
    "active": false,
    "unitCount": 2,
    "severity": 0,
    "lat": 47.73104,
    "long": -122.347764,
    "neighborhood": "Broadview/Bitter Lake",
    "neighborhoodGroup": "Northwest",
    "units": "E24 M31"
  },
  {
    "id_str": "F210032064",
    "created_at": "4/4/2021 5:22:09 AM",
    "timestamp": 1617538929000,
    "description": "Aid Response",
    "address": "2nd Ave S / S Washington St",
    "active": false,
    "unitCount": 1,
    "severity": 0,
    "lat": 47.600879,
    "long": -122.331572,
    "neighborhood": "Pioneer Square/International District",
    "neighborhoodGroup": "Downtown",
    "units": "E10"
  },
  {
    "id_str": "F210032062",
    "created_at": "4/4/2021 5:17:04 AM",
    "timestamp": 1617538624000,
    "description": "Investigate Out Of Service",
    "address": "2250 15th Ave W",
    "active": false,
    "unitCount": 1,
    "severity": 0,
    "lat": 47.639069,
    "long": -122.376151,
    "neighborhood": "Interbay",
    "neighborhoodGroup": "Magnolia/Queen Anne",
    "units": "E20"
  },
  {
    "id_str": "F210032060",
    "created_at": "4/4/2021 5:03:54 AM",
    "timestamp": 1617537834000,
    "description": "Aid Response",
    "address": "914 James St",
    "active": false,
    "unitCount": 1,
    "severity": 0,
    "lat": 47.605621,
    "long": -122.324591,
    "neighborhood": "First Hill",
    "neighborhoodGroup": "East",
    "units": "A10"
  },
  {
    "id_str": "F210032059",
    "created_at": "4/4/2021 4:56:32 AM",
    "timestamp": 1617537392000,
    "description": "Illegal Burn",
    "address": "8th Ave Ne / Ne 69th St",
    "active": false,
    "unitCount": 1,
    "severity": 0,
    "lat": 47.678768,
    "long": -122.32006,
    "neighborhood": "Green Lake",
    "neighborhoodGroup": "Northwest",
    "units": "E16"
  },
  {
    "id_str": "F210032057",
    "created_at": "4/4/2021 4:36:12 AM",
    "timestamp": 1617536172000,
    "description": "Aid Response",
    "address": "2700 Ne 106th Pl",
    "active": false,
    "unitCount": 1,
    "severity": 0,
    "lat": 47.705741,
    "long": -122.298839,
    "neighborhood": "Cedar Park/Meadowbrook",
    "neighborhoodGroup": "North",
    "units": "E40"
  },
  {
    "id_str": "F210032054",
    "created_at": "4/4/2021 4:00:30 AM",
    "timestamp": 1617534030000,
    "description": "Aid Response Yellow",
    "address": "1922 9th Ave",
    "active": false,
    "unitCount": 1,
    "severity": 0,
    "lat": 47.615781,
    "long": -122.334715,
    "neighborhood": "Cascade/Eastlake",
    "neighborhoodGroup": "Lake Union",
    "units": "E2"
  },
  {
    "id_str": "F210032052",
    "created_at": "4/4/2021 3:40:26 AM",
    "timestamp": 1617532826000,
    "description": "Aid Response",
    "address": "4th Ave S / S Jackson St",
    "active": false,
    "unitCount": 1,
    "severity": 0,
    "lat": 47.599197,
    "long": -122.328968,
    "neighborhood": "Pioneer Square/International District",
    "neighborhoodGroup": "Downtown",
    "units": "A10"
  },
  {
    "id_str": "F210032050",
    "created_at": "4/4/2021 3:13:02 AM",
    "timestamp": 1617531182000,
    "description": "Aid Response",
    "address": "9701 Myers Way S",
    "active": false,
    "unitCount": 1,
    "severity": 0,
    "lat": 47.515953,
    "long": -122.331862,
    "units": "E26"
  },
  {
    "id_str": "F210032048",
    "created_at": "4/4/2021 3:09:47 AM",
    "timestamp": 1617530987000,
    "description": "Medic Response",
    "address": "3052 Ne 137th St",
    "active": false,
    "unitCount": 2,
    "severity": 0,
    "lat": 47.727937,
    "long": -122.295681,
    "neighborhood": "Cedar Park/Meadowbrook",
    "neighborhoodGroup": "North",
    "units": "L5 M17"
  },
  {
    "id_str": "F210032047",
    "created_at": "4/4/2021 2:59:26 AM",
    "timestamp": 1617530366000,
    "description": "Aid Response",
    "address": "12205 9th Ave Ne",
    "active": false,
    "unitCount": 1,
    "severity": 0,
    "lat": 47.71688,
    "long": -122.319318,
    "neighborhood": "Haller Lake",
    "neighborhoodGroup": "Northwest",
    "units": "E39"
  },
  {
    "id_str": "F210032046",
    "created_at": "4/4/2021 2:52:37 AM",
    "timestamp": 1617529957000,
    "description": "Aid Response",
    "address": "2008 Westlake Ave",
    "active": false,
    "unitCount": 1,
    "severity": 0,
    "lat": 47.615007,
    "long": -122.337781,
    "neighborhood": "Cascade/Eastlake",
    "neighborhoodGroup": "Lake Union",
    "units": "E2"
  },
  {
    "id_str": "F210032044",
    "created_at": "4/4/2021 2:33:42 AM",
    "timestamp": 1617528822000,
    "description": "Medic Response",
    "address": "2200 E Madison St",
    "active": false,
    "unitCount": 2,
    "severity": 0,
    "lat": 47.61842,
    "long": -122.30365,
    "neighborhood": "Central Area/Squire Park",
    "neighborhoodGroup": "Central",
    "units": "A25 M1"
  },
  {
    "id_str": "F210032043",
    "created_at": "4/4/2021 2:28:37 AM",
    "timestamp": 1617528517000,
    "description": "Alarm Bell",
    "address": "6021 Roosevelt Way Ne",
    "active": false,
    "unitCount": 2,
    "severity": 0,
    "lat": 47.672365,
    "long": -122.317363,
    "neighborhood": "University District",
    "neighborhoodGroup": "Northeast",
    "units": "E16 L9"
  },
  {
    "id_str": "V210032042",
    "created_at": "4/4/2021 2:20:06 AM",
    "timestamp": 1617528006000,
    "description": "Mutual Aid, Medic",
    "address": "2823 Sw Roxbury St",
    "active": false,
    "unitCount": 1,
    "severity": 0,
    "lat": 47.517398,
    "long": -122.368966,
    "units": "M26"
  },
  {
    "id_str": "F210032041",
    "created_at": "4/4/2021 2:18:35 AM",
    "timestamp": 1617527915000,
    "description": "Aid Response",
    "address": "1519 12th Ave",
    "active": false,
    "unitCount": 1,
    "severity": 0,
    "lat": 47.614317,
    "long": -122.316839,
    "neighborhood": "Capitol Hill",
    "neighborhoodGroup": "East",
    "units": "A25"
  },
  {
    "id_str": "F210032040",
    "created_at": "4/4/2021 2:16:55 AM",
    "timestamp": 1617527815000,
    "description": "Aid Response",
    "address": "4520 S Alaska St",
    "active": false,
    "unitCount": 1,
    "severity": 0,
    "lat": 47.560561,
    "long": -122.276726,
    "neighborhood": "Columbia City",
    "neighborhoodGroup": "Southeast",
    "units": "E28"
  },
  {
    "id_str": "F210032037",
    "created_at": "4/4/2021 2:07:12 AM",
    "timestamp": 1617527232000,
    "description": "Aid Response",
    "address": "4701 University Way Ne",
    "active": false,
    "unitCount": 1,
    "severity": 0,
    "lat": 47.663092,
    "long": -122.313102,
    "neighborhood": "University District",
    "neighborhoodGroup": "Northeast",
    "units": "E17"
  },
  {
    "id_str": "F210032035",
    "created_at": "4/4/2021 1:53:08 AM",
    "timestamp": 1617526388000,
    "description": "Trans to AMR",
    "address": "2349 W Newton St",
    "active": false,
    "unitCount": 1,
    "severity": 0,
    "lat": 47.636998,
    "long": -122.387565,
    "neighborhood": "Interbay",
    "neighborhoodGroup": "Magnolia/Queen Anne",
    "units": "E41"
  },
  {
    "id_str": "F210032034",
    "created_at": "4/4/2021 1:50:11 AM",
    "timestamp": 1617526211000,
    "description": "Aid Response",
    "address": "500 5th Ave",
    "active": false,
    "unitCount": 1,
    "severity": 0,
    "lat": 47.602985,
    "long": -122.328535,
    "neighborhood": "First Hill",
    "neighborhoodGroup": "East",
    "units": "E10"
  },
  {
    "id_str": "F210032029",
    "created_at": "4/4/2021 1:23:07 AM",
    "timestamp": 1617524587000,
    "description": "Rescue Elevator",
    "address": "2100 Alaskan Way",
    "active": false,
    "unitCount": 1,
    "severity": 0,
    "lat": 47.609994,
    "long": -122.346301,
    "neighborhood": "Belltown",
    "neighborhoodGroup": "Downtown",
    "units": "L4"
  },
  {
    "id_str": "F210032027",
    "created_at": "4/4/2021 1:19:27 AM",
    "timestamp": 1617524367000,
    "description": "Car Fire",
    "address": "Rainier Ave S / S Plum St",
    "active": false,
    "unitCount": 1,
    "severity": 0,
    "lat": 47.585498,
    "long": -122.303605,
    "neighborhood": "North Beacon Hill/Jefferson Park",
    "neighborhoodGroup": "Greater Duwamish",
    "units": "E30"
  },
  {
    "id_str": "F210032025",
    "created_at": "4/4/2021 1:18:12 AM",
    "timestamp": 1617524292000,
    "description": "Aid Response",
    "address": "1167 Republican St",
    "active": false,
    "unitCount": 1,
    "severity": 0,
    "lat": 47.62312,
    "long": -122.333818,
    "neighborhood": "Cascade/Eastlake",
    "neighborhoodGroup": "Lake Union",
    "units": "E2"
  },
  {
    "id_str": "F210032022",
    "created_at": "4/4/2021 1:15:31 AM",
    "timestamp": 1617524131000,
    "description": "Auto Fire Alarm",
    "address": "1660 12th Ave",
    "active": false,
    "unitCount": 2,
    "severity": 0,
    "lat": 47.61549,
    "long": -122.316858,
    "neighborhood": "Capitol Hill",
    "neighborhoodGroup": "East",
    "units": "E25 L10"
  },
  {
    "id_str": "F210032023",
    "created_at": "4/4/2021 1:14:41 AM",
    "timestamp": 1617524081000,
    "description": "Investigate Out Of Service",
    "address": "3295 Sw Avalon Way",
    "active": false,
    "unitCount": 1,
    "severity": 0,
    "lat": 47.56411,
    "long": -122.373469,
    "neighborhood": "North Delridge",
    "neighborhoodGroup": "Delridge Neighborhoods",
    "units": "E32"
  },
  {
    "id_str": "F210032020",
    "created_at": "4/4/2021 12:56:50 AM",
    "timestamp": 1617523010000,
    "description": "Aid Response",
    "address": "3rd Ave S / S Main St",
    "active": false,
    "unitCount": 1,
    "severity": 0,
    "lat": 47.599991,
    "long": -122.330342,
    "neighborhood": "Pioneer Square/International District",
    "neighborhoodGroup": "Downtown",
    "units": "A10"
  },
  {
    "id_str": "F210032019",
    "created_at": "4/4/2021 12:51:58 AM",
    "timestamp": 1617522718000,
    "description": "Aid Response",
    "address": "15th Ave Nw / Nw 46th St",
    "active": false,
    "unitCount": 1,
    "severity": 0,
    "lat": 47.662205,
    "long": -122.376108,
    "neighborhood": "Ballard",
    "neighborhoodGroup": "Ballard",
    "units": "E18"
  },
  {
    "id_str": "F210032018",
    "created_at": "4/4/2021 12:42:37 AM",
    "timestamp": 1617522157000,
    "description": "Aid Response",
    "address": "9425 35th Ave Ne",
    "active": false,
    "unitCount": 1,
    "severity": 0,
    "lat": 47.696834,
    "long": -122.290551,
    "neighborhood": "Wedgwood/View Ridge",
    "neighborhoodGroup": "Northeast",
    "units": "E40"
  },
  {
    "id_str": "F210032017",
    "created_at": "4/4/2021 12:39:01 AM",
    "timestamp": 1617521941000,
    "description": "Medic Response",
    "address": "1700 17TH AVE",
    "active": false,
    "unitCount": 2,
    "severity": 0,
    "lat": 47.61559,
    "long": -122.310151,
    "neighborhood": "Central Area/Squire Park",
    "neighborhoodGroup": "Central",
    "units": "E25 M17"
  },
  {
    "id_str": "F210032016",
    "created_at": "4/4/2021 12:36:33 AM",
    "timestamp": 1617521793000,
    "description": "Aid Response",
    "address": "1415 5th Ave",
    "active": false,
    "unitCount": 1,
    "severity": 0,
    "lat": 47.609827,
    "long": -122.334796,
    "neighborhood": "Downtown Commercial Core",
    "neighborhoodGroup": "Downtown",
    "units": "E5"
  },
  {
    "id_str": "F210032015",
    "created_at": "4/4/2021 12:31:42 AM",
    "timestamp": 1617521502000,
    "description": "Medic Response",
    "address": "1922 9th Ave",
    "active": false,
    "unitCount": 2,
    "severity": 0,
    "lat": 47.615781,
    "long": -122.334715,
    "neighborhood": "Cascade/Eastlake",
    "neighborhoodGroup": "Lake Union",
    "units": "E2 M10"
  },
  {
    "id_str": "F210032014",
    "created_at": "4/4/2021 12:15:47 AM",
    "timestamp": 1617520547000,
    "description": "Auto Fire Alarm",
    "address": "815 E Pine St",
    "active": false,
    "unitCount": 2,
    "severity": 0,
    "lat": 47.615227,
    "long": -122.321926,
    "neighborhood": "Capitol Hill",
    "neighborhoodGroup": "East",
    "units": "E25 L10"
  },
  {
    "id_str": "F210032012",
    "created_at": "4/4/2021 12:08:52 AM",
    "timestamp": 1617520132000,
    "description": "Illegal Burn",
    "address": "2746 Ne 45th St",
    "active": false,
    "unitCount": 1,
    "severity": 0,
    "lat": 47.661239,
    "long": -122.297259,
    "neighborhood": "Ravenna/Bryant",
    "neighborhoodGroup": "Northeast",
    "units": "E38"
  },
  {
    "id_str": "F210032010",
    "created_at": "4/4/2021 12:05:17 AM",
    "timestamp": 1617519917000,
    "description": "Medic Response",
    "address": "3rd Ave / Cherry St",
    "active": false,
    "unitCount": 3,
    "severity": 0,
    "lat": 47.603484,
    "long": -122.332062,
    "neighborhood": "Downtown Commercial Core",
    "neighborhoodGroup": "Downtown",
    "units": "A10 L13 M1"
  },
  {
    "id_str": "F210032009",
    "created_at": "4/4/2021 12:00:23 AM",
    "timestamp": 1617519623000,
    "description": "Unk Odor",
    "address": "7910 20th Ave Sw",
    "active": false,
    "unitCount": 1,
    "severity": 0,
    "lat": 47.531781,
    "long": -122.359093,
    "neighborhood": "Roxhill/Westwood",
    "neighborhoodGroup": "Delridge Neighborhoods",
    "units": "L13"
  },
  {
    "id_str": "F210032008",
    "created_at": "4/3/2021 11:58:24 PM",
    "timestamp": 1617519504000,
    "description": "Aid Response",
    "address": "1520 Melrose Ave",
    "active": false,
    "unitCount": 1,
    "severity": 0,
    "lat": 47.614174,
    "long": -122.327923,
    "neighborhood": "Capitol Hill",
    "neighborhoodGroup": "East",
    "units": "A25"
  },
  {
    "id_str": "F210032007",
    "created_at": "4/3/2021 11:55:17 PM",
    "timestamp": 1617519317000,
    "description": "Aid Response",
    "address": "94 Bay St",
    "active": false,
    "unitCount": 1,
    "severity": 0,
    "lat": 47.618412,
    "long": -122.355206,
    "neighborhood": "Belltown",
    "neighborhoodGroup": "Downtown",
    "units": "E2"
  },
  {
    "id_str": "F210032004",
    "created_at": "4/3/2021 11:47:04 PM",
    "timestamp": 1617518824000,
    "description": "Aid Response",
    "address": "303 16th Ave E",
    "active": false,
    "unitCount": 1,
    "severity": 0,
    "lat": 47.620531,
    "long": -122.311383,
    "neighborhood": "Miller Park",
    "neighborhoodGroup": "East",
    "units": "A25"
  },
  {
    "id_str": "F210032002",
    "created_at": "4/3/2021 11:42:17 PM",
    "timestamp": 1617518537000,
    "description": "Aid Response",
    "address": "510 Ne 98th St",
    "active": false,
    "unitCount": 1,
    "severity": 0,
    "lat": 47.700416,
    "long": -122.323025,
    "neighborhood": "Northgate/Maple Leaf",
    "neighborhoodGroup": "North",
    "units": "E16"
  },
  {
    "id_str": "F210032001",
    "created_at": "4/3/2021 11:40:51 PM",
    "timestamp": 1617518451000,
    "description": "Rubbish Fire",
    "address": "13000 Lake City Way Ne",
    "active": false,
    "unitCount": 1,
    "severity": 0,
    "lat": 47.722899,
    "long": -122.293194,
    "neighborhood": "Cedar Park/Meadowbrook",
    "neighborhoodGroup": "North",
    "units": "E39"
  },
  {
    "id_str": "F210031999",
    "created_at": "4/3/2021 11:32:09 PM",
    "timestamp": 1617517929000,
    "description": "Rubbish Fire",
    "address": "Lake City Way Ne / Ne 130th St",
    "active": false,
    "unitCount": 1,
    "severity": 0,
    "lat": 47.722899,
    "long": -122.293194,
    "neighborhood": "Cedar Park/Meadowbrook",
    "neighborhoodGroup": "North",
    "units": "E39"
  },
  {
    "id_str": "F210031998",
    "created_at": "4/3/2021 11:27:15 PM",
    "timestamp": 1617517635000,
    "description": "Water Rescue Response",
    "address": "801 Alaskan Way",
    "active": false,
    "unitCount": 16,
    "severity": 2,
    "lat": 47.602348,
    "long": -122.337148,
    "neighborhood": "Downtown Commercial Core",
    "neighborhoodGroup": "Downtown",
    "units": "A14 B2 B5 E10 E36 E5 FB2 FIREBOAT FRB5 L1 L4 M10 M44 PTRL4 R1 SAFT2"
  },
  {
    "id_str": "F210031997",
    "created_at": "4/3/2021 11:23:28 PM",
    "timestamp": 1617517408000,
    "description": "Aid Response",
    "address": "10th Ave / E Madison St",
    "active": false,
    "unitCount": 1,
    "severity": 0,
    "lat": 47.611758,
    "long": -122.319348,
    "neighborhood": "Capitol Hill",
    "neighborhoodGroup": "East",
    "units": "E25"
  },
  {
    "id_str": "F210031996",
    "created_at": "4/3/2021 11:05:57 PM",
    "timestamp": 1617516357000,
    "description": "Medic Response",
    "address": "2721 60th Ave Sw",
    "active": false,
    "unitCount": 3,
    "severity": 0,
    "lat": 47.578966,
    "long": -122.409347,
    "neighborhood": "Alki/Admiral",
    "neighborhoodGroup": "Southwest",
    "units": "E29 M26 M32"
  },
  {
    "id_str": "F210031994",
    "created_at": "4/3/2021 10:58:39 PM",
    "timestamp": 1617515919000,
    "description": "Aid Response",
    "address": "1721 Ne 122nd St",
    "active": false,
    "unitCount": 1,
    "severity": 0,
    "lat": 47.717053,
    "long": -122.309705,
    "neighborhood": "Olympic Hills/Victory Heights",
    "neighborhoodGroup": "North",
    "units": "E39"
  },
  {
    "id_str": "F210031991",
    "created_at": "4/3/2021 10:37:37 PM",
    "timestamp": 1617514657000,
    "description": "Advised Incident",
    "address": "4737 ROOSEVELT WAY NE",
    "active": false,
    "unitCount": 1,
    "severity": 0,
    "lat": 47.663338,
    "long": -122.317421,
    "neighborhood": "University District",
    "neighborhoodGroup": "Northeast",
    "units": "L9"
  },
  {
    "id_str": "F210031990",
    "created_at": "4/3/2021 10:35:05 PM",
    "timestamp": 1617514505000,
    "description": "Low Acuity Response",
    "address": "12740 30th Ave Ne",
    "active": false,
    "unitCount": 1,
    "severity": 0,
    "lat": 47.721329,
    "long": -122.296339,
    "neighborhood": "Cedar Park/Meadowbrook",
    "neighborhoodGroup": "North",
    "units": "E39"
  },
  {
    "id_str": "F210031988",
    "created_at": "4/3/2021 10:28:44 PM",
    "timestamp": 1617514124000,
    "description": "Aid Response",
    "address": "62 Cedar St",
    "active": false,
    "unitCount": 1,
    "severity": 0,
    "lat": 47.615116,
    "long": -122.351504,
    "neighborhood": "Belltown",
    "neighborhoodGroup": "Downtown",
    "units": "L4"
  },
  {
    "id_str": "F210031987",
    "created_at": "4/3/2021 10:26:54 PM",
    "timestamp": 1617514014000,
    "description": "Illegal Burn",
    "address": "333 Pontius Ave N",
    "active": false,
    "unitCount": 1,
    "severity": 0,
    "lat": 47.621193,
    "long": -122.331706,
    "neighborhood": "Cascade/Eastlake",
    "neighborhoodGroup": "Lake Union",
    "units": "E2"
  },
  {
    "id_str": "F210031986",
    "created_at": "4/3/2021 10:24:09 PM",
    "timestamp": 1617513849000,
    "description": "Rescue Elevator",
    "address": "7011 Roosevelt Way Ne",
    "active": false,
    "unitCount": 1,
    "severity": 0,
    "lat": 47.679542,
    "long": -122.317415,
    "neighborhood": "Ravenna/Bryant",
    "neighborhoodGroup": "Northeast",
    "units": "L9"
  },
  {
    "id_str": "F210031985",
    "created_at": "4/3/2021 10:22:16 PM",
    "timestamp": 1617513736000,
    "description": "Advised Incident",
    "address": "702 2nd Ave W",
    "active": false,
    "unitCount": 1,
    "severity": 0,
    "units": "E8"
  },
  {
    "id_str": "F210031982",
    "created_at": "4/3/2021 10:17:39 PM",
    "timestamp": 1617513459000,
    "description": "Auto Fire Alarm",
    "address": "223 Yesler Way",
    "active": false,
    "unitCount": 2,
    "severity": 0,
    "lat": 47.601718,
    "long": -122.331581,
    "neighborhood": "Downtown Commercial Core",
    "neighborhoodGroup": "Downtown",
    "units": "E10 L1"
  },
  {
    "id_str": "F210031981",
    "created_at": "4/3/2021 10:15:35 PM",
    "timestamp": 1617513335000,
    "description": "Aid Response",
    "address": "544 S Donovan St",
    "active": false,
    "unitCount": 1,
    "severity": 0,
    "lat": 47.525629,
    "long": -122.327633,
    "neighborhood": "South Park",
    "neighborhoodGroup": "Greater Duwamish",
    "units": "E26"
  },
  {
    "id_str": "F210031980",
    "created_at": "4/3/2021 10:14:29 PM",
    "timestamp": 1617513269000,
    "description": "Aid Response",
    "address": "6742 38th Ave S",
    "active": false,
    "unitCount": 1,
    "severity": 0,
    "lat": 47.542079,
    "long": -122.284795,
    "neighborhood": "South Beacon Hill/NewHolly",
    "neighborhoodGroup": "Greater Duwamish",
    "units": "E28"
  },
  {
    "id_str": "F210031979",
    "created_at": "4/3/2021 10:12:12 PM",
    "timestamp": 1617513132000,
    "description": "Aid Response",
    "address": "6931 40th Ave Sw",
    "active": false,
    "unitCount": 1,
    "severity": 0,
    "lat": 47.540897,
    "long": -122.3832,
    "neighborhood": "Fauntleroy/Seaview",
    "neighborhoodGroup": "Southwest",
    "units": "L13"
  },
  {
    "id_str": "F210031975",
    "created_at": "4/3/2021 10:03:01 PM",
    "timestamp": 1617512581000,
    "description": "Aid Response",
    "address": "4544 7th Ave Ne",
    "active": false,
    "unitCount": 1,
    "severity": 0,
    "lat": 47.662004,
    "long": -122.320724,
    "neighborhood": "Wallingford",
    "neighborhoodGroup": "Lake Union",
    "units": "E17"
  },
  {
    "id_str": "F210031976",
    "created_at": "4/3/2021 10:02:30 PM",
    "timestamp": 1617512550000,
    "description": "Rubbish Fire",
    "address": "507 NE NORTHGATE WAY",
    "active": false,
    "unitCount": 2,
    "severity": 0,
    "lat": 47.708611,
    "long": -122.325955,
    "neighborhood": "Northgate/Maple Leaf",
    "neighborhoodGroup": "North",
    "units": "E31 E39"
  },
  {
    "id_str": "F210031971",
    "created_at": "4/3/2021 9:46:36 PM",
    "timestamp": 1617511596000,
    "description": "Aid Response",
    "address": "1800 Yale Ave",
    "active": false,
    "unitCount": 1,
    "severity": 0,
    "lat": 47.617505,
    "long": -122.329699,
    "neighborhood": "Cascade/Eastlake",
    "neighborhoodGroup": "Lake Union",
    "units": "E25"
  },
  {
    "id_str": "F210031968",
    "created_at": "4/3/2021 9:40:39 PM",
    "timestamp": 1617511239000,
    "description": "Rescue Heavy Major",
    "address": "Sylvan Way Sw / Delridge Way Sw",
    "active": false,
    "unitCount": 21,
    "severity": 2,
    "lat": 47.53658,
    "long": -122.36131,
    "neighborhood": "High Point",
    "neighborhoodGroup": "Delridge Neighborhoods",
    "units": "A14 A25 AIR10 B2 B5 B7 DEP1 E11 E29 E32 E36 E37 L11 L3 L6 M28 M32 M44 R1 SAFT2 STAF10"
  },
  {
    "id_str": "F210031964",
    "created_at": "4/3/2021 9:32:29 PM",
    "timestamp": 1617510749000,
    "description": "Low Acuity Response",
    "address": "913 Lake Washington Blvd S",
    "active": false,
    "unitCount": 1,
    "severity": 0,
    "lat": 47.594514,
    "long": -122.289188,
    "neighborhood": "Madrona/Leschi",
    "neighborhoodGroup": "Central",
    "units": "E13"
  },
  {
    "id_str": "F210031963",
    "created_at": "4/3/2021 9:30:16 PM",
    "timestamp": 1617510616000,
    "description": "Medic Response",
    "address": "720 BLANCHARD ST",
    "active": false,
    "unitCount": 2,
    "severity": 0,
    "lat": 47.618693,
    "long": -122.342401,
    "neighborhood": "Cascade/Eastlake",
    "neighborhoodGroup": "Lake Union",
    "units": "E2 M17"
  },
  {
    "id_str": "F210031960",
    "created_at": "4/3/2021 9:28:00 PM",
    "timestamp": 1617510480000,
    "description": "Investigate Out Of Service",
    "address": "21st Ave Sw / Sw Brandon St",
    "active": false,
    "unitCount": 1,
    "severity": 0,
    "lat": 47.553713,
    "long": -122.360034,
    "neighborhood": "Riverview",
    "neighborhoodGroup": "Delridge Neighborhoods",
    "units": "E11"
  },
  {
    "id_str": "F210031958",
    "created_at": "4/3/2021 9:24:06 PM",
    "timestamp": 1617510246000,
    "description": "Unk Odor",
    "address": "2988 Sw Avalon Way",
    "active": false,
    "unitCount": 1,
    "severity": 0,
    "lat": 47.568611,
    "long": -122.370758,
    "neighborhood": "North Delridge",
    "neighborhoodGroup": "Delridge Neighborhoods",
    "units": "L3"
  },
  {
    "id_str": "F210031957",
    "created_at": "4/3/2021 9:20:40 PM",
    "timestamp": 1617510040000,
    "description": "Aid Response",
    "address": "500 Queen Anne Ave N",
    "active": false,
    "unitCount": 1,
    "severity": 0,
    "lat": 47.623277,
    "long": -122.35672,
    "neighborhood": "Queen Anne",
    "neighborhoodGroup": "Magnolia/Queen Anne",
    "units": "E8"
  },
  {
    "id_str": "F210031956",
    "created_at": "4/3/2021 9:18:51 PM",
    "timestamp": 1617509931000,
    "description": "Aid Response",
    "address": "409 23rd Ave S",
    "active": false,
    "unitCount": 1,
    "severity": 0,
    "lat": 47.599152,
    "long": -122.302233,
    "neighborhood": "Madrona/Leschi",
    "neighborhoodGroup": "Central",
    "units": "A10"
  },
  {
    "id_str": "F210031955",
    "created_at": "4/3/2021 9:17:59 PM",
    "timestamp": 1617509879000,
    "description": "Medic Response",
    "address": "131 N 74th St",
    "active": false,
    "unitCount": 2,
    "severity": 0,
    "lat": 47.682556,
    "long": -122.357559,
    "neighborhood": "Greenwood/Phinney Ridge",
    "neighborhoodGroup": "Northwest",
    "units": "E21 M31"
  },
  {
    "id_str": "F210031954",
    "created_at": "4/3/2021 9:14:00 PM",
    "timestamp": 1617509640000,
    "description": "Medic Response",
    "address": "548 15th Ave",
    "active": false,
    "unitCount": 2,
    "severity": 0,
    "lat": 47.606628,
    "long": -122.312857,
    "neighborhood": "First Hill",
    "neighborhoodGroup": "East",
    "units": "A25 M1"
  },
  {
    "id_str": "F210031952",
    "created_at": "4/3/2021 9:09:05 PM",
    "timestamp": 1617509345000,
    "description": "Aid Response",
    "address": "2821 S Walden St",
    "active": false,
    "unitCount": 1,
    "severity": 0,
    "lat": 47.572163,
    "long": -122.296173,
    "neighborhood": "Columbia City",
    "neighborhoodGroup": "Southeast",
    "units": "E30"
  },
  {
    "id_str": "F210031951",
    "created_at": "4/3/2021 9:08:49 PM",
    "timestamp": 1617509329000,
    "description": "Aid Response",
    "address": "4302 Sw Alaska St",
    "active": false,
    "unitCount": 1,
    "severity": 0,
    "lat": 47.561106,
    "long": -122.386792,
    "neighborhood": "West Seattle Junction/Genesee Hill",
    "neighborhoodGroup": "Southwest",
    "units": "E32"
  },
  {
    "id_str": "F210031949",
    "created_at": "4/3/2021 9:03:41 PM",
    "timestamp": 1617509021000,
    "description": "Aid Response",
    "address": "Ne 55th St / University Way Ne",
    "active": false,
    "unitCount": 1,
    "severity": 0,
    "lat": 47.668547,
    "long": -122.313018,
    "neighborhood": "University District",
    "neighborhoodGroup": "Northeast",
    "units": "E31"
  },
  {
    "id_str": "F210031948",
    "created_at": "4/3/2021 9:03:11 PM",
    "timestamp": 1617508991000,
    "description": "Medic Response",
    "address": "900 Hiawatha Pl S",
    "active": false,
    "unitCount": 2,
    "severity": 0,
    "lat": 47.594432,
    "long": -122.309121,
    "neighborhood": "North Beacon Hill/Jefferson Park",
    "neighborhoodGroup": "Greater Duwamish",
    "units": "E6 M10"
  },
  {
    "id_str": "F210031947",
    "created_at": "4/3/2021 9:02:40 PM",
    "timestamp": 1617508960000,
    "description": "Aid Response",
    "address": "2140 N Northgate Way",
    "active": false,
    "unitCount": 1,
    "severity": 0,
    "lat": 47.708656,
    "long": -122.3329,
    "neighborhood": "Northgate/Maple Leaf",
    "neighborhoodGroup": "North",
    "units": "E16"
  },
  {
    "id_str": "F210031946",
    "created_at": "4/3/2021 9:00:53 PM",
    "timestamp": 1617508853000,
    "description": "1RED 1 Unit",
    "address": "507 Ne Northgate Way",
    "active": false,
    "unitCount": 1,
    "severity": 0,
    "lat": 47.708594,
    "long": -122.323211,
    "neighborhood": "Northgate/Maple Leaf",
    "neighborhoodGroup": "North",
    "units": "E24"
  },
  {
    "id_str": "F210031945",
    "created_at": "4/3/2021 8:58:37 PM",
    "timestamp": 1617508717000,
    "description": "Aid Response",
    "address": "2436 S Graham St",
    "active": false,
    "unitCount": 2,
    "severity": 0,
    "lat": 47.546409,
    "long": -122.301701,
    "neighborhood": "Beacon Hill",
    "neighborhoodGroup": "Greater Duwamish",
    "units": "E28 L12"
  },
  {
    "id_str": "F210031944",
    "created_at": "4/3/2021 8:57:11 PM",
    "timestamp": 1617508631000,
    "description": "Aid Response",
    "address": "2614 4th Ave",
    "active": false,
    "unitCount": 1,
    "severity": 0,
    "lat": 47.617316,
    "long": -122.347229,
    "neighborhood": "Cascade/Eastlake",
    "neighborhoodGroup": "Lake Union",
    "units": "E2"
  },
  {
    "id_str": "F210031943",
    "created_at": "4/3/2021 8:52:23 PM",
    "timestamp": 1617508343000,
    "description": "Aid Response",
    "address": "10203 47th Ave Sw",
    "active": false,
    "unitCount": 1,
    "severity": 0,
    "lat": 47.511811,
    "long": -122.392922,
    "neighborhood": "Arbor Heights",
    "neighborhoodGroup": "Southwest",
    "units": "E34"
  },
  {
    "id_str": "F210031942",
    "created_at": "4/3/2021 8:48:10 PM",
    "timestamp": 1617508090000,
    "description": "Aid Response",
    "address": "5041 Rainier Ave S",
    "active": false,
    "unitCount": 1,
    "severity": 0,
    "lat": 47.556541,
    "long": -122.284204,
    "neighborhood": "Columbia City",
    "neighborhoodGroup": "Southeast",
    "units": "E28"
  },
  {
    "id_str": "F210031941",
    "created_at": "4/3/2021 8:34:47 PM",
    "timestamp": 1617507287000,
    "description": "Automatic Fire Alarm Resd",
    "address": "1743 Nw 63rd St",
    "active": false,
    "unitCount": 1,
    "severity": 0,
    "lat": 47.674551,
    "long": -122.379339,
    "neighborhood": "Whittier Heights",
    "neighborhoodGroup": "Ballard",
    "units": "E18"
  },
  {
    "id_str": "F210031940",
    "created_at": "4/3/2021 8:33:41 PM",
    "timestamp": 1617507221000,
    "description": "Aid Response",
    "address": "415 10th Ave",
    "active": false,
    "unitCount": 1,
    "severity": 0,
    "lat": 47.605346,
    "long": -122.319413,
    "neighborhood": "First Hill",
    "neighborhoodGroup": "East",
    "units": "E25"
  },
  {
    "id_str": "F210031937",
    "created_at": "4/3/2021 8:17:25 PM",
    "timestamp": 1617506245000,
    "description": "Aid Response",
    "address": "4719 12th Ave Ne",
    "active": false,
    "unitCount": 1,
    "severity": 0,
    "lat": 47.663215,
    "long": -122.315262,
    "neighborhood": "University District",
    "neighborhoodGroup": "Northeast",
    "units": "E17"
  },
  {
    "id_str": "F210031936",
    "created_at": "4/3/2021 8:16:46 PM",
    "timestamp": 1617506206000,
    "description": "Aid Response",
    "address": "S DEARBORN ST / CORWIN PL S",
    "active": false,
    "unitCount": 1,
    "severity": 0,
    "lat": 47.596654,
    "long": -122.314056,
    "neighborhood": "Judkins Park",
    "neighborhoodGroup": "Central",
    "units": "A10"
  },
  {
    "id_str": "F210031933",
    "created_at": "4/3/2021 8:10:55 PM",
    "timestamp": 1617505855000,
    "description": "Medic Response",
    "address": "5611 Beach Dr Sw",
    "active": false,
    "unitCount": 3,
    "severity": 0,
    "lat": 47.552889,
    "long": -122.398061,
    "neighborhood": "Fauntleroy/Seaview",
    "neighborhoodGroup": "Southwest",
    "units": "E13 M26 M32"
  },
  {
    "id_str": "F210031930",
    "created_at": "4/3/2021 7:58:01 PM",
    "timestamp": 1617505081000,
    "description": "Medic Response",
    "address": "7345 Delridge Way Sw",
    "active": false,
    "unitCount": 3,
    "severity": 0,
    "lat": 47.536381,
    "long": -122.361331,
    "neighborhood": "High Point",
    "neighborhoodGroup": "Delridge Neighborhoods",
    "units": "E34 M26 M32"
  },
  {
    "id_str": "F210031927",
    "created_at": "4/3/2021 7:55:55 PM",
    "timestamp": 1617504955000,
    "description": "Medic Response",
    "address": "6561 Phinney Ave N",
    "active": false,
    "unitCount": 2,
    "severity": 0,
    "lat": 47.677068,
    "long": -122.354359,
    "neighborhood": "Greenwood/Phinney Ridge",
    "neighborhoodGroup": "Northwest",
    "units": "E21 M18"
  },
  {
    "id_str": "F210031924",
    "created_at": "4/3/2021 7:51:22 PM",
    "timestamp": 1617504682000,
    "description": "Medic Response, 6 per Rule",
    "address": "Airport Way S / S Bradford St",
    "active": false,
    "unitCount": 3,
    "severity": 0,
    "lat": 47.568951,
    "long": -122.322693,
    "neighborhood": "Duwamish/SODO",
    "neighborhoodGroup": "Greater Duwamish",
    "units": "E20 E5 M1"
  },
  {
    "id_str": "F210031923",
    "created_at": "4/3/2021 7:43:54 PM",
    "timestamp": 1617504234000,
    "description": "MVI - Motor Vehicle Incident",
    "address": "4th Ave / Cherry St",
    "active": false,
    "unitCount": 1,
    "severity": 0,
    "lat": 47.603948,
    "long": -122.330952,
    "neighborhood": "Downtown Commercial Core",
    "neighborhoodGroup": "Downtown",
    "units": "L4"
  },
  {
    "id_str": "F210031921",
    "created_at": "4/3/2021 7:37:39 PM",
    "timestamp": 1617503859000,
    "description": "Aid Response",
    "address": "9th Ave / Jefferson St",
    "active": false,
    "unitCount": 1,
    "severity": 0,
    "lat": 47.604841,
    "long": -122.324097,
    "neighborhood": "First Hill",
    "neighborhoodGroup": "East",
    "units": "E25"
  },
  {
    "id_str": "F210031920",
    "created_at": "4/3/2021 7:37:01 PM",
    "timestamp": 1617503821000,
    "description": "Aid Response",
    "address": "15th Ave Nw / Nw 85th St",
    "active": false,
    "unitCount": 2,
    "severity": 0,
    "lat": 47.690609,
    "long": -122.376806,
    "neighborhood": "Whittier Heights",
    "neighborhoodGroup": "Ballard",
    "units": "A10 E35"
  },
  {
    "id_str": "F210031919",
    "created_at": "4/3/2021 7:30:00 PM",
    "timestamp": 1617503400000,
    "description": "Aid Response",
    "address": "2928 1st Ave",
    "active": false,
    "unitCount": 1,
    "severity": 0,
    "lat": 47.617133,
    "long": -122.352872,
    "neighborhood": "Belltown",
    "neighborhoodGroup": "Downtown",
    "units": "E8"
  },
  {
    "id_str": "F210031917",
    "created_at": "4/3/2021 7:28:12 PM",
    "timestamp": 1617503292000,
    "description": "Aid Response",
    "address": "1730 22nd Ave",
    "active": false,
    "unitCount": 1,
    "severity": 0,
    "lat": 47.617243,
    "long": -122.303735,
    "neighborhood": "Central Area/Squire Park",
    "neighborhoodGroup": "Central",
    "units": "A25"
  },
  {
    "id_str": "F210031915",
    "created_at": "4/3/2021 7:15:58 PM",
    "timestamp": 1617502558000,
    "description": "Aid Response",
    "address": "3222 RAINIER AVE S",
    "active": false,
    "unitCount": 1,
    "severity": 0,
    "lat": 47.574826,
    "long": -122.295462,
    "neighborhood": "Mt. Baker/North Rainier",
    "neighborhoodGroup": "Southeast",
    "units": "E40"
  },
  {
    "id_str": "F210031914",
    "created_at": "4/3/2021 7:14:44 PM",
    "timestamp": 1617502484000,
    "description": "Low Acuity Response",
    "address": "12537 Lake City Way Ne",
    "active": false,
    "unitCount": 1,
    "severity": 0,
    "lat": 47.719608,
    "long": -122.295038,
    "neighborhood": "Cedar Park/Meadowbrook",
    "neighborhoodGroup": "North",
    "units": "E39"
  },
  {
    "id_str": "F210031911",
    "created_at": "4/3/2021 7:10:08 PM",
    "timestamp": 1617502208000,
    "description": "Aid Response",
    "address": "2900 3rd Ave W",
    "active": false,
    "unitCount": 1,
    "severity": 0,
    "lat": 47.645803,
    "long": -122.360896,
    "neighborhood": "Queen Anne",
    "neighborhoodGroup": "Magnolia/Queen Anne",
    "units": "E9"
  },
  {
    "id_str": "F210031910",
    "created_at": "4/3/2021 7:09:48 PM",
    "timestamp": 1617502188000,
    "description": "Aid Response",
    "address": "318 2nd Ave Et S",
    "active": false,
    "unitCount": 2,
    "severity": 0,
    "lat": 47.600194,
    "long": -122.330541,
    "neighborhood": "Pioneer Square/International District",
    "neighborhoodGroup": "Downtown",
    "units": "A10 L9"
  },
  {
    "id_str": "F210031912",
    "created_at": "4/3/2021 7:09:43 PM",
    "timestamp": 1617502183000,
    "description": "Illegal Burn",
    "address": "Jesse Ave W / 11th Ave W",
    "active": false,
    "unitCount": 1,
    "severity": 0,
    "lat": 47.652601,
    "long": -122.371535,
    "neighborhood": "Queen Anne",
    "neighborhoodGroup": "Magnolia/Queen Anne",
    "units": "E18"
  },
  {
    "id_str": "F210031907",
    "created_at": "4/3/2021 6:58:24 PM",
    "timestamp": 1617501504000,
    "description": "Aid Response",
    "address": "2300 Sw Webster St",
    "active": false,
    "unitCount": 1,
    "severity": 0,
    "lat": 47.535515,
    "long": -122.36216,
    "neighborhood": "High Point",
    "neighborhoodGroup": "Delridge Neighborhoods",
    "units": "E26"
  },
  {
    "id_str": "F210031906",
    "created_at": "4/3/2021 6:49:57 PM",
    "timestamp": 1617500997000,
    "description": "Aid Response",
    "address": "2208 15th Ave W",
    "active": false,
    "unitCount": 1,
    "severity": 0,
    "lat": 47.638695,
    "long": -122.376149,
    "neighborhood": "Interbay",
    "neighborhoodGroup": "Magnolia/Queen Anne",
    "units": "E20"
  },
  {
    "id_str": "F210031904",
    "created_at": "4/3/2021 6:46:03 PM",
    "timestamp": 1617500763000,
    "description": "Aid Response",
    "address": "910 Sw Kenyon St",
    "active": false,
    "unitCount": 1,
    "severity": 0,
    "lat": 47.531935,
    "long": -122.346896,
    "neighborhood": "Highland Park",
    "neighborhoodGroup": "Delridge Neighborhoods",
    "units": "A25"
  },
  {
    "id_str": "F210031902",
    "created_at": "4/3/2021 6:44:05 PM",
    "timestamp": 1617500645000,
    "description": "RMC Chief",
    "address": "301 2nd Ave S",
    "active": false,
    "unitCount": 1,
    "severity": 0,
    "lat": 47.600032,
    "long": -122.331573,
    "neighborhood": "Pioneer Square/International District",
    "neighborhoodGroup": "Downtown",
    "units": "B6"
  },
  {
    "id_str": "F210031901",
    "created_at": "4/3/2021 6:42:43 PM",
    "timestamp": 1617500563000,
    "description": "Medic Response",
    "address": "6846 Oswego Pl Ne",
    "active": false,
    "unitCount": 3,
    "severity": 0,
    "lat": 47.678165,
    "long": -122.322737,
    "neighborhood": "Green Lake",
    "neighborhoodGroup": "Northwest",
    "units": "E16 M10 M17"
  },
  {
    "id_str": "F210031900",
    "created_at": "4/3/2021 6:41:15 PM",
    "timestamp": 1617500475000,
    "description": "Aid Response",
    "address": "2909 1st Ave",
    "active": false,
    "unitCount": 1,
    "severity": 0,
    "lat": 47.616982,
    "long": -122.352615,
    "neighborhood": "Belltown",
    "neighborhoodGroup": "Downtown",
    "units": "E8"
  },
  {
    "id_str": "F210031899",
    "created_at": "4/3/2021 6:39:11 PM",
    "timestamp": 1617500351000,
    "description": "1RED 1 Unit",
    "address": "1219 S Cloverdale St",
    "active": false,
    "unitCount": 1,
    "severity": 0,
    "lat": 47.526448,
    "long": -122.317326,
    "neighborhood": "South Park",
    "neighborhoodGroup": "Greater Duwamish",
    "units": "E28"
  },
  {
    "id_str": "F210031898",
    "created_at": "4/3/2021 6:38:53 PM",
    "timestamp": 1617500333000,
    "description": "Rescue Elevator",
    "address": "151 John St",
    "active": false,
    "unitCount": 1,
    "severity": 0,
    "lat": 47.619764,
    "long": -122.354111,
    "neighborhood": "Queen Anne",
    "neighborhoodGroup": "Magnolia/Queen Anne",
    "units": "L4"
  },
  {
    "id_str": "F210031896",
    "created_at": "4/3/2021 6:30:38 PM",
    "timestamp": 1617499838000,
    "description": "Aid Response",
    "address": "1751 Airport Way S",
    "active": false,
    "unitCount": 1,
    "severity": 0,
    "lat": 47.587752,
    "long": -122.321392,
    "neighborhood": "Duwamish/SODO",
    "neighborhoodGroup": "Greater Duwamish",
    "units": "A10"
  },
  {
    "id_str": "F210031894",
    "created_at": "4/3/2021 6:27:40 PM",
    "timestamp": 1617499660000,
    "description": "Automatic Fire Alarm Resd",
    "address": "4559 12th Ave S",
    "active": false,
    "unitCount": 1,
    "severity": 0,
    "lat": 47.562426,
    "long": -122.317357,
    "neighborhood": "Duwamish/SODO",
    "neighborhoodGroup": "Greater Duwamish",
    "units": "E30"
  },
  {
    "id_str": "F210031890",
    "created_at": "4/3/2021 6:24:20 PM",
    "timestamp": 1617499460000,
    "description": "Fire in Building",
    "address": "3295 Sw Avalon Way",
    "active": false,
    "unitCount": 33,
    "severity": 2,
    "lat": 47.56411,
    "long": -122.373469,
    "neighborhood": "North Delridge",
    "neighborhoodGroup": "Delridge Neighborhoods",
    "units": "240-260 A14 AIR AIR10 B2 B5 B7 DEP1 E10 E11 E13 E2 E26 E29 E30 E32 E36 E37 E5 L1 L10 L11 L13 L3 L9 M32 M44 MAR5 PIO R1 REHAB1 SAFT2 STAF10"
  },
  {
    "id_str": "F210031889",
    "created_at": "4/3/2021 6:22:15 PM",
    "timestamp": 1617499335000,
    "description": "Medic Response, 7 per Rule",
    "address": "6415 9th Ave Ne",
    "active": false,
    "unitCount": 4,
    "severity": 0,
    "lat": 47.675108,
    "long": -122.318703,
    "neighborhood": "Green Lake",
    "neighborhoodGroup": "Northwest",
    "units": "CHAP5 E17 E31 M31"
  },
  {
    "id_str": "F210031888",
    "created_at": "4/3/2021 6:07:17 PM",
    "timestamp": 1617498437000,
    "description": "Aid Response",
    "address": "13045 37th Ave Ne",
    "active": false,
    "unitCount": 1,
    "severity": 0,
    "lat": 47.72328,
    "long": -122.288609,
    "neighborhood": "Cedar Park/Meadowbrook",
    "neighborhoodGroup": "North",
    "units": "E39"
  },
  {
    "id_str": "F210031887",
    "created_at": "4/3/2021 6:02:53 PM",
    "timestamp": 1617498173000,
    "description": "Aid Response",
    "address": "113 23rd Ave S",
    "active": false,
    "unitCount": 1,
    "severity": 0,
    "lat": 47.601601,
    "long": -122.302284,
    "neighborhood": "Madrona/Leschi",
    "neighborhoodGroup": "Central",
    "units": "E6"
  },
  {
    "id_str": "F210031886",
    "created_at": "4/3/2021 6:02:24 PM",
    "timestamp": 1617498144000,
    "description": "Aid Response",
    "address": "2650 52nd Ave Sw",
    "active": false,
    "unitCount": 1,
    "severity": 0,
    "lat": 47.58051,
    "long": -122.39839,
    "neighborhood": "West Seattle Junction/Genesee Hill",
    "neighborhoodGroup": "Southwest",
    "units": "E29"
  },
  {
    "id_str": "F210031884",
    "created_at": "4/3/2021 6:00:49 PM",
    "timestamp": 1617498049000,
    "description": "Aid Response",
    "address": "11027 Meridian Ave N",
    "active": false,
    "unitCount": 1,
    "severity": 0,
    "lat": 47.708782,
    "long": -122.333995,
    "neighborhood": "Northgate/Maple Leaf",
    "neighborhoodGroup": "North",
    "units": "E24"
  },
  {
    "id_str": "F210031883",
    "created_at": "4/3/2021 5:52:56 PM",
    "timestamp": 1617497576000,
    "description": "Aid Response",
    "address": "905 Ne 66th St",
    "active": false,
    "unitCount": 1,
    "severity": 0,
    "lat": 47.676566,
    "long": -122.31865,
    "neighborhood": "Green Lake",
    "neighborhoodGroup": "Northwest",
    "units": "E16"
  },
  {
    "id_str": "F210031881",
    "created_at": "4/3/2021 5:45:39 PM",
    "timestamp": 1617497139000,
    "description": "Low Acuity Response",
    "address": "1902 2nd Ave",
    "active": false,
    "unitCount": 2,
    "severity": 0,
    "lat": 47.610972,
    "long": -122.340465,
    "neighborhood": "Belltown",
    "neighborhoodGroup": "Downtown",
    "units": "E2 E25"
  },
  {
    "id_str": "F210031880",
    "created_at": "4/3/2021 5:43:01 PM",
    "timestamp": 1617496981000,
    "description": "Medic Response",
    "address": "8343 Jones Ave Nw",
    "active": false,
    "unitCount": 2,
    "severity": 0,
    "lat": 47.689099,
    "long": -122.386481,
    "neighborhood": "Sunset Hill/Loyal Heights",
    "neighborhoodGroup": "Ballard",
    "units": "E35 M17"
  },
  {
    "id_str": "F210031877",
    "created_at": "4/3/2021 5:41:36 PM",
    "timestamp": 1617496896000,
    "description": "4RED - 2 + 1 + 1",
    "address": "203 Pike St",
    "active": false,
    "unitCount": 4,
    "severity": 0,
    "lat": 47.609299,
    "long": -122.33887,
    "neighborhood": "Downtown Commercial Core",
    "neighborhoodGroup": "Downtown",
    "units": "B2 E2 E5 L4"
  },
  {
    "id_str": "F210031876",
    "created_at": "4/3/2021 5:41:20 PM",
    "timestamp": 1617496880000,
    "description": "Aid Response",
    "address": "2437 S Morgan St",
    "active": false,
    "unitCount": 1,
    "severity": 0,
    "lat": 47.544286,
    "long": -122.301878,
    "neighborhood": "South Beacon Hill/NewHolly",
    "neighborhoodGroup": "Greater Duwamish",
    "units": "E27"
  },
  {
    "id_str": "F210031878",
    "created_at": "4/3/2021 5:40:27 PM",
    "timestamp": 1617496827000,
    "description": "Natural Gas Odor",
    "address": "1660 S Columbian Way",
    "active": false,
    "unitCount": 1,
    "severity": 0,
    "lat": 47.561845,
    "long": -122.310824,
    "neighborhood": "North Beacon Hill/Jefferson Park",
    "neighborhoodGroup": "Greater Duwamish",
    "units": "R1"
  },
  {
    "id_str": "F210031875",
    "created_at": "4/3/2021 5:33:51 PM",
    "timestamp": 1617496431000,
    "description": "Aid Response",
    "address": "720 25th Ave",
    "active": false,
    "unitCount": 1,
    "severity": 0,
    "lat": 47.608172,
    "long": -122.300168,
    "neighborhood": "Central Area/Squire Park",
    "neighborhoodGroup": "Central",
    "units": "E6"
  },
  {
    "id_str": "F210031874",
    "created_at": "4/3/2021 5:33:33 PM",
    "timestamp": 1617496413000,
    "description": "Aid Response",
    "address": "301 Mercer St",
    "active": false,
    "unitCount": 1,
    "severity": 0,
    "lat": 47.62457,
    "long": -122.351461,
    "neighborhood": "Cascade/Eastlake",
    "neighborhoodGroup": "Lake Union",
    "units": "E8"
  },
  {
    "id_str": "F210031873",
    "created_at": "4/3/2021 5:27:31 PM",
    "timestamp": 1617496051000,
    "description": "Aid Response",
    "address": "8817 41st Ave Sw",
    "active": false,
    "unitCount": 1,
    "severity": 0,
    "lat": 47.523982,
    "long": -122.384595,
    "neighborhood": "Fauntleroy/Seaview",
    "neighborhoodGroup": "Southwest",
    "units": "E37"
  },
  {
    "id_str": "F210031872",
    "created_at": "4/3/2021 5:26:45 PM",
    "timestamp": 1617496005000,
    "description": "Aid Response",
    "address": "503 S Royal Brougham Way",
    "active": false,
    "unitCount": 3,
    "severity": 0,
    "lat": 47.592399,
    "long": -122.327256,
    "neighborhood": "Duwamish/SODO",
    "neighborhoodGroup": "Greater Duwamish",
    "units": "E10 M1 M17"
  },
  {
    "id_str": "F210031870",
    "created_at": "4/3/2021 5:24:38 PM",
    "timestamp": 1617495878000,
    "description": "Medic Response",
    "address": "1711 E Olive Way",
    "active": false,
    "unitCount": 3,
    "severity": 0,
    "lat": 47.619869,
    "long": -122.323072,
    "neighborhood": "Capitol Hill",
    "neighborhoodGroup": "East",
    "units": "A25 E25 M10"
  },
  {
    "id_str": "F210031868",
    "created_at": "4/3/2021 5:23:33 PM",
    "timestamp": 1617495813000,
    "description": "Aid Response",
    "address": "509 3rd Ave",
    "active": false,
    "unitCount": 2,
    "severity": 0,
    "lat": 47.602114,
    "long": -122.330809,
    "neighborhood": "Downtown Commercial Core",
    "neighborhoodGroup": "Downtown",
    "units": "A10 L1"
  },
  {
    "id_str": "F210031867",
    "created_at": "4/3/2021 5:22:58 PM",
    "timestamp": 1617495778000,
    "description": "Rubbish Fire",
    "address": "S MICHIGAN ST / EAST MARGINAL WAY S",
    "active": false,
    "unitCount": 2,
    "severity": 0,
    "lat": 47.538315,
    "long": -122.334445,
    "neighborhood": "South Park",
    "neighborhoodGroup": "Greater Duwamish",
    "units": "E11 E27"
  },
  {
    "id_str": "F210031865",
    "created_at": "4/3/2021 5:21:58 PM",
    "timestamp": 1617495718000,
    "description": "Aid Response",
    "address": "11223 Cornell Ave S",
    "active": false,
    "unitCount": 1,
    "severity": 0,
    "lat": 47.502721,
    "long": -122.241242,
    "units": "E33"
  },
  {
    "id_str": "F210031864",
    "created_at": "4/3/2021 5:21:31 PM",
    "timestamp": 1617495691000,
    "description": "Low Acuity Response",
    "address": "3501 Rainier Ave S",
    "active": false,
    "unitCount": 1,
    "severity": 0,
    "lat": 47.571853,
    "long": -122.293193,
    "neighborhood": "Columbia City",
    "neighborhoodGroup": "Southeast",
    "units": "E30"
  },
  {
    "id_str": "F210031863",
    "created_at": "4/3/2021 5:20:15 PM",
    "timestamp": 1617495615000,
    "description": "Low Acuity Response",
    "address": "12532 35th Ave Ne",
    "active": false,
    "unitCount": 1,
    "severity": 0,
    "lat": 47.719684,
    "long": -122.290774,
    "neighborhood": "Cedar Park/Meadowbrook",
    "neighborhoodGroup": "North",
    "units": "E39"
  },
  {
    "id_str": "F210031861",
    "created_at": "4/3/2021 5:13:59 PM",
    "timestamp": 1617495239000,
    "description": "Aid Response",
    "address": "Sw Graham St / Fauntleroy Way Sw",
    "active": false,
    "unitCount": 1,
    "severity": 0,
    "lat": 47.54663,
    "long": -122.383135,
    "neighborhood": "Fauntleroy/Seaview",
    "neighborhoodGroup": "Southwest",
    "units": "E32"
  }
]