[
  {
    "id_str": "F210063361",
    "created_at": "6/21/2021 4:52:59 PM",
    "timestamp": 1624319579000,
    "description": "Aid Response",
    "address": "2315 38th Ave E",
    "active": false,
    "unitCount": 1,
    "severity": 0,
    "lat": 47.639682,
    "long": -122.284855,
    "neighborhood": "Madison Park",
    "neighborhoodGroup": "East",
    "units": "E34"
  },
  {
    "id_str": "F210063360",
    "created_at": "6/21/2021 4:48:27 PM",
    "timestamp": 1624319307000,
    "description": "Aid Response",
    "address": "9200 2nd Ave Sw",
    "active": false,
    "unitCount": 1,
    "severity": 0,
    "lat": 47.521244,
    "long": -122.336301,
    "neighborhood": "Highland Park",
    "neighborhoodGroup": "Delridge Neighborhoods",
    "units": "E26"
  },
  {
    "id_str": "F210063358",
    "created_at": "6/21/2021 4:42:05 PM",
    "timestamp": 1624318925000,
    "description": "AFA4 - Auto Alarm 2 + 1 + 1",
    "address": "4050 East Marginal Way S",
    "active": false,
    "unitCount": 4,
    "severity": 0,
    "lat": 47.565899,
    "long": -122.339438,
    "neighborhood": "Duwamish/SODO",
    "neighborhoodGroup": "Greater Duwamish",
    "units": "B2 E13 E36 R1"
  },
  {
    "id_str": "F210063357",
    "created_at": "6/21/2021 4:41:21 PM",
    "timestamp": 1624318881000,
    "description": "Aid Response",
    "address": "800 Queen Anne Ave N",
    "active": false,
    "unitCount": 1,
    "severity": 0,
    "lat": 47.626705,
    "long": -122.356694,
    "neighborhood": "Queen Anne",
    "neighborhoodGroup": "Magnolia/Queen Anne",
    "units": "E8"
  },
  {
    "id_str": "F210063356",
    "created_at": "6/21/2021 4:39:08 PM",
    "timestamp": 1624318748000,
    "description": "Aid Response",
    "address": "Eastlake Ave E / E Lynn St",
    "active": false,
    "unitCount": 1,
    "severity": 0,
    "lat": 47.639727,
    "long": -122.325891,
    "neighborhood": "Montlake/Portage Bay",
    "neighborhoodGroup": "Northeast",
    "units": "A2"
  },
  {
    "id_str": "F210063355",
    "created_at": "6/21/2021 4:38:38 PM",
    "timestamp": 1624318718000,
    "description": "Medic Response",
    "address": "1st Ave / Pike St",
    "active": false,
    "unitCount": 3,
    "severity": 0,
    "lat": 47.608821,
    "long": -122.340013,
    "neighborhood": "Downtown Commercial Core",
    "neighborhoodGroup": "Downtown",
    "units": "E5 M1 M18"
  },
  {
    "id_str": "F210063354",
    "created_at": "6/21/2021 4:35:31 PM",
    "timestamp": 1624318531000,
    "description": "Aid Response",
    "address": "14002 Linden Ave N",
    "active": false,
    "unitCount": 1,
    "severity": 0,
    "lat": 47.730569,
    "long": -122.347758,
    "neighborhood": "Broadview/Bitter Lake",
    "neighborhoodGroup": "Northwest",
    "units": "E24"
  },
  {
    "id_str": "F210063352",
    "created_at": "6/21/2021 4:34:48 PM",
    "timestamp": 1624318488000,
    "description": "Aid Response",
    "address": "3716 S Angeline St",
    "active": false,
    "unitCount": 1,
    "severity": 0,
    "lat": 47.559462,
    "long": -122.285213,
    "neighborhood": "Columbia City",
    "neighborhoodGroup": "Southeast",
    "units": "E28"
  },
  {
    "id_str": "F210063350",
    "created_at": "6/21/2021 4:21:11 PM",
    "timestamp": 1624317671000,
    "description": "Aid Response",
    "address": "315 5TH AVE S",
    "active": false,
    "unitCount": 1,
    "severity": 0,
    "lat": 47.599906,
    "long": -122.327664,
    "neighborhood": "Pioneer Square/International District",
    "neighborhoodGroup": "Downtown",
    "units": "A5"
  },
  {
    "id_str": "F210063349",
    "created_at": "6/21/2021 4:12:03 PM",
    "timestamp": 1624317123000,
    "description": "Aid Response",
    "address": "5th Ave N / Mercer St",
    "active": false,
    "unitCount": 1,
    "severity": 0,
    "lat": 47.624495,
    "long": -122.347568,
    "neighborhood": "Cascade/Eastlake",
    "neighborhoodGroup": "Lake Union",
    "units": "L4"
  },
  {
    "id_str": "F210063348",
    "created_at": "6/21/2021 4:11:04 PM",
    "timestamp": 1624317064000,
    "description": "Aid Response",
    "address": "Alki Ave Sw / 55th Ave Sw",
    "active": false,
    "unitCount": 1,
    "severity": 0,
    "lat": 47.582432,
    "long": -122.402601,
    "neighborhood": "West Seattle Junction/Genesee Hill",
    "neighborhoodGroup": "Southwest",
    "units": "E36"
  },
  {
    "id_str": "F210063346",
    "created_at": "6/21/2021 4:02:08 PM",
    "timestamp": 1624316528000,
    "description": "Aid Response",
    "address": "10690 Riviera Pl Ne",
    "active": false,
    "unitCount": 2,
    "severity": 0,
    "lat": 47.707781,
    "long": -122.275472,
    "neighborhood": "Cedar Park/Meadowbrook",
    "neighborhoodGroup": "North",
    "units": "E21 E40"
  },
  {
    "id_str": "F210063345",
    "created_at": "6/21/2021 4:01:40 PM",
    "timestamp": 1624316500000,
    "description": "Aid Response",
    "address": "5815 Ne 77th St",
    "active": false,
    "unitCount": 3,
    "severity": 0,
    "lat": 47.684664,
    "long": -122.265595,
    "neighborhood": "Wedgwood/View Ridge",
    "neighborhoodGroup": "Northeast",
    "units": "E21 E22 E40"
  },
  {
    "id_str": "F210063340",
    "created_at": "6/21/2021 3:59:09 PM",
    "timestamp": 1624316349000,
    "description": "Aid Response",
    "address": "200 2nd Ave N",
    "active": false,
    "unitCount": 2,
    "severity": 0,
    "lat": 47.619759,
    "long": -122.35283,
    "neighborhood": "Queen Anne",
    "neighborhoodGroup": "Magnolia/Queen Anne",
    "units": "A4 E8"
  },
  {
    "id_str": "F210063339",
    "created_at": "6/21/2021 3:57:54 PM",
    "timestamp": 1624316274000,
    "description": "Investigate Out Of Service",
    "address": "3415 W Elmore St",
    "active": false,
    "unitCount": 1,
    "severity": 0,
    "lat": 47.65768,
    "long": -122.401619,
    "neighborhood": "Magnolia",
    "neighborhoodGroup": "Magnolia/Queen Anne",
    "units": "E41"
  },
  {
    "id_str": "F210063338",
    "created_at": "6/21/2021 3:57:05 PM",
    "timestamp": 1624316225000,
    "description": "Aid Response",
    "address": "1016 Republican St",
    "active": false,
    "unitCount": 1,
    "severity": 0,
    "lat": 47.623204,
    "long": -122.336929,
    "neighborhood": "Cascade/Eastlake",
    "neighborhoodGroup": "Lake Union",
    "units": "A2"
  },
  {
    "id_str": "F210063337",
    "created_at": "6/21/2021 3:57:01 PM",
    "timestamp": 1624316221000,
    "description": "Automatic Fire Alarm Resd",
    "address": "6415 Ne Windermere Rd",
    "active": false,
    "unitCount": 1,
    "severity": 0,
    "lat": 47.669133,
    "long": -122.259298,
    "neighborhood": "Laurelhurst/Sand Point",
    "neighborhoodGroup": "Northeast",
    "units": "E22"
  },
  {
    "id_str": "F210063336",
    "created_at": "6/21/2021 3:53:00 PM",
    "timestamp": 1624315980000,
    "description": "MVI - Motor Vehicle Incident",
    "address": "Dayton Ave N / N 107th St",
    "active": false,
    "unitCount": 1,
    "severity": 0,
    "lat": 47.706891,
    "long": -122.352789,
    "neighborhood": "North Beach/Blue Ridge",
    "neighborhoodGroup": "Ballard",
    "units": "E24"
  },
  {
    "id_str": "F210063333",
    "created_at": "6/21/2021 3:49:41 PM",
    "timestamp": 1624315781000,
    "description": "Medic Response",
    "address": "2580 Ne University Village St",
    "active": false,
    "unitCount": 2,
    "severity": 0,
    "lat": 47.663273,
    "long": -122.300038,
    "neighborhood": "Ravenna/Bryant",
    "neighborhoodGroup": "Northeast",
    "units": "E17 M10"
  },
  {
    "id_str": "F210063332",
    "created_at": "6/21/2021 3:48:42 PM",
    "timestamp": 1624315722000,
    "description": "Medic Response",
    "address": "2717 Dexter Ave N",
    "active": false,
    "unitCount": 2,
    "severity": 0,
    "lat": 47.644374,
    "long": -122.346913,
    "neighborhood": "Queen Anne",
    "neighborhoodGroup": "Magnolia/Queen Anne",
    "units": "E9 M18"
  },
  {
    "id_str": "F210063329",
    "created_at": "6/21/2021 3:42:50 PM",
    "timestamp": 1624315370000,
    "description": "Aid Response",
    "address": "12501 Greenwood Ave N",
    "active": false,
    "unitCount": 1,
    "severity": 0,
    "lat": 47.719601,
    "long": -122.355539,
    "neighborhood": "Broadview/Bitter Lake",
    "neighborhoodGroup": "Northwest",
    "units": "A31"
  },
  {
    "id_str": "F210063330",
    "created_at": "6/21/2021 3:40:42 PM",
    "timestamp": 1624315242000,
    "description": "Medic Response",
    "address": "43rd Ave E / E Madison St",
    "active": false,
    "unitCount": 2,
    "severity": 0,
    "lat": 47.636387,
    "long": -122.27712,
    "neighborhood": "Madison Park",
    "neighborhoodGroup": "East",
    "units": "E34 M1"
  },
  {
    "id_str": "F210063327",
    "created_at": "6/21/2021 3:37:21 PM",
    "timestamp": 1624315041000,
    "description": "Medic Response",
    "address": "1213 Valley St",
    "active": false,
    "unitCount": 2,
    "severity": 0,
    "lat": 47.625954,
    "long": -122.332339,
    "neighborhood": "Cascade/Eastlake",
    "neighborhoodGroup": "Lake Union",
    "units": "L4 M31"
  },
  {
    "id_str": "F210063326",
    "created_at": "6/21/2021 3:36:28 PM",
    "timestamp": 1624314988000,
    "description": "Aid Response",
    "address": "1902 2nd Ave",
    "active": false,
    "unitCount": 1,
    "severity": 0,
    "lat": 47.610972,
    "long": -122.340465,
    "neighborhood": "Belltown",
    "neighborhoodGroup": "Downtown",
    "units": "E2"
  },
  {
    "id_str": "F210063325",
    "created_at": "6/21/2021 3:35:46 PM",
    "timestamp": 1624314946000,
    "description": "Aid Response",
    "address": "1021 Ne 120th St",
    "active": false,
    "unitCount": 2,
    "severity": 0,
    "lat": 47.715813,
    "long": -122.31648,
    "neighborhood": "Haller Lake",
    "neighborhoodGroup": "Northwest",
    "units": "A25 L5"
  },
  {
    "id_str": "F210063324",
    "created_at": "6/21/2021 3:33:06 PM",
    "timestamp": 1624314786000,
    "description": "Low Acuity Response",
    "address": "3334 34th Ave S",
    "active": false,
    "unitCount": 1,
    "severity": 0,
    "lat": 47.573325,
    "long": -122.2899,
    "neighborhood": "Mt. Baker/North Rainier",
    "neighborhoodGroup": "Southeast",
    "units": "E13"
  },
  {
    "id_str": "F210063322",
    "created_at": "6/21/2021 3:26:59 PM",
    "timestamp": 1624314419000,
    "description": "Aid Response",
    "address": "1100 Olive Way",
    "active": false,
    "unitCount": 1,
    "severity": 0,
    "lat": 47.61545,
    "long": -122.33073,
    "neighborhood": "First Hill",
    "neighborhoodGroup": "East",
    "units": "A4"
  },
  {
    "id_str": "F210063321",
    "created_at": "6/21/2021 3:23:48 PM",
    "timestamp": 1624314228000,
    "description": "Investigate Out Of Service",
    "address": "8538 Stone Ave N",
    "active": false,
    "unitCount": 1,
    "severity": 0,
    "lat": 47.690764,
    "long": -122.341298,
    "neighborhood": "Licton Springs",
    "neighborhoodGroup": "Northwest",
    "units": "E21"
  },
  {
    "id_str": "F210063320",
    "created_at": "6/21/2021 3:22:24 PM",
    "timestamp": 1624314144000,
    "description": "Auto Fire Alarm",
    "address": "1305 E Howell St",
    "active": false,
    "unitCount": 2,
    "severity": 0,
    "lat": 47.617611,
    "long": -122.315519,
    "neighborhood": "Capitol Hill",
    "neighborhoodGroup": "East",
    "units": "E25 L10"
  },
  {
    "id_str": "F210063317",
    "created_at": "6/21/2021 3:12:04 PM",
    "timestamp": 1624313524000,
    "description": "Aid Response",
    "address": "3224 Rainier Ave S",
    "active": false,
    "unitCount": 1,
    "severity": 0,
    "lat": 47.574803,
    "long": -122.295444,
    "neighborhood": "Mt. Baker/North Rainier",
    "neighborhoodGroup": "Southeast",
    "units": "E6"
  },
  {
    "id_str": "F210063316",
    "created_at": "6/21/2021 3:11:38 PM",
    "timestamp": 1624313498000,
    "description": "Aid Response",
    "address": "801 9th Ave",
    "active": false,
    "unitCount": 1,
    "severity": 0,
    "lat": 47.606982,
    "long": -122.326056,
    "neighborhood": "First Hill",
    "neighborhoodGroup": "East",
    "units": "A10"
  },
  {
    "id_str": "F210063318",
    "created_at": "6/21/2021 3:11:29 PM",
    "timestamp": 1624313489000,
    "description": "Rescue Lock In/Out",
    "address": "1425 Western Ave",
    "active": false,
    "unitCount": 1,
    "severity": 0,
    "lat": 47.607607,
    "long": -122.340438,
    "neighborhood": "Downtown Commercial Core",
    "neighborhoodGroup": "Downtown",
    "units": "E5"
  },
  {
    "id_str": "F210063314",
    "created_at": "6/21/2021 3:02:12 PM",
    "timestamp": 1624312932000,
    "description": "Medic Response",
    "address": "3811 Ne 77th St",
    "active": false,
    "unitCount": 2,
    "severity": 0,
    "lat": 47.684854,
    "long": -122.287253,
    "neighborhood": "Wedgwood/View Ridge",
    "neighborhoodGroup": "Northeast",
    "units": "E40 M17"
  },
  {
    "id_str": "F210063313",
    "created_at": "6/21/2021 3:00:49 PM",
    "timestamp": 1624312849000,
    "description": "Aid Response",
    "address": "1005 Terrace St",
    "active": false,
    "unitCount": 1,
    "severity": 0,
    "lat": 47.604615,
    "long": -122.32228,
    "neighborhood": "First Hill",
    "neighborhoodGroup": "East",
    "units": "A25"
  },
  {
    "id_str": "F210063312",
    "created_at": "6/21/2021 2:57:57 PM",
    "timestamp": 1624312677000,
    "description": "Aid Response",
    "address": "6203 39th Ave Ne",
    "active": false,
    "unitCount": 1,
    "severity": 0,
    "lat": 47.673982,
    "long": -122.285805,
    "neighborhood": "Ravenna/Bryant",
    "neighborhoodGroup": "Northeast",
    "units": "E17"
  },
  {
    "id_str": "F210063311",
    "created_at": "6/21/2021 2:53:41 PM",
    "timestamp": 1624312421000,
    "description": "Aid Response",
    "address": "151 S Lander St",
    "active": false,
    "unitCount": 1,
    "severity": 0,
    "lat": 47.57981,
    "long": -122.333223,
    "neighborhood": "Duwamish/SODO",
    "neighborhoodGroup": "Greater Duwamish",
    "units": "R1"
  },
  {
    "id_str": "F210063309",
    "created_at": "6/21/2021 2:48:12 PM",
    "timestamp": 1624312092000,
    "description": "Aid Response",
    "address": "501 Rainier Ave S",
    "active": false,
    "unitCount": 1,
    "severity": 0,
    "lat": 47.598322,
    "long": -122.3134,
    "neighborhood": "Judkins Park",
    "neighborhoodGroup": "Central",
    "units": "A5"
  },
  {
    "id_str": "F210063308",
    "created_at": "6/21/2021 2:46:45 PM",
    "timestamp": 1624312005000,
    "description": "Aid Response",
    "address": "1800 Yale Ave",
    "active": false,
    "unitCount": 1,
    "severity": 0,
    "lat": 47.617505,
    "long": -122.329699,
    "neighborhood": "Cascade/Eastlake",
    "neighborhoodGroup": "Lake Union",
    "units": "A2"
  },
  {
    "id_str": "F210063307",
    "created_at": "6/21/2021 2:36:28 PM",
    "timestamp": 1624311388000,
    "description": "Illegal Burn",
    "address": "Rainier Ave S / S Genesee St",
    "active": false,
    "unitCount": 1,
    "severity": 0,
    "lat": 47.564095,
    "long": -122.288186,
    "neighborhood": "Columbia City",
    "neighborhoodGroup": "Southeast",
    "units": "E30"
  },
  {
    "id_str": "F210063304",
    "created_at": "6/21/2021 2:29:45 PM",
    "timestamp": 1624310985000,
    "description": "Medic Response",
    "address": "10013 39th Ave Sw",
    "active": false,
    "unitCount": 2,
    "severity": 0,
    "lat": 47.513639,
    "long": -122.381846,
    "neighborhood": "Arbor Heights",
    "neighborhoodGroup": "Southwest",
    "units": "E11 M26"
  },
  {
    "id_str": "F210063303",
    "created_at": "6/21/2021 2:26:26 PM",
    "timestamp": 1624310786000,
    "description": "Aid Response",
    "address": "3rd Ave / Pine St",
    "active": false,
    "unitCount": 1,
    "severity": 0,
    "lat": 47.610743,
    "long": -122.338702,
    "neighborhood": "Downtown Commercial Core",
    "neighborhoodGroup": "Downtown",
    "units": "A4"
  },
  {
    "id_str": "F210063302",
    "created_at": "6/21/2021 2:25:24 PM",
    "timestamp": 1624310724000,
    "description": "Rubbish Fire",
    "address": "Rainier Ave S / S Genesee St",
    "active": false,
    "unitCount": 1,
    "severity": 0,
    "lat": 47.564095,
    "long": -122.288186,
    "neighborhood": "Columbia City",
    "neighborhoodGroup": "Southeast",
    "units": "E30"
  },
  {
    "id_str": "F210063301",
    "created_at": "6/21/2021 2:23:28 PM",
    "timestamp": 1624310608000,
    "description": "Rubbish Fire",
    "address": "417 Broadway E",
    "active": false,
    "unitCount": 1,
    "severity": 0,
    "lat": 47.622174,
    "long": -122.320909,
    "neighborhood": "Capitol Hill",
    "neighborhoodGroup": "East",
    "units": "E25"
  },
  {
    "id_str": "F210063300",
    "created_at": "6/21/2021 2:20:10 PM",
    "timestamp": 1624310410000,
    "description": "Aid Response",
    "address": "1741 1st Ave S",
    "active": false,
    "unitCount": 1,
    "severity": 0,
    "lat": 47.587789,
    "long": -122.334197,
    "neighborhood": "Duwamish/SODO",
    "neighborhoodGroup": "Greater Duwamish",
    "units": "A10"
  },
  {
    "id_str": "F210063298",
    "created_at": "6/21/2021 2:19:33 PM",
    "timestamp": 1624310373000,
    "description": "Medic Response",
    "address": "7555 24th Ave Sw",
    "active": false,
    "unitCount": 3,
    "severity": 0,
    "lat": 47.535012,
    "long": -122.36317,
    "neighborhood": "High Point",
    "neighborhoodGroup": "Delridge Neighborhoods",
    "units": "E26 L13 M32"
  },
  {
    "id_str": "F210063295",
    "created_at": "6/21/2021 2:16:21 PM",
    "timestamp": 1624310181000,
    "description": "Aid Response",
    "address": "Ne 85th St / 8th Ave Ne",
    "active": false,
    "unitCount": 1,
    "severity": 0,
    "lat": 47.690383,
    "long": -122.320308,
    "neighborhood": "Northgate/Maple Leaf",
    "neighborhoodGroup": "North",
    "units": "E31"
  },
  {
    "id_str": "F210063294",
    "created_at": "6/21/2021 2:14:04 PM",
    "timestamp": 1624310044000,
    "description": "Aid Response",
    "address": "8800 20th Ave Ne",
    "active": false,
    "unitCount": 1,
    "severity": 0,
    "lat": 47.692122,
    "long": -122.306843,
    "neighborhood": "Northgate/Maple Leaf",
    "neighborhoodGroup": "North",
    "units": "E16"
  },
  {
    "id_str": "F210063293",
    "created_at": "6/21/2021 2:13:17 PM",
    "timestamp": 1624309997000,
    "description": "Aid Response",
    "address": "3400 West Marginal Way Sw",
    "active": false,
    "unitCount": 1,
    "severity": 0,
    "lat": 47.573881,
    "long": -122.364845,
    "neighborhood": "North Delridge",
    "neighborhoodGroup": "Delridge Neighborhoods",
    "units": "E32"
  },
  {
    "id_str": "F210063292",
    "created_at": "6/21/2021 2:13:07 PM",
    "timestamp": 1624309987000,
    "description": "Medic Response, 7 per Rule",
    "address": "10507 Aurora Ave N",
    "active": false,
    "unitCount": 3,
    "severity": 0,
    "lat": 47.705096,
    "long": -122.344695,
    "neighborhood": "Licton Springs",
    "neighborhoodGroup": "Northwest",
    "units": "A31 E24 M31"
  },
  {
    "id_str": "F210063291",
    "created_at": "6/21/2021 2:11:35 PM",
    "timestamp": 1624309895000,
    "description": "Auto Fire Alarm",
    "address": "2110 Ne Mason Rd",
    "active": false,
    "unitCount": 2,
    "severity": 0,
    "lat": 47.651476,
    "long": -122.304886,
    "neighborhood": "University District",
    "neighborhoodGroup": "Northeast",
    "units": "E17 L8"
  },
  {
    "id_str": "F210063289",
    "created_at": "6/21/2021 2:04:48 PM",
    "timestamp": 1624309488000,
    "description": "Aid Response",
    "address": "4829 Sw Barton St",
    "active": false,
    "unitCount": 1,
    "severity": 0,
    "lat": 47.523174,
    "long": -122.393181,
    "neighborhood": "Fauntleroy/Seaview",
    "neighborhoodGroup": "Southwest",
    "units": "E37"
  },
  {
    "id_str": "F210063288",
    "created_at": "6/21/2021 2:04:02 PM",
    "timestamp": 1624309442000,
    "description": "Auto Fire Alarm",
    "address": "1505 Westlake Ave N",
    "active": false,
    "unitCount": 2,
    "severity": 0,
    "lat": 47.632365,
    "long": -122.340932,
    "neighborhood": "Queen Anne",
    "neighborhoodGroup": "Magnolia/Queen Anne",
    "units": "E2 L4"
  },
  {
    "id_str": "F210063287",
    "created_at": "6/21/2021 2:01:05 PM",
    "timestamp": 1624309265000,
    "description": "Aid Response",
    "address": "Seneca St / Boylston Ave",
    "active": false,
    "unitCount": 1,
    "severity": 0,
    "lat": 47.612158,
    "long": -122.323113,
    "neighborhood": "Capitol Hill",
    "neighborhoodGroup": "East",
    "units": "A25"
  },
  {
    "id_str": "F210063284",
    "created_at": "6/21/2021 1:49:39 PM",
    "timestamp": 1624308579000,
    "description": "Rescue Elevator",
    "address": "308 4th Ave S",
    "active": false,
    "unitCount": 1,
    "severity": 0,
    "lat": 47.599968,
    "long": -122.328965,
    "neighborhood": "Pioneer Square/International District",
    "neighborhoodGroup": "Downtown",
    "units": "L1"
  },
  {
    "id_str": "F210063283",
    "created_at": "6/21/2021 1:48:31 PM",
    "timestamp": 1624308511000,
    "description": "Aid Response",
    "address": "2143 N Northgate Way",
    "active": false,
    "unitCount": 1,
    "severity": 0,
    "lat": 47.708656,
    "long": -122.332818,
    "neighborhood": "Northgate/Maple Leaf",
    "neighborhoodGroup": "North",
    "units": "A31"
  },
  {
    "id_str": "F210063282",
    "created_at": "6/21/2021 1:44:34 PM",
    "timestamp": 1624308274000,
    "description": "Medic Response",
    "address": "7911 Wolcott Ave S",
    "active": false,
    "unitCount": 2,
    "severity": 0,
    "lat": 47.531315,
    "long": -122.268792,
    "neighborhood": "Rainier Beach",
    "neighborhoodGroup": "Southeast",
    "units": "E33 M28"
  },
  {
    "id_str": "F210063280",
    "created_at": "6/21/2021 1:32:20 PM",
    "timestamp": 1624307540000,
    "description": "Aid Response",
    "address": "5000 30th Ave Ne",
    "active": false,
    "unitCount": 1,
    "severity": 0,
    "lat": 47.664883,
    "long": -122.29562,
    "neighborhood": "Ravenna/Bryant",
    "neighborhoodGroup": "Northeast",
    "units": "E38"
  },
  {
    "id_str": "F210063279",
    "created_at": "6/21/2021 1:30:59 PM",
    "timestamp": 1624307459000,
    "description": "Aid Response",
    "address": "1200 Boylston Ave",
    "active": false,
    "unitCount": 1,
    "severity": 0,
    "lat": 47.612158,
    "long": -122.323113,
    "neighborhood": "Capitol Hill",
    "neighborhoodGroup": "East",
    "units": "E25"
  },
  {
    "id_str": "F210063278",
    "created_at": "6/21/2021 1:29:28 PM",
    "timestamp": 1624307368000,
    "description": "Auto Fire Alarm",
    "address": "2614 4th Ave",
    "active": false,
    "unitCount": 2,
    "severity": 0,
    "lat": 47.617316,
    "long": -122.347229,
    "neighborhood": "Cascade/Eastlake",
    "neighborhoodGroup": "Lake Union",
    "units": "E2 L4"
  },
  {
    "id_str": "F210063277",
    "created_at": "6/21/2021 1:28:54 PM",
    "timestamp": 1624307334000,
    "description": "Medic Response",
    "address": "100 Melrose Ave E",
    "active": false,
    "unitCount": 2,
    "severity": 0,
    "lat": 47.618497,
    "long": -122.327854,
    "neighborhood": "Capitol Hill",
    "neighborhoodGroup": "East",
    "units": "A25 M10"
  },
  {
    "id_str": "F210063276",
    "created_at": "6/21/2021 1:26:32 PM",
    "timestamp": 1624307192000,
    "description": "Medic Response",
    "address": "Sw Juneau St / Delridge Way Sw",
    "active": false,
    "unitCount": 2,
    "severity": 0,
    "lat": 47.550108,
    "long": -122.36301,
    "neighborhood": "High Point",
    "neighborhoodGroup": "Delridge Neighborhoods",
    "units": "E11 M32"
  },
  {
    "id_str": "F210063275",
    "created_at": "6/21/2021 1:24:03 PM",
    "timestamp": 1624307043000,
    "description": "Aid Response",
    "address": "607 3rd Ave",
    "active": false,
    "unitCount": 1,
    "severity": 0,
    "lat": 47.602813,
    "long": -122.331449,
    "neighborhood": "Downtown Commercial Core",
    "neighborhoodGroup": "Downtown",
    "units": "A5"
  },
  {
    "id_str": "F210063274",
    "created_at": "6/21/2021 1:20:37 PM",
    "timestamp": 1624306837000,
    "description": "Aid Response",
    "address": "2505 2nd Ave",
    "active": false,
    "unitCount": 1,
    "severity": 0,
    "lat": 47.615384,
    "long": -122.347925,
    "neighborhood": "Belltown",
    "neighborhoodGroup": "Downtown",
    "units": "A4"
  },
  {
    "id_str": "F210063273",
    "created_at": "6/21/2021 1:17:08 PM",
    "timestamp": 1624306628000,
    "description": "Aid Response",
    "address": "94 Bay St",
    "active": false,
    "unitCount": 1,
    "severity": 0,
    "lat": 47.618412,
    "long": -122.355206,
    "neighborhood": "Belltown",
    "neighborhoodGroup": "Downtown",
    "units": "A2"
  },
  {
    "id_str": "F210063271",
    "created_at": "6/21/2021 1:14:33 PM",
    "timestamp": 1624306473000,
    "description": "Natural Gas Odor",
    "address": "2572 Gilman Dr W",
    "active": false,
    "unitCount": 1,
    "severity": 0,
    "lat": 47.642424,
    "long": -122.375696,
    "neighborhood": "Interbay",
    "neighborhoodGroup": "Magnolia/Queen Anne",
    "units": "L6"
  },
  {
    "id_str": "F210063270",
    "created_at": "6/21/2021 1:12:25 PM",
    "timestamp": 1624306345000,
    "description": "Aid Response",
    "address": "6402 Phinney Ave N",
    "active": false,
    "unitCount": 1,
    "severity": 0,
    "lat": 47.675302,
    "long": -122.35435,
    "neighborhood": "Greenwood/Phinney Ridge",
    "neighborhoodGroup": "Northwest",
    "units": "E21"
  },
  {
    "id_str": "F210063268",
    "created_at": "6/21/2021 1:08:15 PM",
    "timestamp": 1624306095000,
    "description": "Auto Fire Alarm",
    "address": "431 Nw 100th Pl",
    "active": false,
    "unitCount": 2,
    "severity": 0,
    "lat": 47.702746,
    "long": -122.363403,
    "neighborhood": "North Beach/Blue Ridge",
    "neighborhoodGroup": "Ballard",
    "units": "E35 L8"
  },
  {
    "id_str": "F210063267",
    "created_at": "6/21/2021 1:07:30 PM",
    "timestamp": 1624306050000,
    "description": "Low Acuity Response",
    "address": "702 34th Ave",
    "active": false,
    "unitCount": 1,
    "severity": 0,
    "lat": 47.607954,
    "long": -122.289424,
    "neighborhood": "Madrona/Leschi",
    "neighborhoodGroup": "Central",
    "units": "H1"
  },
  {
    "id_str": "F210063266",
    "created_at": "6/21/2021 1:04:59 PM",
    "timestamp": 1624305899000,
    "description": "Aid Response",
    "address": "7909 RAINIER AVE S",
    "active": false,
    "unitCount": 2,
    "severity": 0,
    "lat": 47.531576,
    "long": -122.26999,
    "neighborhood": "Rainier Beach",
    "neighborhoodGroup": "Southeast",
    "units": "E33 M28"
  },
  {
    "id_str": "F210063265",
    "created_at": "6/21/2021 12:58:52 PM",
    "timestamp": 1624305532000,
    "description": "Aid Response",
    "address": "M L King Jr Way S / S Myrtle St",
    "active": false,
    "unitCount": 1,
    "severity": 0,
    "lat": 47.538884,
    "long": -122.282179,
    "neighborhood": "South Beacon Hill/NewHolly",
    "neighborhoodGroup": "Greater Duwamish",
    "units": "E28"
  },
  {
    "id_str": "F210063263",
    "created_at": "6/21/2021 12:44:49 PM",
    "timestamp": 1624304689000,
    "description": "Alarm Bell",
    "address": "888 Harrison St",
    "active": false,
    "unitCount": 2,
    "severity": 0,
    "lat": 47.622047,
    "long": -122.339893,
    "neighborhood": "Cascade/Eastlake",
    "neighborhoodGroup": "Lake Union",
    "units": "E8 L4"
  },
  {
    "id_str": "F210063261",
    "created_at": "6/21/2021 12:38:50 PM",
    "timestamp": 1624304330000,
    "description": "Aid Response",
    "address": "5001 25th Ave Ne",
    "active": false,
    "unitCount": 1,
    "severity": 0,
    "lat": 47.665346,
    "long": -122.300708,
    "neighborhood": "Ravenna/Bryant",
    "neighborhoodGroup": "Northeast",
    "units": "E38"
  },
  {
    "id_str": "F210063259",
    "created_at": "6/21/2021 12:32:57 PM",
    "timestamp": 1624303977000,
    "description": "MVI - Motor Vehicle Incident",
    "address": "Sb I5 At I90",
    "active": false,
    "unitCount": 4,
    "severity": 0,
    "lat": 47.601669,
    "long": -122.324897,
    "neighborhood": "Pioneer Square/International District",
    "neighborhoodGroup": "Downtown",
    "units": "A2 A4 E2 E5"
  },
  {
    "id_str": "F210063257",
    "created_at": "6/21/2021 12:29:50 PM",
    "timestamp": 1624303790000,
    "description": "Aid Response",
    "address": "6507 41st Ave Sw",
    "active": false,
    "unitCount": 1,
    "severity": 0,
    "lat": 47.544772,
    "long": -122.384454,
    "neighborhood": "Fauntleroy/Seaview",
    "neighborhoodGroup": "Southwest",
    "units": "E37"
  },
  {
    "id_str": "F210063256",
    "created_at": "6/21/2021 12:25:11 PM",
    "timestamp": 1624303511000,
    "description": "Investigate Out Of Service",
    "address": "1206 E Jefferson St",
    "active": false,
    "unitCount": 1,
    "severity": 0,
    "lat": 47.606203,
    "long": -122.3167,
    "neighborhood": "First Hill",
    "neighborhoodGroup": "East",
    "units": "E25"
  },
  {
    "id_str": "F210063255",
    "created_at": "6/21/2021 12:23:13 PM",
    "timestamp": 1624303393000,
    "description": "Aid Response",
    "address": "N 40th St / Woodlawn Ave N",
    "active": false,
    "unitCount": 1,
    "severity": 0,
    "lat": 47.655661,
    "long": -122.338644,
    "neighborhood": "Fremont",
    "neighborhoodGroup": "Lake Union",
    "units": "L9"
  },
  {
    "id_str": "F210063254",
    "created_at": "6/21/2021 12:12:57 PM",
    "timestamp": 1624302777000,
    "description": "Rubbish Fire",
    "address": "200 Summit Ave E",
    "active": false,
    "unitCount": 1,
    "severity": 0,
    "lat": 47.619651,
    "long": -122.325294,
    "neighborhood": "Capitol Hill",
    "neighborhoodGroup": "East",
    "units": "E2"
  },
  {
    "id_str": "F210063253",
    "created_at": "6/21/2021 12:02:06 PM",
    "timestamp": 1624302126000,
    "description": "Aid Response",
    "address": "10507 Aurora Ave N",
    "active": false,
    "unitCount": 1,
    "severity": 0,
    "lat": 47.705096,
    "long": -122.344695,
    "neighborhood": "Licton Springs",
    "neighborhoodGroup": "Northwest",
    "units": "E24"
  },
  {
    "id_str": "F210063252",
    "created_at": "6/21/2021 11:58:33 AM",
    "timestamp": 1624301913000,
    "description": "Aid Response",
    "address": "604 W Mcgraw St",
    "active": false,
    "unitCount": 1,
    "severity": 0,
    "lat": 47.639596,
    "long": -122.364991,
    "neighborhood": "Queen Anne",
    "neighborhoodGroup": "Magnolia/Queen Anne",
    "units": "E8"
  },
  {
    "id_str": "F210063251",
    "created_at": "6/21/2021 11:51:53 AM",
    "timestamp": 1624301513000,
    "description": "Medic Response",
    "address": "4400 Stone Way N",
    "active": false,
    "unitCount": 2,
    "severity": 0,
    "lat": 47.65996,
    "long": -122.342217,
    "neighborhood": "Wallingford",
    "neighborhoodGroup": "Lake Union",
    "units": "E21 M17"
  },
  {
    "id_str": "F210063249",
    "created_at": "6/21/2021 11:43:32 AM",
    "timestamp": 1624301012000,
    "description": "Aid Response",
    "address": "Seneca St / Boylston Ave",
    "active": false,
    "unitCount": 2,
    "severity": 0,
    "lat": 47.612158,
    "long": -122.323113,
    "neighborhood": "Capitol Hill",
    "neighborhoodGroup": "East",
    "units": "A25 L10"
  },
  {
    "id_str": "F210063248",
    "created_at": "6/21/2021 11:42:46 AM",
    "timestamp": 1624300966000,
    "description": "Medic Response",
    "address": "700 Nw 42nd St",
    "active": false,
    "unitCount": 2,
    "severity": 0,
    "lat": 47.657761,
    "long": -122.365036,
    "neighborhood": "Fremont",
    "neighborhoodGroup": "Lake Union",
    "units": "E9 M18"
  },
  {
    "id_str": "F210063247",
    "created_at": "6/21/2021 11:38:15 AM",
    "timestamp": 1624300695000,
    "description": "Medic Response",
    "address": "10330 Meridian Ave N",
    "active": false,
    "unitCount": 2,
    "severity": 0,
    "lat": 47.703486,
    "long": -122.333907,
    "neighborhood": "Northgate/Maple Leaf",
    "neighborhoodGroup": "North",
    "units": "E31 M31"
  },
  {
    "id_str": "F210063245",
    "created_at": "6/21/2021 11:35:54 AM",
    "timestamp": 1624300554000,
    "description": "Aid Response",
    "address": "7530 14th Ave Ne",
    "active": false,
    "unitCount": 1,
    "severity": 0,
    "lat": 47.683328,
    "long": -122.313177,
    "neighborhood": "Ravenna/Bryant",
    "neighborhoodGroup": "Northeast",
    "units": "E16"
  },
  {
    "id_str": "F210063244",
    "created_at": "6/21/2021 11:32:54 AM",
    "timestamp": 1624300374000,
    "description": "Aid Response",
    "address": "600 N 130th St",
    "active": false,
    "unitCount": 1,
    "severity": 0,
    "lat": 47.723223,
    "long": -122.351624,
    "neighborhood": "Broadview/Bitter Lake",
    "neighborhoodGroup": "Northwest",
    "units": "A31"
  },
  {
    "id_str": "F210063243",
    "created_at": "6/21/2021 11:28:07 AM",
    "timestamp": 1624300087000,
    "description": "Medic Response",
    "address": "3513 Rainier Ave S",
    "active": false,
    "unitCount": 3,
    "severity": 0,
    "lat": 47.571349,
    "long": -122.292809,
    "neighborhood": "Columbia City",
    "neighborhoodGroup": "Southeast",
    "units": "E28 M1 M28"
  },
  {
    "id_str": "F210063242",
    "created_at": "6/21/2021 11:26:47 AM",
    "timestamp": 1624300007000,
    "description": "Aid Response",
    "address": "4730 University Way Ne",
    "active": false,
    "unitCount": 1,
    "severity": 0,
    "lat": 47.663268,
    "long": -122.313099,
    "neighborhood": "University District",
    "neighborhoodGroup": "Northeast",
    "units": "L9"
  },
  {
    "id_str": "F210063241",
    "created_at": "6/21/2021 11:25:36 AM",
    "timestamp": 1624299936000,
    "description": "Aid Response",
    "address": "3239 NW 64TH ST",
    "active": false,
    "unitCount": 4,
    "severity": 0,
    "lat": 47.674838,
    "long": -122.398895,
    "neighborhood": "Sunset Hill/Loyal Heights",
    "neighborhoodGroup": "Ballard",
    "units": "A2 A4 E18 L8"
  },
  {
    "id_str": "F210063240",
    "created_at": "6/21/2021 11:22:48 AM",
    "timestamp": 1624299768000,
    "description": "Aid Response",
    "address": "12318 15th Ave Ne",
    "active": false,
    "unitCount": 1,
    "severity": 0,
    "lat": 47.717758,
    "long": -122.312622,
    "neighborhood": "Olympic Hills/Victory Heights",
    "neighborhoodGroup": "North",
    "units": "E39"
  },
  {
    "id_str": "F210063239",
    "created_at": "6/21/2021 11:17:37 AM",
    "timestamp": 1624299457000,
    "description": "Aid Response",
    "address": "3802 S Othello St",
    "active": false,
    "unitCount": 2,
    "severity": 0,
    "lat": 47.537035,
    "long": -122.28468,
    "neighborhood": "South Beacon Hill/NewHolly",
    "neighborhoodGroup": "Greater Duwamish",
    "units": "L12 M28"
  },
  {
    "id_str": "F210063236",
    "created_at": "6/21/2021 11:14:34 AM",
    "timestamp": 1624299274000,
    "description": "Medic Response",
    "address": "328 Nw 85th St",
    "active": false,
    "unitCount": 3,
    "severity": 0,
    "lat": 47.690626,
    "long": -122.36089,
    "neighborhood": "Greenwood/Phinney Ridge",
    "neighborhoodGroup": "Northwest",
    "units": "E31 E35 M31"
  },
  {
    "id_str": "F210063235",
    "created_at": "6/21/2021 11:11:55 AM",
    "timestamp": 1624299115000,
    "description": "Aid Response",
    "address": "94 Bay St",
    "active": false,
    "unitCount": 2,
    "severity": 0,
    "lat": 47.618412,
    "long": -122.355206,
    "neighborhood": "Belltown",
    "neighborhoodGroup": "Downtown",
    "units": "A2 A4"
  },
  {
    "id_str": "F210063234",
    "created_at": "6/21/2021 11:04:44 AM",
    "timestamp": 1624298684000,
    "description": "Aid Response",
    "address": "306 N 77th St",
    "active": false,
    "unitCount": 1,
    "severity": 0,
    "lat": 47.684748,
    "long": -122.355211,
    "neighborhood": "Greenwood/Phinney Ridge",
    "neighborhoodGroup": "Northwest",
    "units": "E21"
  },
  {
    "id_str": "F210063232",
    "created_at": "6/21/2021 11:04:22 AM",
    "timestamp": 1624298662000,
    "description": "Aid Response",
    "address": "908 Jefferson St",
    "active": false,
    "unitCount": 1,
    "severity": 0,
    "lat": 47.604879,
    "long": -122.324007,
    "neighborhood": "First Hill",
    "neighborhoodGroup": "East",
    "units": "E10"
  },
  {
    "id_str": "F210063231",
    "created_at": "6/21/2021 11:01:06 AM",
    "timestamp": 1624298466000,
    "description": "Aid Response",
    "address": "4733 University Way Ne",
    "active": false,
    "unitCount": 1,
    "severity": 0,
    "lat": 47.663286,
    "long": -122.313099,
    "neighborhood": "University District",
    "neighborhoodGroup": "Northeast",
    "units": "L9"
  },
  {
    "id_str": "F210063230",
    "created_at": "6/21/2021 10:56:43 AM",
    "timestamp": 1624298203000,
    "description": "Aid Response",
    "address": "1200 Boylston Ave",
    "active": false,
    "unitCount": 1,
    "severity": 0,
    "lat": 47.612158,
    "long": -122.323113,
    "neighborhood": "Capitol Hill",
    "neighborhoodGroup": "East",
    "units": "A10"
  },
  {
    "id_str": "F210063228",
    "created_at": "6/21/2021 10:52:54 AM",
    "timestamp": 1624297974000,
    "description": "Medic Response",
    "address": "4915 25th Ave Ne",
    "active": false,
    "unitCount": 3,
    "severity": 0,
    "lat": 47.664451,
    "long": -122.300909,
    "neighborhood": "Ravenna/Bryant",
    "neighborhoodGroup": "Northeast",
    "units": "E38 M17 M18"
  },
  {
    "id_str": "F210063227",
    "created_at": "6/21/2021 10:41:35 AM",
    "timestamp": 1624297295000,
    "description": "Aid Response",
    "address": "1700 Airport Way S",
    "active": false,
    "unitCount": 2,
    "severity": 0,
    "lat": 47.588225,
    "long": -122.321391,
    "neighborhood": "Duwamish/SODO",
    "neighborhoodGroup": "Greater Duwamish",
    "units": "A10 A5"
  },
  {
    "id_str": "F210063225",
    "created_at": "6/21/2021 10:33:01 AM",
    "timestamp": 1624296781000,
    "description": "Aid Response",
    "address": "2114 N 45th St",
    "active": false,
    "unitCount": 1,
    "severity": 0,
    "lat": 47.661386,
    "long": -122.333551,
    "neighborhood": "Wallingford",
    "neighborhoodGroup": "Lake Union",
    "units": "E9"
  },
  {
    "id_str": "F210063223",
    "created_at": "6/21/2021 10:25:44 AM",
    "timestamp": 1624296344000,
    "description": "Low Acuity Response",
    "address": "9809 Linden Ave N",
    "active": false,
    "unitCount": 1,
    "severity": 0,
    "lat": 47.700569,
    "long": -122.347334,
    "neighborhood": "Licton Springs",
    "neighborhoodGroup": "Northwest",
    "units": "E21"
  },
  {
    "id_str": "F210063222",
    "created_at": "6/21/2021 10:24:38 AM",
    "timestamp": 1624296278000,
    "description": "Aid Response",
    "address": "3920 Ne 125th St",
    "active": false,
    "unitCount": 1,
    "severity": 0,
    "lat": 47.719207,
    "long": -122.28609,
    "neighborhood": "Cedar Park/Meadowbrook",
    "neighborhoodGroup": "North",
    "units": "E39"
  },
  {
    "id_str": "F210063220",
    "created_at": "6/21/2021 10:21:24 AM",
    "timestamp": 1624296084000,
    "description": "Medic Response",
    "address": "2401 Utah Ave S",
    "active": false,
    "unitCount": 2,
    "severity": 0,
    "lat": 47.581888,
    "long": -122.335125,
    "neighborhood": "Duwamish/SODO",
    "neighborhoodGroup": "Greater Duwamish",
    "units": "M10 R1"
  },
  {
    "id_str": "F210063219",
    "created_at": "6/21/2021 10:17:46 AM",
    "timestamp": 1624295866000,
    "description": "Low Acuity Response",
    "address": "7322 Rainier Ave S",
    "active": false,
    "unitCount": 1,
    "severity": 0,
    "lat": 47.536727,
    "long": -122.27022,
    "neighborhood": "Seward Park",
    "neighborhoodGroup": "Southeast",
    "units": "E28"
  },
  {
    "id_str": "F210063217",
    "created_at": "6/21/2021 10:12:25 AM",
    "timestamp": 1624295545000,
    "description": "Aid Response",
    "address": "Aurora Ave N / N 105th St",
    "active": false,
    "unitCount": 1,
    "severity": 0,
    "lat": 47.705051,
    "long": -122.344694,
    "neighborhood": "Licton Springs",
    "neighborhoodGroup": "Northwest",
    "units": "E31"
  },
  {
    "id_str": "F210063216",
    "created_at": "6/21/2021 10:12:13 AM",
    "timestamp": 1624295533000,
    "description": "Aid Response",
    "address": "820 Nw 95th St",
    "active": false,
    "unitCount": 1,
    "severity": 0,
    "lat": 47.697867,
    "long": -122.367016,
    "neighborhood": "Greenwood/Phinney Ridge",
    "neighborhoodGroup": "Northwest",
    "units": "E35"
  },
  {
    "id_str": "F210063215",
    "created_at": "6/21/2021 10:06:39 AM",
    "timestamp": 1624295199000,
    "description": "Aid Response",
    "address": "12702 15th Ave Ne",
    "active": false,
    "unitCount": 2,
    "severity": 0,
    "lat": 47.720887,
    "long": -122.312672,
    "neighborhood": "Olympic Hills/Victory Heights",
    "neighborhoodGroup": "North",
    "units": "A31 E39"
  },
  {
    "id_str": "F210063213",
    "created_at": "6/21/2021 10:02:28 AM",
    "timestamp": 1624294948000,
    "description": "Medic Response",
    "address": "4831 35th Ave Sw",
    "active": false,
    "unitCount": 2,
    "severity": 0,
    "lat": 47.558988,
    "long": -122.376234,
    "neighborhood": "West Seattle Junction/Genesee Hill",
    "neighborhoodGroup": "Southwest",
    "units": "E37 M32"
  },
  {
    "id_str": "F210063212",
    "created_at": "6/21/2021 9:56:35 AM",
    "timestamp": 1624294595000,
    "description": "Aid Response",
    "address": "3rd Ave / Union St",
    "active": false,
    "unitCount": 1,
    "severity": 0,
    "lat": 47.608756,
    "long": -122.336885,
    "neighborhood": "Downtown Commercial Core",
    "neighborhoodGroup": "Downtown",
    "units": "A5"
  },
  {
    "id_str": "F210063211",
    "created_at": "6/21/2021 9:54:22 AM",
    "timestamp": 1624294462000,
    "description": "Medic Response",
    "address": "2720 E Madison St",
    "active": false,
    "unitCount": 3,
    "severity": 0,
    "lat": 47.623153,
    "long": -122.296667,
    "neighborhood": "Central Area/Squire Park",
    "neighborhoodGroup": "Central",
    "units": "E34 M10 M28"
  },
  {
    "id_str": "F210063207",
    "created_at": "6/21/2021 9:42:48 AM",
    "timestamp": 1624293768000,
    "description": "Aid Response",
    "address": "323 N 103rd St",
    "active": false,
    "unitCount": 1,
    "severity": 0,
    "lat": 47.703634,
    "long": -122.355128,
    "neighborhood": "Greenwood/Phinney Ridge",
    "neighborhoodGroup": "Northwest",
    "units": "E35"
  },
  {
    "id_str": "F210063206",
    "created_at": "6/21/2021 9:42:05 AM",
    "timestamp": 1624293725000,
    "description": "Medic Response",
    "address": "1701 18th Ave S",
    "active": false,
    "unitCount": 2,
    "severity": 0,
    "lat": 47.588414,
    "long": -122.309467,
    "neighborhood": "North Beacon Hill/Jefferson Park",
    "neighborhoodGroup": "Greater Duwamish",
    "units": "E30 M10"
  },
  {
    "id_str": "F210063205",
    "created_at": "6/21/2021 9:40:05 AM",
    "timestamp": 1624293605000,
    "description": "Auto Fire Alarm",
    "address": "1922 9th Ave",
    "active": false,
    "unitCount": 2,
    "severity": 0,
    "lat": 47.615781,
    "long": -122.334715,
    "neighborhood": "Cascade/Eastlake",
    "neighborhoodGroup": "Lake Union",
    "units": "E2 L10"
  },
  {
    "id_str": "F210063203",
    "created_at": "6/21/2021 9:34:39 AM",
    "timestamp": 1624293279000,
    "description": "Medic Response",
    "address": "1311 S Massachusetts St",
    "active": false,
    "unitCount": 2,
    "severity": 0,
    "lat": 47.588437,
    "long": -122.315855,
    "neighborhood": "North Beacon Hill/Jefferson Park",
    "neighborhoodGroup": "Greater Duwamish",
    "units": "A10 M1"
  },
  {
    "id_str": "F210063204",
    "created_at": "6/21/2021 9:34:27 AM",
    "timestamp": 1624293267000,
    "description": "Aid Response",
    "address": "Ne Ravenna Blvd / Ne 63rd St",
    "active": false,
    "unitCount": 1,
    "severity": 0,
    "lat": 47.674,
    "long": -122.320648,
    "neighborhood": "Green Lake",
    "neighborhoodGroup": "Northwest",
    "units": "E16"
  },
  {
    "id_str": "F210063201",
    "created_at": "6/21/2021 9:20:17 AM",
    "timestamp": 1624292417000,
    "description": "Aid Response",
    "address": "801 Alaskan Way",
    "active": false,
    "unitCount": 1,
    "severity": 0,
    "lat": 47.602348,
    "long": -122.337148,
    "neighborhood": "Downtown Commercial Core",
    "neighborhoodGroup": "Downtown",
    "units": "E5"
  },
  {
    "id_str": "F210063200",
    "created_at": "6/21/2021 9:17:32 AM",
    "timestamp": 1624292252000,
    "description": "Investigate Out Of Service",
    "address": "211 W Highland Dr",
    "active": false,
    "unitCount": 1,
    "severity": 0,
    "lat": 47.629582,
    "long": -122.359358,
    "neighborhood": "Queen Anne",
    "neighborhoodGroup": "Magnolia/Queen Anne",
    "units": "L6"
  },
  {
    "id_str": "F210063198",
    "created_at": "6/21/2021 9:15:26 AM",
    "timestamp": 1624292126000,
    "description": "Automatic Fire Alarm Resd",
    "address": "2000 E Galer St",
    "active": false,
    "unitCount": 1,
    "severity": 0,
    "lat": 47.632306,
    "long": -122.307227,
    "neighborhood": "Montlake/Portage Bay",
    "neighborhoodGroup": "Northeast",
    "units": "E25"
  },
  {
    "id_str": "F210063195",
    "created_at": "6/21/2021 9:09:03 AM",
    "timestamp": 1624291743000,
    "description": "Medic Response",
    "address": "12721 30th Ave Ne",
    "active": false,
    "unitCount": 3,
    "severity": 0,
    "lat": 47.721213,
    "long": -122.296338,
    "neighborhood": "Cedar Park/Meadowbrook",
    "neighborhoodGroup": "North",
    "units": "E39 M17 M31"
  },
  {
    "id_str": "F210063194",
    "created_at": "6/21/2021 9:02:56 AM",
    "timestamp": 1624291376000,
    "description": "Automatic Fire Alarm Resd",
    "address": "5526 Seward Park Ave S",
    "active": false,
    "unitCount": 1,
    "severity": 0,
    "lat": 47.552441,
    "long": -122.263174,
    "neighborhood": "Seward Park",
    "neighborhoodGroup": "Southeast",
    "units": "E28"
  },
  {
    "id_str": "F210063192",
    "created_at": "6/21/2021 8:59:49 AM",
    "timestamp": 1624291189000,
    "description": "Natural Gas Leak",
    "address": "6303 16th Ave Ne",
    "active": false,
    "unitCount": 3,
    "severity": 0,
    "lat": 47.674761,
    "long": -122.310852,
    "neighborhood": "University District",
    "neighborhoodGroup": "Northeast",
    "units": "B6 E16 L9"
  },
  {
    "id_str": "F210063191",
    "created_at": "6/21/2021 8:42:40 AM",
    "timestamp": 1624290160000,
    "description": "Auto Fire Alarm",
    "address": "1118 12th Ave",
    "active": false,
    "unitCount": 2,
    "severity": 0,
    "lat": 47.611639,
    "long": -122.316776,
    "neighborhood": "First Hill",
    "neighborhoodGroup": "East",
    "units": "E25 L10"
  },
  {
    "id_str": "F210063189",
    "created_at": "6/21/2021 8:38:31 AM",
    "timestamp": 1624289911000,
    "description": "Aid Response",
    "address": "10330 Meridian Ave N",
    "active": false,
    "unitCount": 1,
    "severity": 0,
    "lat": 47.703486,
    "long": -122.333907,
    "neighborhood": "Northgate/Maple Leaf",
    "neighborhoodGroup": "North",
    "units": "E24"
  },
  {
    "id_str": "F210063188",
    "created_at": "6/21/2021 8:24:28 AM",
    "timestamp": 1624289068000,
    "description": "Aid Response",
    "address": "8832 Interlake Ave N",
    "active": false,
    "unitCount": 1,
    "severity": 0,
    "lat": 47.692633,
    "long": -122.340242,
    "neighborhood": "Licton Springs",
    "neighborhoodGroup": "Northwest",
    "units": "E21"
  },
  {
    "id_str": "F210063187",
    "created_at": "6/21/2021 8:23:48 AM",
    "timestamp": 1624289028000,
    "description": "Aid Response",
    "address": "1520 Melrose Ave",
    "active": false,
    "unitCount": 1,
    "severity": 0,
    "lat": 47.614174,
    "long": -122.327923,
    "neighborhood": "Capitol Hill",
    "neighborhoodGroup": "East",
    "units": "A25"
  },
  {
    "id_str": "F210063186",
    "created_at": "6/21/2021 8:16:05 AM",
    "timestamp": 1624288565000,
    "description": "Aid Response",
    "address": "5th Ave / Union St",
    "active": false,
    "unitCount": 1,
    "severity": 0,
    "lat": 47.609685,
    "long": -122.334666,
    "neighborhood": "Downtown Commercial Core",
    "neighborhoodGroup": "Downtown",
    "units": "A2"
  },
  {
    "id_str": "F210063184",
    "created_at": "6/21/2021 8:10:57 AM",
    "timestamp": 1624288257000,
    "description": "1RED 1 Unit",
    "address": "17th Ave S / S Donovan St",
    "active": false,
    "unitCount": 2,
    "severity": 0,
    "lat": 47.525582,
    "long": -122.311786,
    "neighborhood": "South Park",
    "neighborhoodGroup": "Greater Duwamish",
    "units": "B7 E26"
  },
  {
    "id_str": "F210063183",
    "created_at": "6/21/2021 8:04:28 AM",
    "timestamp": 1624287868000,
    "description": "Medic Response",
    "address": "10064 43rd Pl Ne",
    "active": false,
    "unitCount": 2,
    "severity": 0,
    "lat": 47.702762,
    "long": -122.284601,
    "neighborhood": "Wedgwood/View Ridge",
    "neighborhoodGroup": "Northeast",
    "units": "E40 M17"
  },
  {
    "id_str": "F210063182",
    "created_at": "6/21/2021 8:03:45 AM",
    "timestamp": 1624287825000,
    "description": "Medic Response",
    "address": "4028 California Ave Sw",
    "active": false,
    "unitCount": 2,
    "severity": 0,
    "lat": 47.567861,
    "long": -122.38677,
    "neighborhood": "West Seattle Junction/Genesee Hill",
    "neighborhoodGroup": "Southwest",
    "units": "E32 M32"
  },
  {
    "id_str": "F210063181",
    "created_at": "6/21/2021 8:00:09 AM",
    "timestamp": 1624287609000,
    "description": "Aid Response",
    "address": "Sb I5 Exp Fr Ne 42 St",
    "active": false,
    "unitCount": 3,
    "severity": 0,
    "lat": 47.656039,
    "long": -122.322482,
    "neighborhood": "Wallingford",
    "neighborhoodGroup": "Lake Union",
    "units": "A5 E17 E31"
  },
  {
    "id_str": "F210063180",
    "created_at": "6/21/2021 7:52:08 AM",
    "timestamp": 1624287128000,
    "description": "Aid Response",
    "address": "11734 1st Ave Nw",
    "active": false,
    "unitCount": 1,
    "severity": 0,
    "lat": 47.714371,
    "long": -122.358205,
    "neighborhood": "Broadview/Bitter Lake",
    "neighborhoodGroup": "Northwest",
    "units": "E24"
  },
  {
    "id_str": "F210063178",
    "created_at": "6/21/2021 7:49:42 AM",
    "timestamp": 1624286982000,
    "description": "Aid Response",
    "address": "400 S Washington St",
    "active": false,
    "unitCount": 1,
    "severity": 0,
    "lat": 47.600875,
    "long": -122.328963,
    "neighborhood": "Pioneer Square/International District",
    "neighborhoodGroup": "Downtown",
    "units": "A10"
  },
  {
    "id_str": "F210063177",
    "created_at": "6/21/2021 7:48:18 AM",
    "timestamp": 1624286898000,
    "description": "Aid Response",
    "address": "6512 35th Ave Sw",
    "active": false,
    "unitCount": 1,
    "severity": 0,
    "lat": 47.544573,
    "long": -122.376448,
    "neighborhood": "High Point",
    "neighborhoodGroup": "Delridge Neighborhoods",
    "units": "E37"
  },
  {
    "id_str": "F210063176",
    "created_at": "6/21/2021 7:48:04 AM",
    "timestamp": 1624286884000,
    "description": "Aid Response",
    "address": "555 16th Ave",
    "active": false,
    "unitCount": 1,
    "severity": 0,
    "lat": 47.606687,
    "long": -122.31155,
    "neighborhood": "Central Area/Squire Park",
    "neighborhoodGroup": "Central",
    "units": "A25"
  },
  {
    "id_str": "F210063174",
    "created_at": "6/21/2021 7:38:47 AM",
    "timestamp": 1624286327000,
    "description": "Aid Response",
    "address": "16th Ave S / S Jackson Pl",
    "active": false,
    "unitCount": 1,
    "severity": 0,
    "lat": 47.598797,
    "long": -122.311579,
    "neighborhood": "Judkins Park",
    "neighborhoodGroup": "Central",
    "units": "E6"
  },
  {
    "id_str": "F210063173",
    "created_at": "6/21/2021 7:36:31 AM",
    "timestamp": 1624286191000,
    "description": "Aid Response",
    "address": "4th Ave S / East Marginal Way S",
    "active": false,
    "unitCount": 1,
    "severity": 0,
    "lat": 47.54389,
    "long": -122.329621,
    "neighborhood": "Georgetown",
    "neighborhoodGroup": "Greater Duwamish",
    "units": "E27"
  },
  {
    "id_str": "F210063172",
    "created_at": "6/21/2021 7:20:57 AM",
    "timestamp": 1624285257000,
    "description": "Aid Response",
    "address": "700 Broadway",
    "active": false,
    "unitCount": 1,
    "severity": 0,
    "lat": 47.608073,
    "long": -122.320755,
    "neighborhood": "First Hill",
    "neighborhoodGroup": "East",
    "units": "A25"
  },
  {
    "id_str": "F210063171",
    "created_at": "6/21/2021 7:13:59 AM",
    "timestamp": 1624284839000,
    "description": "Illegal Burn",
    "address": "700 5th Ave",
    "active": false,
    "unitCount": 1,
    "severity": 0,
    "lat": 47.604413,
    "long": -122.329842,
    "neighborhood": "First Hill",
    "neighborhoodGroup": "East",
    "units": "E10"
  },
  {
    "id_str": "F210063170",
    "created_at": "6/21/2021 7:01:49 AM",
    "timestamp": 1624284109000,
    "description": "Aid Response Yellow",
    "address": "4220 S Kenyon St",
    "active": false,
    "unitCount": 1,
    "severity": 0,
    "lat": 47.531543,
    "long": -122.280364,
    "neighborhood": "South Beacon Hill/NewHolly",
    "neighborhoodGroup": "Greater Duwamish",
    "units": "E33"
  },
  {
    "id_str": "F210063168",
    "created_at": "6/21/2021 6:38:32 AM",
    "timestamp": 1624282712000,
    "description": "Aid Response",
    "address": "5062 Harold Pl Ne",
    "active": false,
    "unitCount": 1,
    "severity": 0,
    "lat": 47.665445,
    "long": -122.2716,
    "neighborhood": "Laurelhurst/Sand Point",
    "neighborhoodGroup": "Northeast",
    "units": "E38"
  },
  {
    "id_str": "F210063167",
    "created_at": "6/21/2021 6:35:59 AM",
    "timestamp": 1624282559000,
    "description": "Aid Response",
    "address": "9024 25th Ave Sw",
    "active": false,
    "unitCount": 1,
    "severity": 0,
    "lat": 47.522631,
    "long": -122.364538,
    "neighborhood": "Roxhill/Westwood",
    "neighborhoodGroup": "Delridge Neighborhoods",
    "units": "E11"
  },
  {
    "id_str": "F210063166",
    "created_at": "6/21/2021 6:23:07 AM",
    "timestamp": 1624281787000,
    "description": "Aid Response",
    "address": "215 N 36th St",
    "active": false,
    "unitCount": 1,
    "severity": 0,
    "lat": 47.652685,
    "long": -122.356428,
    "neighborhood": "Fremont",
    "neighborhoodGroup": "Lake Union",
    "units": "E9"
  },
  {
    "id_str": "F210063165",
    "created_at": "6/21/2021 6:17:31 AM",
    "timestamp": 1624281451000,
    "description": "MVI - Motor Vehicle Incident",
    "address": "6045 West Marginal Way Sw",
    "active": false,
    "unitCount": 1,
    "severity": 0,
    "lat": 47.547862,
    "long": -122.345196,
    "neighborhood": "Riverview",
    "neighborhoodGroup": "Delridge Neighborhoods",
    "units": "E11"
  },
  {
    "id_str": "F210063164",
    "created_at": "6/21/2021 6:15:56 AM",
    "timestamp": 1624281356000,
    "description": "Aid Response",
    "address": "1757 Nw 59th St",
    "active": false,
    "unitCount": 1,
    "severity": 0,
    "lat": 47.671634,
    "long": -122.379491,
    "neighborhood": "Ballard",
    "neighborhoodGroup": "Ballard",
    "units": "E18"
  },
  {
    "id_str": "F210063163",
    "created_at": "6/21/2021 5:55:45 AM",
    "timestamp": 1624280145000,
    "description": "Aid Response",
    "address": "Spring St / Western Ave",
    "active": false,
    "unitCount": 1,
    "severity": 0,
    "lat": 47.604943,
    "long": -122.338001,
    "neighborhood": "Downtown Commercial Core",
    "neighborhoodGroup": "Downtown",
    "units": "A10"
  },
  {
    "id_str": "F210063162",
    "created_at": "6/21/2021 5:55:07 AM",
    "timestamp": 1624280107000,
    "description": "Aid Response",
    "address": "Lake Washington Blvd S / 43rd Ave S",
    "active": false,
    "unitCount": 1,
    "severity": 0,
    "lat": 47.570135,
    "long": -122.279552,
    "neighborhood": "Columbia City",
    "neighborhoodGroup": "Southeast",
    "units": "E30"
  },
  {
    "id_str": "F210063158",
    "created_at": "6/21/2021 5:42:32 AM",
    "timestamp": 1624279352000,
    "description": "Aid Response",
    "address": "1906 Pike Pl",
    "active": false,
    "unitCount": 1,
    "severity": 0,
    "lat": 47.609673,
    "long": -122.342238,
    "neighborhood": "Belltown",
    "neighborhoodGroup": "Downtown",
    "units": "E5"
  },
  {
    "id_str": "F210063157",
    "created_at": "6/21/2021 5:24:41 AM",
    "timestamp": 1624278281000,
    "description": "Medic Response",
    "address": "747 N 135th St",
    "active": false,
    "unitCount": 2,
    "severity": 0,
    "lat": 47.726803,
    "long": -122.347793,
    "neighborhood": "Broadview/Bitter Lake",
    "neighborhoodGroup": "Northwest",
    "units": "E24 M31"
  },
  {
    "id_str": "F210063156",
    "created_at": "6/21/2021 5:21:19 AM",
    "timestamp": 1624278079000,
    "description": "Aid Response",
    "address": "5024 48th Ave Sw",
    "active": false,
    "unitCount": 1,
    "severity": 0,
    "lat": 47.557327,
    "long": -122.393608,
    "neighborhood": "West Seattle Junction/Genesee Hill",
    "neighborhoodGroup": "Southwest",
    "units": "E32"
  },
  {
    "id_str": "F210063155",
    "created_at": "6/21/2021 5:14:17 AM",
    "timestamp": 1624277657000,
    "description": "1RED 1 Unit",
    "address": "5112 S Hazel St",
    "active": false,
    "unitCount": 1,
    "severity": 0,
    "lat": 47.504897,
    "long": -122.269994,
    "neighborhood": "Rainier Beach",
    "neighborhoodGroup": "Southeast",
    "units": "E33"
  },
  {
    "id_str": "F210063154",
    "created_at": "6/21/2021 5:04:07 AM",
    "timestamp": 1624277047000,
    "description": "Aid Response",
    "address": "639 Nw 85th St",
    "active": false,
    "unitCount": 1,
    "severity": 0,
    "lat": 47.690643,
    "long": -122.363833,
    "neighborhood": "Greenwood/Phinney Ridge",
    "neighborhoodGroup": "Northwest",
    "units": "E35"
  },
  {
    "id_str": "F210063150",
    "created_at": "6/21/2021 5:00:07 AM",
    "timestamp": 1624276807000,
    "description": "4RED - 2 + 1 + 1",
    "address": "3810 4TH AVE S",
    "active": false,
    "unitCount": 4,
    "severity": 0,
    "lat": 47.56892,
    "long": -122.326777,
    "neighborhood": "Duwamish/SODO",
    "neighborhoodGroup": "Greater Duwamish",
    "units": "B5 E13 E36 R1"
  },
  {
    "id_str": "F210063149",
    "created_at": "6/21/2021 4:59:02 AM",
    "timestamp": 1624276742000,
    "description": "Aid Response",
    "address": "2519 1st Ave",
    "active": false,
    "unitCount": 1,
    "severity": 0,
    "lat": 47.614798,
    "long": -122.348918,
    "neighborhood": "Belltown",
    "neighborhoodGroup": "Downtown",
    "units": "E2"
  },
  {
    "id_str": "F210063144",
    "created_at": "6/21/2021 4:07:54 AM",
    "timestamp": 1624273674000,
    "description": "Illegal Burn",
    "address": "Ne 145th St / 5th Ave Ne",
    "active": false,
    "unitCount": 1,
    "severity": 0,
    "lat": 47.734053,
    "long": -122.323484,
    "units": "E24"
  },
  {
    "id_str": "F210063143",
    "created_at": "6/21/2021 3:57:43 AM",
    "timestamp": 1624273063000,
    "description": "Medic Response",
    "address": "2735 Ne 90th St",
    "active": false,
    "unitCount": 2,
    "severity": 0,
    "lat": 47.693882,
    "long": -122.298404,
    "neighborhood": "Wedgwood/View Ridge",
    "neighborhoodGroup": "Northeast",
    "units": "E40 M17"
  },
  {
    "id_str": "F210063141",
    "created_at": "6/21/2021 3:55:40 AM",
    "timestamp": 1624272940000,
    "description": "Medic Response",
    "address": "5968 Rainier Ave S",
    "active": false,
    "unitCount": 3,
    "severity": 0,
    "lat": 47.548785,
    "long": -122.276963,
    "neighborhood": "Columbia City",
    "neighborhoodGroup": "Southeast",
    "units": "A25 L12 M28"
  },
  {
    "id_str": "F210063142",
    "created_at": "6/21/2021 3:55:12 AM",
    "timestamp": 1624272912000,
    "description": "Aid Response",
    "address": "4450 Green Lake Way N",
    "active": false,
    "unitCount": 1,
    "severity": 0,
    "lat": 47.660979,
    "long": -122.34694,
    "neighborhood": "Wallingford",
    "neighborhoodGroup": "Lake Union",
    "units": "E9"
  },
  {
    "id_str": "F210063140",
    "created_at": "6/21/2021 3:44:46 AM",
    "timestamp": 1624272286000,
    "description": "Aid Response",
    "address": "401 S Jackson St",
    "active": false,
    "unitCount": 1,
    "severity": 0,
    "lat": 47.599197,
    "long": -122.328955,
    "neighborhood": "Pioneer Square/International District",
    "neighborhoodGroup": "Downtown",
    "units": "A10"
  },
  {
    "id_str": "F210063137",
    "created_at": "6/21/2021 3:27:07 AM",
    "timestamp": 1624271227000,
    "description": "Aid Response",
    "address": "5270 Rainier Ave S",
    "active": false,
    "unitCount": 1,
    "severity": 0,
    "lat": 47.554937,
    "long": -122.282393,
    "neighborhood": "Columbia City",
    "neighborhoodGroup": "Southeast",
    "units": "E28"
  },
  {
    "id_str": "F210063135",
    "created_at": "6/21/2021 3:26:05 AM",
    "timestamp": 1624271165000,
    "description": "Auto Fire Alarm",
    "address": "5444 Delridge Way Sw",
    "active": false,
    "unitCount": 2,
    "severity": 0,
    "lat": 47.553321,
    "long": -122.362969,
    "neighborhood": "High Point",
    "neighborhoodGroup": "Delridge Neighborhoods",
    "units": "E36 L13"
  },
  {
    "id_str": "F210063133",
    "created_at": "6/21/2021 3:09:10 AM",
    "timestamp": 1624270150000,
    "description": "MVI - Motor Vehicle Incident",
    "address": "12th Ave Sw / Sw Webster St",
    "active": false,
    "unitCount": 1,
    "severity": 0,
    "lat": 47.535497,
    "long": -122.350501,
    "neighborhood": "Riverview",
    "neighborhoodGroup": "Delridge Neighborhoods",
    "units": "E11"
  },
  {
    "id_str": "F210063134",
    "created_at": "6/21/2021 3:08:52 AM",
    "timestamp": 1624270132000,
    "description": "Aid Response",
    "address": "4700 38th Ave Sw",
    "active": false,
    "unitCount": 1,
    "severity": 0,
    "lat": 47.561082,
    "long": -122.380063,
    "neighborhood": "West Seattle Junction/Genesee Hill",
    "neighborhoodGroup": "Southwest",
    "units": "E32"
  },
  {
    "id_str": "F210063132",
    "created_at": "6/21/2021 3:03:22 AM",
    "timestamp": 1624269802000,
    "description": "Aid Response",
    "address": "800 Jefferson St",
    "active": false,
    "unitCount": 1,
    "severity": 0,
    "lat": 47.604377,
    "long": -122.325207,
    "neighborhood": "First Hill",
    "neighborhoodGroup": "East",
    "units": "A10"
  },
  {
    "id_str": "F210063129",
    "created_at": "6/21/2021 2:52:15 AM",
    "timestamp": 1624269135000,
    "description": "Aid Response",
    "address": "2619 5th Ave",
    "active": false,
    "unitCount": 1,
    "severity": 0,
    "lat": 47.618004,
    "long": -122.346424,
    "neighborhood": "Cascade/Eastlake",
    "neighborhoodGroup": "Lake Union",
    "units": "E2"
  },
  {
    "id_str": "F210063128",
    "created_at": "6/21/2021 2:35:19 AM",
    "timestamp": 1624268119000,
    "description": "Medic Response",
    "address": "4314 54th Ave Ne",
    "active": false,
    "unitCount": 2,
    "severity": 0,
    "lat": 47.65963,
    "long": -122.270106,
    "neighborhood": "Laurelhurst/Sand Point",
    "neighborhoodGroup": "Northeast",
    "units": "E38 M17"
  },
  {
    "id_str": "F210063127",
    "created_at": "6/21/2021 2:31:44 AM",
    "timestamp": 1624267904000,
    "description": "MVI - Motor Vehicle Incident",
    "address": "N 67TH ST / GREENWOOD AVE N",
    "active": false,
    "unitCount": 1,
    "severity": 0,
    "lat": 47.677781,
    "long": -122.355322,
    "neighborhood": "Greenwood/Phinney Ridge",
    "neighborhoodGroup": "Northwest",
    "units": "E21"
  },
  {
    "id_str": "F210063126",
    "created_at": "6/21/2021 2:15:50 AM",
    "timestamp": 1624266950000,
    "description": "Aid Response",
    "address": "9265 57th Ave S",
    "active": false,
    "unitCount": 1,
    "severity": 0,
    "lat": 47.519596,
    "long": -122.261594,
    "neighborhood": "Rainier Beach",
    "neighborhoodGroup": "Southeast",
    "units": "E33"
  },
  {
    "id_str": "F210063120",
    "created_at": "6/21/2021 1:52:51 AM",
    "timestamp": 1624265571000,
    "description": "Aid Response",
    "address": "3005 Rainier Ave S",
    "active": false,
    "unitCount": 1,
    "severity": 0,
    "lat": 47.576907,
    "long": -122.297049,
    "neighborhood": "Mt. Baker/North Rainier",
    "neighborhoodGroup": "Southeast",
    "units": "E30"
  },
  {
    "id_str": "F210063119",
    "created_at": "6/21/2021 1:43:29 AM",
    "timestamp": 1624265009000,
    "description": "Alarm Bell",
    "address": "7512 31st Ave Ne",
    "active": false,
    "unitCount": 1,
    "severity": 0,
    "lat": 47.683128,
    "long": -122.29477,
    "neighborhood": "Wedgwood/View Ridge",
    "neighborhoodGroup": "Northeast",
    "units": "E40"
  },
  {
    "id_str": "F210063118",
    "created_at": "6/21/2021 1:35:48 AM",
    "timestamp": 1624264548000,
    "description": "Aid Response",
    "address": "4300 Aurora Ave N",
    "active": false,
    "unitCount": 1,
    "severity": 0,
    "lat": 47.659567,
    "long": -122.347197,
    "neighborhood": "Wallingford",
    "neighborhoodGroup": "Lake Union",
    "units": "E9"
  },
  {
    "id_str": "F210063116",
    "created_at": "6/21/2021 1:23:10 AM",
    "timestamp": 1624263790000,
    "description": "Aid Response Freeway",
    "address": "SB I5 CD TO AIRPORT",
    "active": false,
    "unitCount": 4,
    "severity": 0,
    "lat": 47.595832,
    "long": -122.321371,
    "neighborhood": "Pioneer Square/International District",
    "neighborhoodGroup": "Downtown",
    "units": "A10 A25 E10 E5"
  },
  {
    "id_str": "F210063114",
    "created_at": "6/21/2021 1:20:16 AM",
    "timestamp": 1624263616000,
    "description": "Aid Response",
    "address": "12200 Stone Ave N",
    "active": false,
    "unitCount": 1,
    "severity": 0,
    "lat": 47.718487,
    "long": -122.342232,
    "neighborhood": "Haller Lake",
    "neighborhoodGroup": "Northwest",
    "units": "E24"
  },
  {
    "id_str": "F210063115",
    "created_at": "6/21/2021 1:19:29 AM",
    "timestamp": 1624263569000,
    "description": "Investigate Out Of Service",
    "address": "115 30th Ave E",
    "active": false,
    "unitCount": 1,
    "severity": 0,
    "lat": 47.619068,
    "long": -122.293501,
    "neighborhood": "Central Area/Squire Park",
    "neighborhoodGroup": "Central",
    "units": "E34"
  },
  {
    "id_str": "F210063113",
    "created_at": "6/21/2021 1:08:23 AM",
    "timestamp": 1624262903000,
    "description": "Low Acuity Response",
    "address": "1255 HARRISON ST",
    "active": false,
    "unitCount": 1,
    "severity": 0,
    "lat": 47.622015,
    "long": -122.335028,
    "neighborhood": "Cascade/Eastlake",
    "neighborhoodGroup": "Lake Union",
    "units": "E2"
  },
  {
    "id_str": "F210063112",
    "created_at": "6/21/2021 1:07:18 AM",
    "timestamp": 1624262838000,
    "description": "Medic Response",
    "address": "11030 5th Ave Ne",
    "active": false,
    "unitCount": 2,
    "severity": 0,
    "lat": 47.709488,
    "long": -122.323301,
    "neighborhood": "Northgate/Maple Leaf",
    "neighborhoodGroup": "North",
    "units": "E39 M17"
  },
  {
    "id_str": "F210063111",
    "created_at": "6/21/2021 1:05:46 AM",
    "timestamp": 1624262746000,
    "description": "Aid Response",
    "address": "35th Ave Sw / Sw Barton St",
    "active": false,
    "unitCount": 1,
    "severity": 0,
    "lat": 47.52107,
    "long": -122.376761,
    "neighborhood": "Roxhill/Westwood",
    "neighborhoodGroup": "Delridge Neighborhoods",
    "units": "E37"
  },
  {
    "id_str": "F210063109",
    "created_at": "6/21/2021 1:00:37 AM",
    "timestamp": 1624262437000,
    "description": "Aid Response",
    "address": "4250 Aurora Ave N",
    "active": false,
    "unitCount": 1,
    "severity": 0,
    "lat": 47.658651,
    "long": -122.347197,
    "neighborhood": "Wallingford",
    "neighborhoodGroup": "Lake Union",
    "units": "E9"
  },
  {
    "id_str": "F210063110",
    "created_at": "6/21/2021 1:00:09 AM",
    "timestamp": 1624262409000,
    "description": "Aid Response",
    "address": "308 4th Ave S",
    "active": false,
    "unitCount": 1,
    "severity": 0,
    "lat": 47.599968,
    "long": -122.328965,
    "neighborhood": "Pioneer Square/International District",
    "neighborhoodGroup": "Downtown",
    "units": "A10"
  },
  {
    "id_str": "F210063108",
    "created_at": "6/21/2021 12:47:31 AM",
    "timestamp": 1624261651000,
    "description": "Aid Response",
    "address": "510 Ne 98th St",
    "active": false,
    "unitCount": 1,
    "severity": 0,
    "lat": 47.700416,
    "long": -122.323025,
    "neighborhood": "Northgate/Maple Leaf",
    "neighborhoodGroup": "North",
    "units": "E16"
  },
  {
    "id_str": "F210063106",
    "created_at": "6/21/2021 12:45:19 AM",
    "timestamp": 1624261519000,
    "description": "Medic Response",
    "address": "S Mead St / Rainier Ave S",
    "active": false,
    "unitCount": 2,
    "severity": 0,
    "lat": 47.550425,
    "long": -122.277276,
    "neighborhood": "Columbia City",
    "neighborhoodGroup": "Southeast",
    "units": "L12 M28"
  },
  {
    "id_str": "F210063105",
    "created_at": "6/21/2021 12:41:11 AM",
    "timestamp": 1624261271000,
    "description": "Medic Response",
    "address": "2208 15th Ave W",
    "active": false,
    "unitCount": 2,
    "severity": 0,
    "lat": 47.638695,
    "long": -122.376149,
    "neighborhood": "Interbay",
    "neighborhoodGroup": "Magnolia/Queen Anne",
    "units": "E20 M31"
  },
  {
    "id_str": "F210063104",
    "created_at": "6/21/2021 12:32:05 AM",
    "timestamp": 1624260725000,
    "description": "Aid Response",
    "address": "515 Madison St",
    "active": false,
    "unitCount": 1,
    "severity": 0,
    "lat": 47.606624,
    "long": -122.331628,
    "neighborhood": "First Hill",
    "neighborhoodGroup": "East",
    "units": "A10"
  },
  {
    "id_str": "F210063100",
    "created_at": "6/21/2021 12:24:28 AM",
    "timestamp": 1624260268000,
    "description": "Aid Response",
    "address": "1911 22nd Ave S",
    "active": false,
    "unitCount": 1,
    "severity": 0,
    "lat": 47.586234,
    "long": -122.304237,
    "neighborhood": "North Beacon Hill/Jefferson Park",
    "neighborhoodGroup": "Greater Duwamish",
    "units": "E30"
  },
  {
    "id_str": "F210063101",
    "created_at": "6/21/2021 12:24:26 AM",
    "timestamp": 1624260266000,
    "description": "Aid Response",
    "address": "174 Roy St",
    "active": false,
    "unitCount": 1,
    "severity": 0,
    "lat": 47.625445,
    "long": -122.353438,
    "neighborhood": "Queen Anne",
    "neighborhoodGroup": "Magnolia/Queen Anne",
    "units": "E8"
  },
  {
    "id_str": "F210063096",
    "created_at": "6/21/2021 12:17:39 AM",
    "timestamp": 1624259859000,
    "description": "Low Acuity Response",
    "address": "7322 Rainier Ave S",
    "active": false,
    "unitCount": 1,
    "severity": 0,
    "lat": 47.536727,
    "long": -122.27022,
    "neighborhood": "Seward Park",
    "neighborhoodGroup": "Southeast",
    "units": "E28"
  },
  {
    "id_str": "F210063094",
    "created_at": "6/21/2021 12:09:48 AM",
    "timestamp": 1624259388000,
    "description": "Aid Response",
    "address": "7938 9th Ave Sw",
    "active": false,
    "unitCount": 1,
    "severity": 0,
    "lat": 47.531589,
    "long": -122.346777,
    "neighborhood": "Highland Park",
    "neighborhoodGroup": "Delridge Neighborhoods",
    "units": "E11"
  },
  {
    "id_str": "F210063092",
    "created_at": "6/21/2021 12:05:27 AM",
    "timestamp": 1624259127000,
    "description": "Water Job Minor",
    "address": "3204 Sw Morgan St",
    "active": false,
    "unitCount": 1,
    "severity": 0,
    "lat": 47.544669,
    "long": -122.373777,
    "neighborhood": "High Point",
    "neighborhoodGroup": "Delridge Neighborhoods",
    "units": "L13"
  },
  {
    "id_str": "F210063088",
    "created_at": "6/20/2021 11:51:18 PM",
    "timestamp": 1624258278000,
    "description": "Aid Response",
    "address": "101 N 104th St",
    "active": false,
    "unitCount": 1,
    "severity": 0,
    "lat": 47.704379,
    "long": -122.358359,
    "neighborhood": "North Beach/Blue Ridge",
    "neighborhoodGroup": "Ballard",
    "units": "E35"
  },
  {
    "id_str": "F210063087",
    "created_at": "6/20/2021 11:50:43 PM",
    "timestamp": 1624258243000,
    "description": "Aid Response",
    "address": "2nd Ave / Virginia St",
    "active": false,
    "unitCount": 1,
    "severity": 0,
    "lat": 47.611733,
    "long": -122.341753,
    "neighborhood": "Belltown",
    "neighborhoodGroup": "Downtown",
    "units": "L4"
  },
  {
    "id_str": "F210063086",
    "created_at": "6/20/2021 11:49:41 PM",
    "timestamp": 1624258181000,
    "description": "Medic Response",
    "address": "820 Yesler Way",
    "active": false,
    "unitCount": 2,
    "severity": 0,
    "lat": 47.601702,
    "long": -122.322098,
    "neighborhood": "First Hill",
    "neighborhoodGroup": "East",
    "units": "A10 M1"
  },
  {
    "id_str": "F210063084",
    "created_at": "6/20/2021 11:44:30 PM",
    "timestamp": 1624257870000,
    "description": "Aid Response",
    "address": "8608 35th Ave Sw",
    "active": false,
    "unitCount": 1,
    "severity": 0,
    "lat": 47.526439,
    "long": -122.376636,
    "neighborhood": "Roxhill/Westwood",
    "neighborhoodGroup": "Delridge Neighborhoods",
    "units": "E37"
  },
  {
    "id_str": "F210063083",
    "created_at": "6/20/2021 11:41:44 PM",
    "timestamp": 1624257704000,
    "description": "Aid Response",
    "address": "2008 Westlake Ave",
    "active": false,
    "unitCount": 1,
    "severity": 0,
    "lat": 47.615007,
    "long": -122.337781,
    "neighborhood": "Cascade/Eastlake",
    "neighborhoodGroup": "Lake Union",
    "units": "E2"
  },
  {
    "id_str": "F210063082",
    "created_at": "6/20/2021 11:41:24 PM",
    "timestamp": 1624257684000,
    "description": "Aid Response",
    "address": "566 Prospect St",
    "active": false,
    "unitCount": 1,
    "severity": 0,
    "lat": 47.628905,
    "long": -122.345796,
    "neighborhood": "Queen Anne",
    "neighborhoodGroup": "Magnolia/Queen Anne",
    "units": "E8"
  },
  {
    "id_str": "F210063080",
    "created_at": "6/20/2021 11:29:07 PM",
    "timestamp": 1624256947000,
    "description": "Aid Response",
    "address": "4211 S Cloverdale St",
    "active": false,
    "unitCount": 1,
    "severity": 0,
    "lat": 47.526107,
    "long": -122.280381,
    "neighborhood": "South Beacon Hill/NewHolly",
    "neighborhoodGroup": "Greater Duwamish",
    "units": "E33"
  },
  {
    "id_str": "F210063078",
    "created_at": "6/20/2021 11:20:50 PM",
    "timestamp": 1624256450000,
    "description": "Scenes Of Violence 7",
    "address": "627 1st Ave",
    "active": false,
    "unitCount": 5,
    "severity": 1,
    "lat": 47.60195,
    "long": -122.334178,
    "neighborhood": "Downtown Commercial Core",
    "neighborhoodGroup": "Downtown",
    "units": "A10 B2 E5 M10 M44"
  },
  {
    "id_str": "F210063076",
    "created_at": "6/20/2021 11:17:45 PM",
    "timestamp": 1624256265000,
    "description": "Rubbish Fire",
    "address": "Nw 85th St / 1st Ave Nw",
    "active": false,
    "unitCount": 1,
    "severity": 0,
    "lat": 47.69061,
    "long": -122.357982,
    "neighborhood": "Greenwood/Phinney Ridge",
    "neighborhoodGroup": "Northwest",
    "units": "E21"
  },
  {
    "id_str": "F210063075",
    "created_at": "6/20/2021 11:04:56 PM",
    "timestamp": 1624255496000,
    "description": "Aid Response",
    "address": "501 Rainier Ave S",
    "active": false,
    "unitCount": 1,
    "severity": 0,
    "lat": 47.598322,
    "long": -122.3134,
    "neighborhood": "Judkins Park",
    "neighborhoodGroup": "Central",
    "units": "E6"
  },
  {
    "id_str": "F210063073",
    "created_at": "6/20/2021 10:55:16 PM",
    "timestamp": 1624254916000,
    "description": "Rescue Elevator",
    "address": "155 21st Ave",
    "active": false,
    "unitCount": 1,
    "severity": 0,
    "lat": 47.602742,
    "long": -122.305039,
    "neighborhood": "Central Area/Squire Park",
    "neighborhoodGroup": "Central",
    "units": "L3"
  },
  {
    "id_str": "F210063071",
    "created_at": "6/20/2021 10:49:07 PM",
    "timestamp": 1624254547000,
    "description": "Aid Response",
    "address": "6306 East Green Lake Way N",
    "active": false,
    "unitCount": 1,
    "severity": 0,
    "lat": 47.674678,
    "long": -122.334594,
    "neighborhood": "Green Lake",
    "neighborhoodGroup": "Northwest",
    "units": "L9"
  },
  {
    "id_str": "F210063070",
    "created_at": "6/20/2021 10:47:43 PM",
    "timestamp": 1624254463000,
    "description": "Aid Response",
    "address": "843 Ne 81st St",
    "active": false,
    "unitCount": 1,
    "severity": 0,
    "lat": 47.687489,
    "long": -122.319677,
    "neighborhood": "Green Lake",
    "neighborhoodGroup": "Northwest",
    "units": "E16"
  },
  {
    "id_str": "F210063068",
    "created_at": "6/20/2021 10:42:20 PM",
    "timestamp": 1624254140000,
    "description": "Aid Response",
    "address": "Seneca St / Alaskan Way",
    "active": false,
    "unitCount": 1,
    "severity": 0,
    "lat": 47.605178,
    "long": -122.339773,
    "neighborhood": "Downtown Commercial Core",
    "neighborhoodGroup": "Downtown",
    "units": "E5"
  },
  {
    "id_str": "F210063067",
    "created_at": "6/20/2021 10:35:46 PM",
    "timestamp": 1624253746000,
    "description": "MVI - Motor Vehicle Incident",
    "address": "NB I5 AT I90",
    "active": false,
    "unitCount": 6,
    "severity": 1,
    "lat": 47.601669,
    "long": -122.324897,
    "neighborhood": "Pioneer Square/International District",
    "neighborhoodGroup": "Downtown",
    "units": "A14 A25 E13 E17 E22 E30"
  },
  {
    "id_str": "F210063064",
    "created_at": "6/20/2021 10:20:43 PM",
    "timestamp": 1624252843000,
    "description": "Rubbish Fire",
    "address": "4800 S Henderson St",
    "active": false,
    "unitCount": 1,
    "severity": 0,
    "lat": 47.52331,
    "long": -122.272834,
    "neighborhood": "Rainier Beach",
    "neighborhoodGroup": "Southeast",
    "units": "E33"
  },
  {
    "id_str": "F210063061",
    "created_at": "6/20/2021 10:14:09 PM",
    "timestamp": 1624252449000,
    "description": "Automatic Fire Alarm Resd",
    "address": "8521 7th Ave S",
    "active": false,
    "unitCount": 1,
    "severity": 0,
    "lat": 47.526999,
    "long": -122.325578,
    "neighborhood": "South Park",
    "neighborhoodGroup": "Greater Duwamish",
    "units": "E26"
  },
  {
    "id_str": "F210063060",
    "created_at": "6/20/2021 10:11:26 PM",
    "timestamp": 1624252286000,
    "description": "Aid Response",
    "address": "2140 N Northgate Way",
    "active": false,
    "unitCount": 1,
    "severity": 0,
    "lat": 47.708656,
    "long": -122.3329,
    "neighborhood": "Northgate/Maple Leaf",
    "neighborhoodGroup": "North",
    "units": "E16"
  },
  {
    "id_str": "F210063059",
    "created_at": "6/20/2021 10:02:09 PM",
    "timestamp": 1624251729000,
    "description": "MVI - Motor Vehicle Incident",
    "address": "Eastlake Ave E / E Boston St",
    "active": false,
    "unitCount": 1,
    "severity": 0,
    "lat": 47.638247,
    "long": -122.325895,
    "neighborhood": "Cascade/Eastlake",
    "neighborhoodGroup": "Lake Union",
    "units": "E22"
  },
  {
    "id_str": "F210063057",
    "created_at": "6/20/2021 9:58:28 PM",
    "timestamp": 1624251508000,
    "description": "Auto Fire Alarm",
    "address": "601 Union St",
    "active": false,
    "unitCount": 2,
    "severity": 0,
    "lat": 47.610155,
    "long": -122.333545,
    "neighborhood": "First Hill",
    "neighborhoodGroup": "East",
    "units": "E10 L1"
  },
  {
    "id_str": "F210063056",
    "created_at": "6/20/2021 9:57:08 PM",
    "timestamp": 1624251428000,
    "description": "Medic Response",
    "address": "106 Occidental Ave S",
    "active": false,
    "unitCount": 2,
    "severity": 0,
    "lat": 47.60167,
    "long": -122.332874,
    "neighborhood": "Pioneer Square/International District",
    "neighborhoodGroup": "Downtown",
    "units": "A10 M1"
  },
  {
    "id_str": "F210063054",
    "created_at": "6/20/2021 9:55:40 PM",
    "timestamp": 1624251340000,
    "description": "Auto Fire Alarm",
    "address": "111 Yale Ave N",
    "active": false,
    "unitCount": 2,
    "severity": 0,
    "lat": 47.618823,
    "long": -122.330413,
    "neighborhood": "Cascade/Eastlake",
    "neighborhoodGroup": "Lake Union",
    "units": "E2 L4"
  },
  {
    "id_str": "F210063053",
    "created_at": "6/20/2021 9:53:21 PM",
    "timestamp": 1624251201000,
    "description": "Illegal Burn",
    "address": "1st Ave / Cherry St",
    "active": false,
    "unitCount": 1,
    "severity": 0,
    "lat": 47.602555,
    "long": -122.334281,
    "neighborhood": "Downtown Commercial Core",
    "neighborhoodGroup": "Downtown",
    "units": "E5"
  },
  {
    "id_str": "F210063052",
    "created_at": "6/20/2021 9:39:17 PM",
    "timestamp": 1624250357000,
    "description": "Aid Response",
    "address": "1923 3rd Ave",
    "active": false,
    "unitCount": 1,
    "severity": 0,
    "lat": 47.611802,
    "long": -122.339884,
    "neighborhood": "Cascade/Eastlake",
    "neighborhoodGroup": "Lake Union",
    "units": "E2"
  },
  {
    "id_str": "F210063050",
    "created_at": "6/20/2021 9:30:29 PM",
    "timestamp": 1624249829000,
    "description": "Aid Response",
    "address": "7322 Rainier Ave S",
    "active": false,
    "unitCount": 1,
    "severity": 0,
    "lat": 47.536727,
    "long": -122.27022,
    "neighborhood": "Seward Park",
    "neighborhoodGroup": "Southeast",
    "units": "L12"
  },
  {
    "id_str": "F210063045",
    "created_at": "6/20/2021 9:22:22 PM",
    "timestamp": 1624249342000,
    "description": "Aid Response",
    "address": "3201 Sw Graham St",
    "active": false,
    "unitCount": 1,
    "severity": 0,
    "lat": 47.54666,
    "long": -122.373219,
    "neighborhood": "High Point",
    "neighborhoodGroup": "Delridge Neighborhoods",
    "units": "E37"
  },
  {
    "id_str": "F210063042",
    "created_at": "6/20/2021 9:12:54 PM",
    "timestamp": 1624248774000,
    "description": "Aid Response",
    "address": "15th Ave Ne / Ne 42nd St",
    "active": false,
    "unitCount": 1,
    "severity": 0,
    "lat": 47.658301,
    "long": -122.312071,
    "neighborhood": "University District",
    "neighborhoodGroup": "Northeast",
    "units": "E17"
  },
  {
    "id_str": "F210063040",
    "created_at": "6/20/2021 9:10:46 PM",
    "timestamp": 1624248646000,
    "description": "Medic Response, 7 per Rule",
    "address": "10306 Meridian Ave N",
    "active": false,
    "unitCount": 3,
    "severity": 0,
    "lat": 47.703266,
    "long": -122.333904,
    "neighborhood": "Northgate/Maple Leaf",
    "neighborhoodGroup": "North",
    "units": "E21 E24 M31"
  },
  {
    "id_str": "F210063039",
    "created_at": "6/20/2021 9:08:34 PM",
    "timestamp": 1624248514000,
    "description": "Aid Response",
    "address": "11029 2nd Ave Ne",
    "active": false,
    "unitCount": 1,
    "severity": 0,
    "lat": 47.708998,
    "long": -122.327304,
    "neighborhood": "Northgate/Maple Leaf",
    "neighborhoodGroup": "North",
    "units": "E16"
  },
  {
    "id_str": "F210063037",
    "created_at": "6/20/2021 9:07:31 PM",
    "timestamp": 1624248451000,
    "description": "Auto Fire Alarm",
    "address": "2121 26th Ave S",
    "active": false,
    "unitCount": 2,
    "severity": 0,
    "lat": 47.584234,
    "long": -122.299024,
    "neighborhood": "Mt. Baker/North Rainier",
    "neighborhoodGroup": "Southeast",
    "units": "E28 R1"
  },
  {
    "id_str": "F210063035",
    "created_at": "6/20/2021 9:04:37 PM",
    "timestamp": 1624248277000,
    "description": "Aid Response",
    "address": "5509 16th Ave S",
    "active": false,
    "unitCount": 2,
    "severity": 0,
    "lat": 47.553372,
    "long": -122.3123,
    "neighborhood": "Beacon Hill",
    "neighborhoodGroup": "Greater Duwamish",
    "units": "E13 E27"
  },
  {
    "id_str": "F210063034",
    "created_at": "6/20/2021 9:04:17 PM",
    "timestamp": 1624248257000,
    "description": "Fire in Building",
    "address": "115 30TH AVE",
    "active": false,
    "unitCount": 19,
    "severity": 2,
    "lat": 47.601903,
    "long": -122.293732,
    "neighborhood": "Central Area/Squire Park",
    "neighborhoodGroup": "Central",
    "units": "A10 AIR10 B2 B5 DEP1 E10 E25 E30 E5 E6 L1 L10 L3 M1 M44 MAR5 REHAB1 SAFT2 STAF10"
  },
  {
    "id_str": "F210063031",
    "created_at": "6/20/2021 8:50:59 PM",
    "timestamp": 1624247459000,
    "description": "Aid Response",
    "address": "1001 E Pine St",
    "active": false,
    "unitCount": 1,
    "severity": 0,
    "lat": 47.615245,
    "long": -122.319465,
    "neighborhood": "Capitol Hill",
    "neighborhoodGroup": "East",
    "units": "A25"
  },
  {
    "id_str": "F210063029",
    "created_at": "6/20/2021 8:42:58 PM",
    "timestamp": 1624246978000,
    "description": "Advised Incident",
    "address": "9th Ave / Denny Way",
    "active": false,
    "unitCount": 1,
    "severity": 0,
    "lat": 47.618538,
    "long": -122.339376,
    "neighborhood": "Cascade/Eastlake",
    "neighborhoodGroup": "Lake Union",
    "units": "L4"
  },
  {
    "id_str": "F210063028",
    "created_at": "6/20/2021 8:41:36 PM",
    "timestamp": 1624246896000,
    "description": "Aid Response",
    "address": "6th Ave S / S Michigan St",
    "active": false,
    "unitCount": 1,
    "severity": 0,
    "lat": 47.54625,
    "long": -122.326153,
    "neighborhood": "Georgetown",
    "neighborhoodGroup": "Greater Duwamish",
    "units": "E27"
  },
  {
    "id_str": "F210063027",
    "created_at": "6/20/2021 8:39:25 PM",
    "timestamp": 1624246765000,
    "description": "Aid Response",
    "address": "204 3rd Ave S",
    "active": false,
    "unitCount": 1,
    "severity": 0,
    "lat": 47.600843,
    "long": -122.330271,
    "neighborhood": "Pioneer Square/International District",
    "neighborhoodGroup": "Downtown",
    "units": "E10"
  },
  {
    "id_str": "F210063026",
    "created_at": "6/20/2021 8:38:53 PM",
    "timestamp": 1624246733000,
    "description": "Aid Response",
    "address": "35th Ave Ne / Ne 105th St",
    "active": false,
    "unitCount": 1,
    "severity": 0,
    "lat": 47.704785,
    "long": -122.290875,
    "neighborhood": "Cedar Park/Meadowbrook",
    "neighborhoodGroup": "North",
    "units": "E40"
  },
  {
    "id_str": "F210063025",
    "created_at": "6/20/2021 8:38:09 PM",
    "timestamp": 1624246689000,
    "description": "Aid Response",
    "address": "9456 16th Ave Sw",
    "active": false,
    "unitCount": 1,
    "severity": 0,
    "lat": 47.518677,
    "long": -122.355151,
    "neighborhood": "Highland Park",
    "neighborhoodGroup": "Delridge Neighborhoods",
    "units": "E11"
  },
  {
    "id_str": "F210063023",
    "created_at": "6/20/2021 8:36:13 PM",
    "timestamp": 1624246573000,
    "description": "Medic Response",
    "address": "10258 35TH AVE SW",
    "active": false,
    "unitCount": 2,
    "severity": 0,
    "lat": 47.511577,
    "long": -122.376076,
    "neighborhood": "Arbor Heights",
    "neighborhoodGroup": "Southwest",
    "units": "E37 M32"
  },
  {
    "id_str": "F210063022",
    "created_at": "6/20/2021 8:33:07 PM",
    "timestamp": 1624246387000,
    "description": "Investigate Out Of Service",
    "address": "1215 Mcgilvra Blvd E",
    "active": false,
    "unitCount": 2,
    "severity": 0,
    "lat": 47.629835,
    "long": -122.281342,
    "neighborhood": "Madison Park",
    "neighborhoodGroup": "East",
    "units": "E34 L10"
  },
  {
    "id_str": "F210063021",
    "created_at": "6/20/2021 8:32:09 PM",
    "timestamp": 1624246329000,
    "description": "Medic Response",
    "address": "12287 Corliss Ave N",
    "active": false,
    "unitCount": 2,
    "severity": 0,
    "lat": 47.718326,
    "long": -122.329952,
    "neighborhood": "Haller Lake",
    "neighborhoodGroup": "Northwest",
    "units": "E24 M10"
  },
  {
    "id_str": "F210063019",
    "created_at": "6/20/2021 8:31:18 PM",
    "timestamp": 1624246278000,
    "description": "Aid Response",
    "address": "7926 50th Ave S",
    "active": false,
    "unitCount": 1,
    "severity": 0,
    "lat": 47.531415,
    "long": -122.270825,
    "neighborhood": "Rainier Beach",
    "neighborhoodGroup": "Southeast",
    "units": "E33"
  },
  {
    "id_str": "F210063018",
    "created_at": "6/20/2021 8:30:59 PM",
    "timestamp": 1624246259000,
    "description": "Medic Response",
    "address": "Denny Way / Wall St",
    "active": false,
    "unitCount": 2,
    "severity": 0,
    "lat": 47.618557,
    "long": -122.34365,
    "neighborhood": "Cascade/Eastlake",
    "neighborhoodGroup": "Lake Union",
    "units": "E2 M10"
  },
  {
    "id_str": "F210063015",
    "created_at": "6/20/2021 8:23:49 PM",
    "timestamp": 1624245829000,
    "description": "Aid Response",
    "address": "12th Ave S / S Jackson St",
    "active": false,
    "unitCount": 1,
    "severity": 0,
    "lat": 47.599187,
    "long": -122.317225,
    "neighborhood": "Pioneer Square/International District",
    "neighborhoodGroup": "Downtown",
    "units": "A10"
  },
  {
    "id_str": "F210063014",
    "created_at": "6/20/2021 8:23:34 PM",
    "timestamp": 1624245814000,
    "description": "Aid Response",
    "address": "Diagonal Ave S / S Spokane St",
    "active": false,
    "unitCount": 1,
    "severity": 0,
    "lat": 47.571751,
    "long": -122.324247,
    "neighborhood": "Duwamish/SODO",
    "neighborhoodGroup": "Greater Duwamish",
    "units": "A14"
  },
  {
    "id_str": "F210063012",
    "created_at": "6/20/2021 8:06:58 PM",
    "timestamp": 1624244818000,
    "description": "Aid Response",
    "address": "1200 University St",
    "active": false,
    "unitCount": 1,
    "severity": 0,
    "lat": 47.611943,
    "long": -122.325987,
    "neighborhood": "First Hill",
    "neighborhoodGroup": "East",
    "units": "E25"
  },
  {
    "id_str": "F210063011",
    "created_at": "6/20/2021 8:04:01 PM",
    "timestamp": 1624244641000,
    "description": "Aid Response",
    "address": "1301 Alaskan Way",
    "active": false,
    "unitCount": 1,
    "severity": 0,
    "lat": 47.605911,
    "long": -122.340413,
    "neighborhood": "Downtown Commercial Core",
    "neighborhoodGroup": "Downtown",
    "units": "E5"
  },
  {
    "id_str": "F210063009",
    "created_at": "6/20/2021 8:02:18 PM",
    "timestamp": 1624244538000,
    "description": "Aid Response",
    "address": "922 Mcgilvra Blvd E",
    "active": false,
    "unitCount": 1,
    "severity": 0,
    "lat": 47.627072,
    "long": -122.281529,
    "neighborhood": "Madison Park",
    "neighborhoodGroup": "East",
    "units": "E34"
  },
  {
    "id_str": "F210063008",
    "created_at": "6/20/2021 8:01:16 PM",
    "timestamp": 1624244476000,
    "description": "Auto Fire Alarm",
    "address": "6736 Ellis Ave S",
    "active": false,
    "unitCount": 2,
    "severity": 0,
    "lat": 47.542558,
    "long": -122.319377,
    "neighborhood": "Georgetown",
    "neighborhoodGroup": "Greater Duwamish",
    "units": "E27 L12"
  },
  {
    "id_str": "F210063007",
    "created_at": "6/20/2021 8:01:08 PM",
    "timestamp": 1624244468000,
    "description": "Aid Response",
    "address": "1431 Minor Ave",
    "active": false,
    "unitCount": 1,
    "severity": 0,
    "lat": 47.613247,
    "long": -122.327187,
    "neighborhood": "Capitol Hill",
    "neighborhoodGroup": "East",
    "units": "A25"
  },
  {
    "id_str": "F210063006",
    "created_at": "6/20/2021 7:58:28 PM",
    "timestamp": 1624244308000,
    "description": "Aid Response",
    "address": "10507 Aurora Ave N",
    "active": false,
    "unitCount": 1,
    "severity": 0,
    "lat": 47.705096,
    "long": -122.344695,
    "neighborhood": "Licton Springs",
    "neighborhoodGroup": "Northwest",
    "units": "E16"
  },
  {
    "id_str": "F210063004",
    "created_at": "6/20/2021 7:57:27 PM",
    "timestamp": 1624244247000,
    "description": "Wires Down",
    "address": "2822 31st Ave S",
    "active": false,
    "unitCount": 1,
    "severity": 0,
    "lat": 47.578194,
    "long": -122.292997,
    "neighborhood": "Mt. Baker/North Rainier",
    "neighborhoodGroup": "Southeast",
    "units": "E30"
  },
  {
    "id_str": "F210063003",
    "created_at": "6/20/2021 7:56:51 PM",
    "timestamp": 1624244211000,
    "description": "Scenes Of Violence 7",
    "address": "9701 Greenwood Ave N",
    "active": false,
    "unitCount": 5,
    "severity": 1,
    "lat": 47.69965,
    "long": -122.355396,
    "neighborhood": "Greenwood/Phinney Ridge",
    "neighborhoodGroup": "Northwest",
    "units": "B4 E17 E9 M10 M31"
  },
  {
    "id_str": "F210063002",
    "created_at": "6/20/2021 7:56:02 PM",
    "timestamp": 1624244162000,
    "description": "Aid Response",
    "address": "13407 Greenwood Ave N",
    "active": false,
    "unitCount": 1,
    "severity": 0,
    "lat": 47.726018,
    "long": -122.355553,
    "neighborhood": "Broadview/Bitter Lake",
    "neighborhoodGroup": "Northwest",
    "units": "E24"
  },
  {
    "id_str": "F210063001",
    "created_at": "6/20/2021 7:50:11 PM",
    "timestamp": 1624243811000,
    "description": "Water Rescue Response",
    "address": "Alki Ave Sw / 60th Ave Sw",
    "active": false,
    "unitCount": 16,
    "severity": 2,
    "lat": 47.579509,
    "long": -122.409331,
    "neighborhood": "Alki/Admiral",
    "neighborhoodGroup": "Southwest",
    "units": "A14 B6 B7 E10 E29 FB3 FIREBOAT FRB5 L11 L4 M10 M32 M44 PTRL4 R1 SAFT2"
  },
  {
    "id_str": "F210062998",
    "created_at": "6/20/2021 7:45:25 PM",
    "timestamp": 1624243525000,
    "description": "1RED 1 Unit",
    "address": "1423 Nw 80th St",
    "active": false,
    "unitCount": 1,
    "severity": 0,
    "lat": 47.686889,
    "long": -122.374718,
    "neighborhood": "Whittier Heights",
    "neighborhoodGroup": "Ballard",
    "units": "E21"
  },
  {
    "id_str": "F210062996",
    "created_at": "6/20/2021 7:39:44 PM",
    "timestamp": 1624243184000,
    "description": "Medic Response",
    "address": "820 Nw 95th St",
    "active": false,
    "unitCount": 3,
    "severity": 0,
    "lat": 47.697867,
    "long": -122.367016,
    "neighborhood": "Greenwood/Phinney Ridge",
    "neighborhoodGroup": "Northwest",
    "units": "E35 M10 M17"
  },
  {
    "id_str": "F210062995",
    "created_at": "6/20/2021 7:33:34 PM",
    "timestamp": 1624242814000,
    "description": "Medic Response",
    "address": "2208 Nw 60th St",
    "active": false,
    "unitCount": 2,
    "severity": 0,
    "lat": 47.672371,
    "long": -122.384843,
    "neighborhood": "Whittier Heights",
    "neighborhoodGroup": "Ballard",
    "units": "E18 M31"
  },
  {
    "id_str": "F210062993",
    "created_at": "6/20/2021 7:27:27 PM",
    "timestamp": 1624242447000,
    "description": "Medic Response, 6 per Rule",
    "address": "3798 Montlake Blvd Ne",
    "active": false,
    "unitCount": 3,
    "severity": 0,
    "lat": 47.651063,
    "long": -122.303919,
    "neighborhood": "University District",
    "neighborhoodGroup": "Northeast",
    "units": "E17 L9 M10"
  },
  {
    "id_str": "F210062994",
    "created_at": "6/20/2021 7:27:06 PM",
    "timestamp": 1624242426000,
    "description": "Medic Response",
    "address": "Alaskan Way S / S Main St",
    "active": false,
    "unitCount": 3,
    "severity": 0,
    "lat": 47.600046,
    "long": -122.335911,
    "neighborhood": "Pioneer Square/International District",
    "neighborhoodGroup": "Downtown",
    "units": "A10 E5 M1"
  },
  {
    "id_str": "F210062991",
    "created_at": "6/20/2021 7:20:49 PM",
    "timestamp": 1624242049000,
    "description": "Aid Response",
    "address": "525 HOWE ST",
    "active": false,
    "unitCount": 1,
    "severity": 0,
    "lat": 47.635702,
    "long": -122.346417,
    "neighborhood": "Queen Anne",
    "neighborhoodGroup": "Magnolia/Queen Anne",
    "units": "L6"
  },
  {
    "id_str": "F210062989",
    "created_at": "6/20/2021 7:16:49 PM",
    "timestamp": 1624241809000,
    "description": "Aid Response",
    "address": "5727 37th Ave S",
    "active": false,
    "unitCount": 1,
    "severity": 0,
    "lat": 47.551024,
    "long": -122.286266,
    "neighborhood": "Columbia City",
    "neighborhoodGroup": "Southeast",
    "units": "E28"
  },
  {
    "id_str": "F210062990",
    "created_at": "6/20/2021 7:16:47 PM",
    "timestamp": 1624241807000,
    "description": "Aid Response",
    "address": "1005 Terrace St",
    "active": false,
    "unitCount": 1,
    "severity": 0,
    "lat": 47.604615,
    "long": -122.32228,
    "neighborhood": "First Hill",
    "neighborhoodGroup": "East",
    "units": "A25"
  },
  {
    "id_str": "F210062988",
    "created_at": "6/20/2021 7:04:17 PM",
    "timestamp": 1624241057000,
    "description": "MVI - Motor Vehicle Incident",
    "address": "8TH AVE NW / NW 47TH ST",
    "active": false,
    "unitCount": 1,
    "severity": 0,
    "lat": 47.662922,
    "long": -122.366193,
    "neighborhood": "Fremont",
    "neighborhoodGroup": "Lake Union",
    "units": "E18"
  },
  {
    "id_str": "F210062986",
    "created_at": "6/20/2021 7:02:19 PM",
    "timestamp": 1624240939000,
    "description": "Aid Response",
    "address": "1600 W Dravus St",
    "active": false,
    "unitCount": 1,
    "severity": 0,
    "lat": 47.648467,
    "long": -122.377498,
    "neighborhood": "Interbay",
    "neighborhoodGroup": "Magnolia/Queen Anne",
    "units": "E20"
  },
  {
    "id_str": "F210062985",
    "created_at": "6/20/2021 7:01:46 PM",
    "timestamp": 1624240906000,
    "description": "Aid Response",
    "address": "424 Maynard Ave S",
    "active": false,
    "unitCount": 1,
    "severity": 0,
    "lat": 47.598986,
    "long": -122.325056,
    "neighborhood": "Pioneer Square/International District",
    "neighborhoodGroup": "Downtown",
    "units": "L3"
  },
  {
    "id_str": "F210062984",
    "created_at": "6/20/2021 6:58:13 PM",
    "timestamp": 1624240693000,
    "description": "AFA4 - Auto Alarm 2 + 1 + 1",
    "address": "201 Alaskan Way S",
    "active": false,
    "unitCount": 4,
    "severity": 0,
    "lat": 47.600881,
    "long": -122.335976,
    "neighborhood": "Pioneer Square/International District",
    "neighborhoodGroup": "Downtown",
    "units": "B2 E10 E5 L1"
  },
  {
    "id_str": "F210062983",
    "created_at": "6/20/2021 6:57:45 PM",
    "timestamp": 1624240665000,
    "description": "Aid Response",
    "address": "Grand Ave / Madrona Dr",
    "active": false,
    "unitCount": 1,
    "severity": 0,
    "lat": 47.616165,
    "long": -122.284612,
    "neighborhood": "Madrona/Leschi",
    "neighborhoodGroup": "Central",
    "units": "E34"
  },