[
  {
    "id_str": "F210031088",
    "created_at": "4/1/2021 4:57:12 PM",
    "timestamp": 1617321432000,
    "description": "Advised Incident",
    "address": "9240 2nd Ave Sw",
    "active": false,
    "unitCount": 1,
    "severity": 0,
    "lat": 47.520451,
    "long": -122.336003,
    "units": "E26"
  },
  {
    "id_str": "F210031086",
    "created_at": "4/1/2021 4:50:02 PM",
    "timestamp": 1617321002000,
    "description": "Low Acuity Response",
    "address": "100 Taylor Ave N",
    "active": false,
    "unitCount": 3,
    "severity": 0,
    "lat": 47.618566,
    "long": -122.346316,
    "neighborhood": "Cascade/Eastlake",
    "neighborhoodGroup": "Lake Union",
    "units": "A10 A4 H1"
  },
  {
    "id_str": "F210031085",
    "created_at": "4/1/2021 4:48:24 PM",
    "timestamp": 1617320904000,
    "description": "Aid Response",
    "address": "2401 8th Ave N",
    "active": false,
    "unitCount": 1,
    "severity": 0,
    "lat": 47.639698,
    "long": -122.34259,
    "neighborhood": "Queen Anne",
    "neighborhoodGroup": "Magnolia/Queen Anne",
    "units": "E9"
  },
  {
    "id_str": "F210031084",
    "created_at": "4/1/2021 4:45:20 PM",
    "timestamp": 1617320720000,
    "description": "Aid Response",
    "address": "4401 4th Ave S",
    "active": false,
    "unitCount": 1,
    "severity": 0,
    "lat": 47.564617,
    "long": -122.329378,
    "neighborhood": "Duwamish/SODO",
    "neighborhoodGroup": "Greater Duwamish",
    "units": "A14"
  },
  {
    "id_str": "F210031083",
    "created_at": "4/1/2021 4:44:23 PM",
    "timestamp": 1617320663000,
    "description": "Rescue Elevator",
    "address": "202 6th Ave S",
    "active": false,
    "unitCount": 1,
    "severity": 0,
    "lat": 47.600854,
    "long": -122.326354,
    "neighborhood": "Pioneer Square/International District",
    "neighborhoodGroup": "Downtown",
    "units": "L1"
  },
  {
    "id_str": "F210031082",
    "created_at": "4/1/2021 4:41:33 PM",
    "timestamp": 1617320493000,
    "description": "Aid Response",
    "address": "100 Melrose Ave E",
    "active": false,
    "unitCount": 1,
    "severity": 0,
    "lat": 47.618497,
    "long": -122.327854,
    "neighborhood": "Capitol Hill",
    "neighborhoodGroup": "East",
    "units": "A25"
  },
  {
    "id_str": "F210031081",
    "created_at": "4/1/2021 4:39:16 PM",
    "timestamp": 1617320356000,
    "description": "Low Acuity Response",
    "address": "3206 S Ferdinand St",
    "active": false,
    "unitCount": 1,
    "severity": 0,
    "lat": 47.557867,
    "long": -122.291351,
    "neighborhood": "Columbia City",
    "neighborhoodGroup": "Southeast",
    "units": "E28"
  },
  {
    "id_str": "F210031080",
    "created_at": "4/1/2021 4:36:54 PM",
    "timestamp": 1617320214000,
    "description": "Aid Response",
    "address": "2931 S Mount Baker Blvd",
    "active": false,
    "unitCount": 1,
    "severity": 0,
    "lat": 47.575875,
    "long": -122.294935,
    "neighborhood": "Mt. Baker/North Rainier",
    "neighborhoodGroup": "Southeast",
    "units": "E30"
  },
  {
    "id_str": "F210031079",
    "created_at": "4/1/2021 4:31:53 PM",
    "timestamp": 1617319913000,
    "description": "Aid Response",
    "address": "3211 Beacon Ave S",
    "active": false,
    "unitCount": 1,
    "severity": 0,
    "lat": 47.57497,
    "long": -122.30918,
    "neighborhood": "North Beacon Hill/Jefferson Park",
    "neighborhoodGroup": "Greater Duwamish",
    "units": "E13"
  },
  {
    "id_str": "F210031078",
    "created_at": "4/1/2021 4:27:15 PM",
    "timestamp": 1617319635000,
    "description": "Aid Response",
    "address": "3rd Ave / Virginia St",
    "active": false,
    "unitCount": 1,
    "severity": 0,
    "lat": 47.612398,
    "long": -122.340892,
    "neighborhood": "Cascade/Eastlake",
    "neighborhoodGroup": "Lake Union",
    "units": "A2"
  },
  {
    "id_str": "F210031077",
    "created_at": "4/1/2021 4:26:24 PM",
    "timestamp": 1617319584000,
    "description": "1RED 1 Unit",
    "address": "3601 Beacon Ave S",
    "active": false,
    "unitCount": 1,
    "severity": 0,
    "lat": 47.571924,
    "long": -122.308253,
    "neighborhood": "North Beacon Hill/Jefferson Park",
    "neighborhoodGroup": "Greater Duwamish",
    "units": "E13"
  },
  {
    "id_str": "F210031076",
    "created_at": "4/1/2021 4:23:15 PM",
    "timestamp": 1617319395000,
    "description": "Medic Response",
    "address": "7500 East Marginal Way S",
    "active": false,
    "unitCount": 2,
    "severity": 0,
    "lat": 47.535372,
    "long": -122.315012,
    "neighborhood": "Georgetown",
    "neighborhoodGroup": "Greater Duwamish",
    "units": "E27 M26"
  },
  {
    "id_str": "F210031073",
    "created_at": "4/1/2021 4:12:06 PM",
    "timestamp": 1617318726000,
    "description": "Auto Fire Alarm",
    "address": "3612 26th Pl W",
    "active": false,
    "unitCount": 2,
    "severity": 0,
    "lat": 47.652336,
    "long": -122.388751,
    "neighborhood": "Interbay",
    "neighborhoodGroup": "Magnolia/Queen Anne",
    "units": "E20 L8"
  },
  {
    "id_str": "F210031072",
    "created_at": "4/1/2021 4:10:36 PM",
    "timestamp": 1617318636000,
    "description": "Aid Response",
    "address": "308 4th Ave S",
    "active": false,
    "unitCount": 1,
    "severity": 0,
    "lat": 47.599968,
    "long": -122.328965,
    "neighborhood": "Pioneer Square/International District",
    "neighborhoodGroup": "Downtown",
    "units": "A5"
  },
  {
    "id_str": "F210031071",
    "created_at": "4/1/2021 4:08:09 PM",
    "timestamp": 1617318489000,
    "description": "Aid Response",
    "address": "207 PONTIUS AVE N",
    "active": false,
    "unitCount": 1,
    "severity": 0,
    "lat": 47.619736,
    "long": -122.331697,
    "neighborhood": "Cascade/Eastlake",
    "neighborhoodGroup": "Lake Union",
    "units": "A4"
  },
  {
    "id_str": "F210031070",
    "created_at": "4/1/2021 3:56:16 PM",
    "timestamp": 1617317776000,
    "description": "Aid Response",
    "address": "9230 2nd Ave Sw",
    "active": false,
    "unitCount": 1,
    "severity": 0,
    "lat": 47.520679,
    "long": -122.335803,
    "units": "E26"
  },
  {
    "id_str": "F210031069",
    "created_at": "4/1/2021 3:54:32 PM",
    "timestamp": 1617317672000,
    "description": "Auto Fire Alarm",
    "address": "2709 Airport Way S",
    "active": false,
    "unitCount": 2,
    "severity": 0,
    "lat": 47.579423,
    "long": -122.321398,
    "neighborhood": "Duwamish/SODO",
    "neighborhoodGroup": "Greater Duwamish",
    "units": "E13 R1"
  },
  {
    "id_str": "F210031068",
    "created_at": "4/1/2021 3:54:22 PM",
    "timestamp": 1617317662000,
    "description": "Medic Response",
    "address": "11244 Greenwood Ave N",
    "active": false,
    "unitCount": 2,
    "severity": 0,
    "lat": 47.710791,
    "long": -122.355496,
    "neighborhood": "North Beach/Blue Ridge",
    "neighborhoodGroup": "Ballard",
    "units": "E24 M31"
  },
  {
    "id_str": "F210031067",
    "created_at": "4/1/2021 3:41:26 PM",
    "timestamp": 1617316886000,
    "description": "Natural Gas Odor",
    "address": "1116 Summit Ave",
    "active": false,
    "unitCount": 1,
    "severity": 0,
    "lat": 47.61109,
    "long": -122.323671,
    "neighborhood": "Capitol Hill",
    "neighborhoodGroup": "East",
    "units": "L10"
  },
  {
    "id_str": "F210031066",
    "created_at": "4/1/2021 3:40:56 PM",
    "timestamp": 1617316856000,
    "description": "Brush Fire",
    "address": "5270 Mithun Pl Ne",
    "active": false,
    "unitCount": 1,
    "severity": 0,
    "lat": 47.667739,
    "long": -122.282317,
    "neighborhood": "Ravenna/Bryant",
    "neighborhoodGroup": "Northeast",
    "units": "E31"
  },
  {
    "id_str": "F210031064",
    "created_at": "4/1/2021 3:40:03 PM",
    "timestamp": 1617316803000,
    "description": "Aid Response",
    "address": "7101 62nd Ave Ne",
    "active": false,
    "unitCount": 1,
    "severity": 0,
    "lat": 47.679973,
    "long": -122.262231,
    "neighborhood": "Laurelhurst/Sand Point",
    "neighborhoodGroup": "Northeast",
    "units": "E40"
  },
  {
    "id_str": "F210031065",
    "created_at": "4/1/2021 3:39:23 PM",
    "timestamp": 1617316763000,
    "description": "Activated CO Detector",
    "address": "2401 E Lynn St",
    "active": false,
    "unitCount": 1,
    "severity": 0,
    "lat": 47.63953,
    "long": -122.302065,
    "neighborhood": "Montlake/Portage Bay",
    "neighborhoodGroup": "Northeast",
    "units": "L9"
  },
  {
    "id_str": "F210031062",
    "created_at": "4/1/2021 3:36:29 PM",
    "timestamp": 1617316589000,
    "description": "AFA4 - Auto Alarm 2 + 1 + 1",
    "address": "1400 6th Ave",
    "active": false,
    "unitCount": 4,
    "severity": 0,
    "lat": 47.61015,
    "long": -122.333556,
    "neighborhood": "First Hill",
    "neighborhoodGroup": "East",
    "units": "B2 E10 E5 L1"
  },
  {
    "id_str": "F210031061",
    "created_at": "4/1/2021 3:35:46 PM",
    "timestamp": 1617316546000,
    "description": "Auto Fire Alarm",
    "address": "6420 California Ave Sw",
    "active": false,
    "unitCount": 3,
    "severity": 0,
    "lat": 47.545436,
    "long": -122.387209,
    "neighborhood": "Fauntleroy/Seaview",
    "neighborhoodGroup": "Southwest",
    "units": "B7 E32 L11"
  },
  {
    "id_str": "F210031060",
    "created_at": "4/1/2021 3:33:16 PM",
    "timestamp": 1617316396000,
    "description": "Aid Response",
    "address": "548 15th Ave",
    "active": false,
    "unitCount": 2,
    "severity": 0,
    "lat": 47.606628,
    "long": -122.312857,
    "neighborhood": "First Hill",
    "neighborhoodGroup": "East",
    "units": "A25 L10"
  },
  {
    "id_str": "F210031059",
    "created_at": "4/1/2021 3:33:09 PM",
    "timestamp": 1617316389000,
    "description": "AFA4 - Auto Alarm 2 + 1 + 1",
    "address": "1807 E Hamlin St",
    "active": false,
    "unitCount": 4,
    "severity": 0,
    "lat": 47.645569,
    "long": -122.308759,
    "neighborhood": "Montlake/Portage Bay",
    "neighborhoodGroup": "Northeast",
    "units": "B6 E22 E38 L9"
  },
  {
    "id_str": "F210031058",
    "created_at": "4/1/2021 3:33:07 PM",
    "timestamp": 1617316387000,
    "description": "Aid Response",
    "address": "Harvard Ave / E Howell St",
    "active": false,
    "unitCount": 1,
    "severity": 0,
    "lat": 47.617563,
    "long": -122.322168,
    "neighborhood": "Capitol Hill",
    "neighborhoodGroup": "East",
    "units": "E25"
  },
  {
    "id_str": "F210031056",
    "created_at": "4/1/2021 3:29:10 PM",
    "timestamp": 1617316150000,
    "description": "Auto Fire Alarm",
    "address": "110 6th Ave N",
    "active": false,
    "unitCount": 2,
    "severity": 0,
    "lat": 47.618668,
    "long": -122.345006,
    "neighborhood": "Cascade/Eastlake",
    "neighborhoodGroup": "Lake Union",
    "units": "E2 L4"
  },
  {
    "id_str": "F210031055",
    "created_at": "4/1/2021 3:26:35 PM",
    "timestamp": 1617315995000,
    "description": "Aid Response",
    "address": "6720 East Green Lake Way N",
    "active": false,
    "unitCount": 1,
    "severity": 0,
    "lat": 47.67834,
    "long": -122.32895,
    "neighborhood": "Green Lake",
    "neighborhoodGroup": "Northwest",
    "units": "E16"
  },
  {
    "id_str": "F210031052",
    "created_at": "4/1/2021 3:21:06 PM",
    "timestamp": 1617315666000,
    "description": "Aid Response",
    "address": "548 15th Ave",
    "active": false,
    "unitCount": 1,
    "severity": 0,
    "lat": 47.606628,
    "long": -122.312857,
    "neighborhood": "First Hill",
    "neighborhoodGroup": "East",
    "units": "A25"
  },
  {
    "id_str": "F210031053",
    "created_at": "4/1/2021 3:20:52 PM",
    "timestamp": 1617315652000,
    "description": "Aid Response",
    "address": "400 Yesler Way",
    "active": false,
    "unitCount": 1,
    "severity": 0,
    "lat": 47.601721,
    "long": -122.329021,
    "neighborhood": "Downtown Commercial Core",
    "neighborhoodGroup": "Downtown",
    "units": "A10"
  },
  {
    "id_str": "F210031051",
    "created_at": "4/1/2021 3:18:18 PM",
    "timestamp": 1617315498000,
    "description": "Aid Response",
    "address": "13300 Stone Ave N",
    "active": false,
    "unitCount": 1,
    "severity": 0,
    "lat": 47.725515,
    "long": -122.3423,
    "neighborhood": "Haller Lake",
    "neighborhoodGroup": "Northwest",
    "units": "L5"
  },
  {
    "id_str": "F210031050",
    "created_at": "4/1/2021 3:14:38 PM",
    "timestamp": 1617315278000,
    "description": "Medic Response",
    "address": "10507 Aurora Ave N",
    "active": false,
    "unitCount": 2,
    "severity": 0,
    "lat": 47.705096,
    "long": -122.344695,
    "neighborhood": "Licton Springs",
    "neighborhoodGroup": "Northwest",
    "units": "E24 M31"
  },
  {
    "id_str": "F210031049",
    "created_at": "4/1/2021 3:12:09 PM",
    "timestamp": 1617315129000,
    "description": "Aid Response",
    "address": "10501 8th Ave Ne",
    "active": false,
    "unitCount": 1,
    "severity": 0,
    "lat": 47.704938,
    "long": -122.320485,
    "neighborhood": "Northgate/Maple Leaf",
    "neighborhoodGroup": "North",
    "units": "E39"
  },
  {
    "id_str": "F210031048",
    "created_at": "4/1/2021 3:10:52 PM",
    "timestamp": 1617315052000,
    "description": "Aid Response",
    "address": "8039 36th Ave S",
    "active": false,
    "unitCount": 1,
    "severity": 0,
    "lat": 47.530761,
    "long": -122.286609,
    "neighborhood": "South Beacon Hill/NewHolly",
    "neighborhoodGroup": "Greater Duwamish",
    "units": "E33"
  },
  {
    "id_str": "F210031047",
    "created_at": "4/1/2021 3:07:36 PM",
    "timestamp": 1617314856000,
    "description": "Aid Response",
    "address": "Texas Way / Bernie Whitebear Way",
    "active": false,
    "unitCount": 1,
    "severity": 0,
    "lat": 47.664838,
    "long": -122.410532,
    "neighborhood": "Magnolia",
    "neighborhoodGroup": "Magnolia/Queen Anne",
    "units": "E41"
  },
  {
    "id_str": "F210031046",
    "created_at": "4/1/2021 2:58:44 PM",
    "timestamp": 1617314324000,
    "description": "Aid Response",
    "address": "3639 M L King Jr Way S",
    "active": false,
    "unitCount": 1,
    "severity": 0,
    "lat": 47.571579,
    "long": -122.296939,
    "neighborhood": "North Beacon Hill/Jefferson Park",
    "neighborhoodGroup": "Greater Duwamish",
    "units": "E30"
  },
  {
    "id_str": "F210031045",
    "created_at": "4/1/2021 2:55:35 PM",
    "timestamp": 1617314135000,
    "description": "Aid Response",
    "address": "6225 Ne Princeton Way",
    "active": false,
    "unitCount": 1,
    "severity": 0,
    "lat": 47.675173,
    "long": -122.275563,
    "neighborhood": "Ravenna/Bryant",
    "neighborhoodGroup": "Northeast",
    "units": "E38"
  },
  {
    "id_str": "F210031044",
    "created_at": "4/1/2021 2:54:35 PM",
    "timestamp": 1617314075000,
    "description": "Auto Fire Alarm",
    "address": "221 18th Ave S",
    "active": false,
    "unitCount": 2,
    "severity": 0,
    "lat": 47.600659,
    "long": -122.308964,
    "neighborhood": "Judkins Park",
    "neighborhoodGroup": "Central",
    "units": "E6 L3"
  },
  {
    "id_str": "F210031043",
    "created_at": "4/1/2021 2:47:51 PM",
    "timestamp": 1617313671000,
    "description": "Aid Response",
    "address": "515 Minor Ave",
    "active": false,
    "unitCount": 1,
    "severity": 0,
    "lat": 47.606467,
    "long": -122.32091,
    "neighborhood": "First Hill",
    "neighborhoodGroup": "East",
    "units": "A25"
  },
  {
    "id_str": "F210031042",
    "created_at": "4/1/2021 2:46:22 PM",
    "timestamp": 1617313582000,
    "description": "MVI - Motor Vehicle Incident",
    "address": "James St / Terry Ave",
    "active": false,
    "unitCount": 1,
    "severity": 0,
    "lat": 47.606018,
    "long": -122.323641,
    "neighborhood": "First Hill",
    "neighborhoodGroup": "East",
    "units": "E10"
  },
  {
    "id_str": "F210031041",
    "created_at": "4/1/2021 2:43:12 PM",
    "timestamp": 1617313392000,
    "description": "Aid Response",
    "address": "112 Occidental Ave S",
    "active": false,
    "unitCount": 1,
    "severity": 0,
    "lat": 47.601618,
    "long": -122.332874,
    "neighborhood": "Pioneer Square/International District",
    "neighborhoodGroup": "Downtown",
    "units": "A5"
  },
  {
    "id_str": "F210031040",
    "created_at": "4/1/2021 2:36:12 PM",
    "timestamp": 1617312972000,
    "description": "Medic Response",
    "address": "1510 24th Ave E",
    "active": false,
    "unitCount": 3,
    "severity": 0,
    "lat": 47.6324,
    "long": -122.301611,
    "neighborhood": "Montlake/Portage Bay",
    "neighborhoodGroup": "Northeast",
    "units": "E34 M1 M10"
  },
  {
    "id_str": "F210031039",
    "created_at": "4/1/2021 2:30:44 PM",
    "timestamp": 1617312644000,
    "description": "Medic Response",
    "address": "4329 15th Ave S",
    "active": false,
    "unitCount": 2,
    "severity": 0,
    "lat": 47.564637,
    "long": -122.313499,
    "neighborhood": "North Beacon Hill/Jefferson Park",
    "neighborhoodGroup": "Greater Duwamish",
    "units": "E13 M28"
  },
  {
    "id_str": "F210031038",
    "created_at": "4/1/2021 2:18:04 PM",
    "timestamp": 1617311884000,
    "description": "Aid Response",
    "address": "Rainier Ave S / S Lane St",
    "active": false,
    "unitCount": 2,
    "severity": 0,
    "lat": 47.596652,
    "long": -122.312121,
    "neighborhood": "Judkins Park",
    "neighborhoodGroup": "Central",
    "units": "E6 L3"
  },
  {
    "id_str": "F210031037",
    "created_at": "4/1/2021 2:16:29 PM",
    "timestamp": 1617311789000,
    "description": "Low Acuity Response",
    "address": "1726 Boylston Ave",
    "active": false,
    "unitCount": 1,
    "severity": 0,
    "lat": 47.616985,
    "long": -122.32344,
    "neighborhood": "Capitol Hill",
    "neighborhoodGroup": "East",
    "units": "A25"
  },
  {
    "id_str": "F210031033",
    "created_at": "4/1/2021 2:11:54 PM",
    "timestamp": 1617311514000,
    "description": "Aid Response",
    "address": "9550 1st Ave Ne",
    "active": false,
    "unitCount": 1,
    "severity": 0,
    "lat": 47.698088,
    "long": -122.328459,
    "neighborhood": "Northgate/Maple Leaf",
    "neighborhoodGroup": "North",
    "units": "E16"
  },
  {
    "id_str": "F210031029",
    "created_at": "4/1/2021 2:00:10 PM",
    "timestamp": 1617310810000,
    "description": "Aid Response",
    "address": "1538 Nw 61st St",
    "active": false,
    "unitCount": 1,
    "severity": 0,
    "lat": 47.67309,
    "long": -122.37671,
    "neighborhood": "Whittier Heights",
    "neighborhoodGroup": "Ballard",
    "units": "E18"
  },
  {
    "id_str": "F210031028",
    "created_at": "4/1/2021 1:56:53 PM",
    "timestamp": 1617310613000,
    "description": "Low Acuity Response",
    "address": "3058 37th Ave Sw",
    "active": false,
    "unitCount": 1,
    "severity": 0,
    "lat": 47.576888,
    "long": -122.378117,
    "neighborhood": "West Seattle Junction/Genesee Hill",
    "neighborhoodGroup": "Southwest",
    "units": "H1"
  },
  {
    "id_str": "F210031025",
    "created_at": "4/1/2021 1:52:32 PM",
    "timestamp": 1617310352000,
    "description": "Investigate Out Of Service",
    "address": "919 Stewart St",
    "active": false,
    "unitCount": 1,
    "severity": 0,
    "lat": 47.615745,
    "long": -122.334269,
    "neighborhood": "Cascade/Eastlake",
    "neighborhoodGroup": "Lake Union",
    "units": "E2"
  },
  {
    "id_str": "F210031022",
    "created_at": "4/1/2021 1:41:25 PM",
    "timestamp": 1617309685000,
    "description": "Aid Response",
    "address": "1200 University St",
    "active": false,
    "unitCount": 1,
    "severity": 0,
    "lat": 47.611943,
    "long": -122.325987,
    "neighborhood": "First Hill",
    "neighborhoodGroup": "East",
    "units": "A25"
  },
  {
    "id_str": "F210031020",
    "created_at": "4/1/2021 1:24:47 PM",
    "timestamp": 1617308687000,
    "description": "Rescue Elevator",
    "address": "1601 S Lane St",
    "active": false,
    "unitCount": 1,
    "severity": 0,
    "lat": 47.59665,
    "long": -122.311573,
    "neighborhood": "Judkins Park",
    "neighborhoodGroup": "Central",
    "units": "L3"
  },
  {
    "id_str": "F210031019",
    "created_at": "4/1/2021 1:20:32 PM",
    "timestamp": 1617308432000,
    "description": "Aid Response",
    "address": "John St / 8th Ave N",
    "active": false,
    "unitCount": 1,
    "severity": 0,
    "lat": 47.619715,
    "long": -122.341087,
    "neighborhood": "Cascade/Eastlake",
    "neighborhoodGroup": "Lake Union",
    "units": "A2"
  },
  {
    "id_str": "F210031016",
    "created_at": "4/1/2021 1:13:27 PM",
    "timestamp": 1617308007000,
    "description": "Aid Response",
    "address": "AURORA AVE N / N 46TH ST",
    "active": false,
    "unitCount": 1,
    "severity": 0,
    "lat": 47.660036,
    "long": -122.347386,
    "neighborhood": "Fremont",
    "neighborhoodGroup": "Lake Union",
    "units": "E9"
  },
  {
    "id_str": "F210031013",
    "created_at": "4/1/2021 1:04:13 PM",
    "timestamp": 1617307453000,
    "description": "MVI - Motor Vehicle Incident",
    "address": "Sb I5 At Mercer",
    "active": false,
    "unitCount": 3,
    "severity": 0,
    "lat": 47.622727,
    "long": -122.328659,
    "neighborhood": "Cascade/Eastlake",
    "neighborhoodGroup": "Lake Union",
    "units": "A25 E17 E22"
  },
  {
    "id_str": "F210031014",
    "created_at": "4/1/2021 1:03:28 PM",
    "timestamp": 1617307408000,
    "description": "Medic Response",
    "address": "325 9th Ave",
    "active": false,
    "unitCount": 2,
    "severity": 0,
    "lat": 47.603588,
    "long": -122.322949,
    "neighborhood": "First Hill",
    "neighborhoodGroup": "East",
    "units": "A10 M10"
  },
  {
    "id_str": "F210031012",
    "created_at": "4/1/2021 12:55:17 PM",
    "timestamp": 1617306917000,
    "description": "Low Acuity Response",
    "address": "801 9th Ave",
    "active": false,
    "unitCount": 1,
    "severity": 0,
    "lat": 47.606982,
    "long": -122.326056,
    "neighborhood": "First Hill",
    "neighborhoodGroup": "East",
    "units": "H1"
  },
  {
    "id_str": "F210031008",
    "created_at": "4/1/2021 12:49:23 PM",
    "timestamp": 1617306563000,
    "description": "LINK - Link Control Center",
    "address": "1263 6TH AVE S",
    "active": false,
    "unitCount": 2,
    "severity": 0,
    "lat": 47.563035,
    "long": -122.294639,
    "neighborhood": "Columbia City",
    "neighborhoodGroup": "Southeast",
    "units": "B2 B5"
  },
  {
    "id_str": "F210031006",
    "created_at": "4/1/2021 12:47:52 PM",
    "timestamp": 1617306472000,
    "description": "Auto Fire Alarm",
    "address": "3028 Western Ave",
    "active": false,
    "unitCount": 2,
    "severity": 0,
    "lat": 47.617246,
    "long": -122.355049,
    "neighborhood": "Belltown",
    "neighborhoodGroup": "Downtown",
    "units": "E2 L4"
  },
  {
    "id_str": "F210031005",
    "created_at": "4/1/2021 12:47:39 PM",
    "timestamp": 1617306459000,
    "description": "MVI Medic",
    "address": "4484 M L King Jr Way S",
    "active": false,
    "unitCount": 4,
    "severity": 0,
    "lat": 47.563035,
    "long": -122.294639,
    "neighborhood": "Columbia City",
    "neighborhoodGroup": "Southeast",
    "units": "B5 E30 L12 M28"
  },
  {
    "id_str": "F210031003",
    "created_at": "4/1/2021 12:44:18 PM",
    "timestamp": 1617306258000,
    "description": "Low Acuity Response",
    "address": "412 W Mercer St",
    "active": false,
    "unitCount": 2,
    "severity": 0,
    "lat": 47.624603,
    "long": -122.362081,
    "neighborhood": "Queen Anne",
    "neighborhoodGroup": "Magnolia/Queen Anne",
    "units": "A2 A4"
  },
  {
    "id_str": "F210031001",
    "created_at": "4/1/2021 12:40:40 PM",
    "timestamp": 1617306040000,
    "description": "Low Acuity Response",
    "address": "4242 S Frontenac St",
    "active": false,
    "unitCount": 2,
    "severity": 0,
    "lat": 47.539779,
    "long": -122.279507,
    "neighborhood": "Columbia City",
    "neighborhoodGroup": "Southeast",
    "units": "E13 E28"
  },
  {
    "id_str": "F210031000",
    "created_at": "4/1/2021 12:36:42 PM",
    "timestamp": 1617305802000,
    "description": "Auto Fire Alarm",
    "address": "5412 Wilson Ave S",
    "active": false,
    "unitCount": 2,
    "severity": 0,
    "lat": 47.55304,
    "long": -122.267985,
    "neighborhood": "Seward Park",
    "neighborhoodGroup": "Southeast",
    "units": "E28 L12"
  },
  {
    "id_str": "F210030999",
    "created_at": "4/1/2021 12:27:45 PM",
    "timestamp": 1617305265000,
    "description": "Aid Response",
    "address": "1300 E Pine St",
    "active": false,
    "unitCount": 2,
    "severity": 0,
    "lat": 47.615273,
    "long": -122.315549,
    "neighborhood": "Capitol Hill",
    "neighborhoodGroup": "East",
    "units": "A25 L10"
  },
  {
    "id_str": "F210030998",
    "created_at": "4/1/2021 12:15:33 PM",
    "timestamp": 1617304533000,
    "description": "AFA4 - Auto Alarm 2 + 1 + 1",
    "address": "509 3rd Ave",
    "active": false,
    "unitCount": 4,
    "severity": 0,
    "lat": 47.602114,
    "long": -122.330809,
    "neighborhood": "Downtown Commercial Core",
    "neighborhoodGroup": "Downtown",
    "units": "B2 E10 E5 L1"
  },
  {
    "id_str": "F210030997",
    "created_at": "4/1/2021 12:14:10 PM",
    "timestamp": 1617304450000,
    "description": "Aid Response",
    "address": "6020 35th Ave Sw",
    "active": false,
    "unitCount": 1,
    "severity": 0,
    "lat": 47.548231,
    "long": -122.376372,
    "neighborhood": "High Point",
    "neighborhoodGroup": "Delridge Neighborhoods",
    "units": "E32"
  },
  {
    "id_str": "F210030996",
    "created_at": "4/1/2021 12:13:26 PM",
    "timestamp": 1617304406000,
    "description": "Aid Response",
    "address": "2469 S Spencer St",
    "active": false,
    "unitCount": 1,
    "severity": 0,
    "lat": 47.547766,
    "long": -122.300132,
    "neighborhood": "Beacon Hill",
    "neighborhoodGroup": "Greater Duwamish",
    "units": "L12"
  },
  {
    "id_str": "F210030995",
    "created_at": "4/1/2021 12:12:37 PM",
    "timestamp": 1617304357000,
    "description": "Aid Response",
    "address": "120 6th Ave S",
    "active": false,
    "unitCount": 1,
    "severity": 0,
    "lat": 47.601539,
    "long": -122.326352,
    "neighborhood": "Pioneer Square/International District",
    "neighborhoodGroup": "Downtown",
    "units": "A5"
  },
  {
    "id_str": "F210030994",
    "created_at": "4/1/2021 12:10:08 PM",
    "timestamp": 1617304208000,
    "description": "Automatic Fire Alarm Resd",
    "address": "9638 47th Ave Sw",
    "active": false,
    "unitCount": 1,
    "severity": 0,
    "lat": 47.51712,
    "long": -122.392847,
    "neighborhood": "Arbor Heights",
    "neighborhoodGroup": "Southwest",
    "units": "E11"
  },
  {
    "id_str": "F210030993",
    "created_at": "4/1/2021 12:08:16 PM",
    "timestamp": 1617304096000,
    "description": "Aid Response",
    "address": "1819 E Republican St",
    "active": false,
    "unitCount": 1,
    "severity": 0,
    "lat": 47.623239,
    "long": -122.308424,
    "neighborhood": "Miller Park",
    "neighborhoodGroup": "East",
    "units": "L10"
  },
  {
    "id_str": "F210030992",
    "created_at": "4/1/2021 12:07:29 PM",
    "timestamp": 1617304049000,
    "description": "Aid Response",
    "address": "1455 Nw Leary Way",
    "active": false,
    "unitCount": 1,
    "severity": 0,
    "lat": 47.663663,
    "long": -122.374988,
    "neighborhood": "Ballard",
    "neighborhoodGroup": "Ballard",
    "units": "E18"
  },
  {
    "id_str": "F210030991",
    "created_at": "4/1/2021 12:05:22 PM",
    "timestamp": 1617303922000,
    "description": "Auto Fire Alarm",
    "address": "6420 California Ave Sw",
    "active": false,
    "unitCount": 2,
    "severity": 0,
    "lat": 47.545436,
    "long": -122.387209,
    "neighborhood": "Fauntleroy/Seaview",
    "neighborhoodGroup": "Southwest",
    "units": "E29 L11"
  },
  {
    "id_str": "F210030990",
    "created_at": "4/1/2021 11:58:29 AM",
    "timestamp": 1617303509000,
    "description": "Aid Response",
    "address": "2600 Sw Barton St",
    "active": false,
    "unitCount": 1,
    "severity": 0,
    "lat": 47.521022,
    "long": -122.365894,
    "neighborhood": "Roxhill/Westwood",
    "neighborhoodGroup": "Delridge Neighborhoods",
    "units": "E37"
  },
  {
    "id_str": "F210030988",
    "created_at": "4/1/2021 11:53:40 AM",
    "timestamp": 1617303220000,
    "description": "Aid Response",
    "address": "3204 Sw Morgan St",
    "active": false,
    "unitCount": 1,
    "severity": 0,
    "lat": 47.544669,
    "long": -122.373777,
    "neighborhood": "High Point",
    "neighborhoodGroup": "Delridge Neighborhoods",
    "units": "E32"
  },
  {
    "id_str": "F210030987",
    "created_at": "4/1/2021 11:49:40 AM",
    "timestamp": 1617302980000,
    "description": "Aid Response",
    "address": "7614 Rainier Ave S",
    "active": false,
    "unitCount": 1,
    "severity": 0,
    "lat": 47.534236,
    "long": -122.269988,
    "neighborhood": "Seward Park",
    "neighborhoodGroup": "Southeast",
    "units": "E28"
  },
  {
    "id_str": "F210030985",
    "created_at": "4/1/2021 11:46:08 AM",
    "timestamp": 1617302768000,
    "description": "AFA4 - Auto Alarm 2 + 1 + 1",
    "address": "1400 6th Ave",
    "active": false,
    "unitCount": 4,
    "severity": 0,
    "lat": 47.61015,
    "long": -122.333556,
    "neighborhood": "First Hill",
    "neighborhoodGroup": "East",
    "units": "B2 E10 E5 L1"
  },
  {
    "id_str": "F210030986",
    "created_at": "4/1/2021 11:46:01 AM",
    "timestamp": 1617302761000,
    "description": "Aid Response",
    "address": "1400 Ne Brockman Pl",
    "active": false,
    "unitCount": 1,
    "severity": 0,
    "lat": 47.72445,
    "long": -122.313535,
    "neighborhood": "Olympic Hills/Victory Heights",
    "neighborhoodGroup": "North",
    "units": "E39"
  },
  {
    "id_str": "F210030984",
    "created_at": "4/1/2021 11:35:12 AM",
    "timestamp": 1617302112000,
    "description": "Aid Response",
    "address": "Ne Ravenna Blvd / 15th Ave Ne",
    "active": false,
    "unitCount": 2,
    "severity": 0,
    "lat": 47.671205,
    "long": -122.311899,
    "neighborhood": "University District",
    "neighborhoodGroup": "Northeast",
    "units": "E16 E17"
  },
  {
    "id_str": "F210030983",
    "created_at": "4/1/2021 11:28:32 AM",
    "timestamp": 1617301712000,
    "description": "Aid Response",
    "address": "7008 Linden Ave N",
    "active": false,
    "unitCount": 1,
    "severity": 0,
    "lat": 47.679646,
    "long": -122.347278,
    "neighborhood": "Greenwood/Phinney Ridge",
    "neighborhoodGroup": "Northwest",
    "units": "E21"
  },
  {
    "id_str": "F210030982",
    "created_at": "4/1/2021 11:20:14 AM",
    "timestamp": 1617301214000,
    "description": "Aid Response",
    "address": "4730 California Ave Sw",
    "active": false,
    "unitCount": 1,
    "severity": 0,
    "lat": 47.560561,
    "long": -122.386794,
    "neighborhood": "West Seattle Junction/Genesee Hill",
    "neighborhoodGroup": "Southwest",
    "units": "L11"
  },
  {
    "id_str": "F210030981",
    "created_at": "4/1/2021 11:19:59 AM",
    "timestamp": 1617301199000,
    "description": "Medic Response",
    "address": "1017 Minor Ave",
    "active": false,
    "unitCount": 2,
    "severity": 0,
    "lat": 47.609919,
    "long": -122.324135,
    "neighborhood": "First Hill",
    "neighborhoodGroup": "East",
    "units": "E25 M1"
  },
  {
    "id_str": "F210030980",
    "created_at": "4/1/2021 11:14:19 AM",
    "timestamp": 1617300859000,
    "description": "Low Acuity Response",
    "address": "3201 Sw Graham St",
    "active": false,
    "unitCount": 1,
    "severity": 0,
    "lat": 47.54666,
    "long": -122.373219,
    "neighborhood": "High Point",
    "neighborhoodGroup": "Delridge Neighborhoods",
    "units": "E32"
  },
  {
    "id_str": "F210030978",
    "created_at": "4/1/2021 11:10:55 AM",
    "timestamp": 1617300655000,
    "description": "Auto Fire Alarm",
    "address": "6940 62nd Ave Ne",
    "active": false,
    "unitCount": 3,
    "severity": 0,
    "lat": 47.678821,
    "long": -122.262227,
    "neighborhood": "Laurelhurst/Sand Point",
    "neighborhoodGroup": "Northeast",
    "units": "E38 L9 MAR5"
  },
  {
    "id_str": "F210030976",
    "created_at": "4/1/2021 11:00:36 AM",
    "timestamp": 1617300036000,
    "description": "Aid Response",
    "address": "1644 Occidental Ave S",
    "active": false,
    "unitCount": 1,
    "severity": 0,
    "lat": 47.588802,
    "long": -122.333264,
    "neighborhood": "Duwamish/SODO",
    "neighborhoodGroup": "Greater Duwamish",
    "units": "A10"
  },
  {
    "id_str": "F210030975",
    "created_at": "4/1/2021 10:58:45 AM",
    "timestamp": 1617299925000,
    "description": "Aid Response",
    "address": "15th Ave Nw / Nw Market St",
    "active": false,
    "unitCount": 1,
    "severity": 0,
    "lat": 47.668667,
    "long": -122.376214,
    "neighborhood": "Ballard",
    "neighborhoodGroup": "Ballard",
    "units": "E18"
  },
  {
    "id_str": "F210030973",
    "created_at": "4/1/2021 10:58:00 AM",
    "timestamp": 1617299880000,
    "description": "MVI - Motor Vehicle Incident",
    "address": "M L King Jr Way S / S Alaska St",
    "active": false,
    "unitCount": 2,
    "severity": 0,
    "lat": 47.560808,
    "long": -122.29324,
    "neighborhood": "Columbia City",
    "neighborhoodGroup": "Southeast",
    "units": "E28 L3"
  },
  {
    "id_str": "F210030972",
    "created_at": "4/1/2021 10:33:45 AM",
    "timestamp": 1617298425000,
    "description": "Aid Response",
    "address": "3610 33rd Ave S",
    "active": false,
    "unitCount": 1,
    "severity": 0,
    "lat": 47.571499,
    "long": -122.290999,
    "neighborhood": "Columbia City",
    "neighborhoodGroup": "Southeast",
    "units": "E28"
  },
  {
    "id_str": "F210030970",
    "created_at": "4/1/2021 10:30:06 AM",
    "timestamp": 1617298206000,
    "description": "Aid Response",
    "address": "4401 4th Ave S",
    "active": false,
    "unitCount": 1,
    "severity": 0,
    "lat": 47.564617,
    "long": -122.329378,
    "neighborhood": "Duwamish/SODO",
    "neighborhoodGroup": "Greater Duwamish",
    "units": "E13"
  },
  {
    "id_str": "F210030969",
    "created_at": "4/1/2021 10:27:28 AM",
    "timestamp": 1617298048000,
    "description": "Aid Response",
    "address": "401 S Jackson St",
    "active": false,
    "unitCount": 1,
    "severity": 0,
    "lat": 47.599197,
    "long": -122.328955,
    "neighborhood": "Pioneer Square/International District",
    "neighborhoodGroup": "Downtown",
    "units": "A5"
  },
  {
    "id_str": "F210030968",
    "created_at": "4/1/2021 10:24:00 AM",
    "timestamp": 1617297840000,
    "description": "Aid Response",
    "address": "3610 33RD AVE S",
    "active": false,
    "unitCount": 1,
    "severity": 0,
    "lat": 47.571408,
    "long": -122.291001,
    "neighborhood": "Columbia City",
    "neighborhoodGroup": "Southeast",
    "units": "E30"
  },
  {
    "id_str": "F210030966",
    "created_at": "4/1/2021 10:21:37 AM",
    "timestamp": 1617297697000,
    "description": "Medic Response",
    "address": "9424 58th Ave S",
    "active": false,
    "unitCount": 2,
    "severity": 0,
    "lat": 47.51825,
    "long": -122.260497,
    "neighborhood": "Rainier Beach",
    "neighborhoodGroup": "Southeast",
    "units": "E33 M28"
  },
  {
    "id_str": "F210030965",
    "created_at": "4/1/2021 10:20:30 AM",
    "timestamp": 1617297630000,
    "description": "Auto Fire Alarm",
    "address": "201 Yesler Way",
    "active": false,
    "unitCount": 2,
    "severity": 0,
    "lat": 47.601719,
    "long": -122.331966,
    "neighborhood": "Downtown Commercial Core",
    "neighborhoodGroup": "Downtown",
    "units": "E5 L1"
  },
  {
    "id_str": "F210030964",
    "created_at": "4/1/2021 10:18:28 AM",
    "timestamp": 1617297508000,
    "description": "Low Acuity Response",
    "address": "360 29th Ave",
    "active": false,
    "unitCount": 1,
    "severity": 0,
    "lat": 47.60479,
    "long": -122.294923,
    "neighborhood": "Central Area/Squire Park",
    "neighborhoodGroup": "Central",
    "units": "E6"
  },
  {
    "id_str": "F210030963",
    "created_at": "4/1/2021 10:16:58 AM",
    "timestamp": 1617297418000,
    "description": "Low Acuity Response",
    "address": "6225 Ne Princeton Way",
    "active": false,
    "unitCount": 1,
    "severity": 0,
    "lat": 47.675173,
    "long": -122.275563,
    "neighborhood": "Ravenna/Bryant",
    "neighborhoodGroup": "Northeast",
    "units": "E38"
  },
  {
    "id_str": "F210030962",
    "created_at": "4/1/2021 10:15:23 AM",
    "timestamp": 1617297323000,
    "description": "Aid Response",
    "address": "1005 Terrace St",
    "active": false,
    "unitCount": 1,
    "severity": 0,
    "lat": 47.604615,
    "long": -122.32228,
    "neighborhood": "First Hill",
    "neighborhoodGroup": "East",
    "units": "A10"
  },
  {
    "id_str": "F210030960",
    "created_at": "4/1/2021 10:12:37 AM",
    "timestamp": 1617297157000,
    "description": "Medic Response",
    "address": "1612 E Lynn St",
    "active": false,
    "unitCount": 2,
    "severity": 0,
    "lat": 47.639562,
    "long": -122.310662,
    "neighborhood": "Montlake/Portage Bay",
    "neighborhoodGroup": "Northeast",
    "units": "E22 M17"
  },
  {
    "id_str": "F210030959",
    "created_at": "4/1/2021 10:07:17 AM",
    "timestamp": 1617296837000,
    "description": "Aid Response",
    "address": "2200 E Terrace St",
    "active": false,
    "unitCount": 1,
    "severity": 0,
    "lat": 47.604927,
    "long": -122.30373,
    "neighborhood": "Central Area/Squire Park",
    "neighborhoodGroup": "Central",
    "units": "E25"
  },
  {
    "id_str": "F210030958",
    "created_at": "4/1/2021 9:56:46 AM",
    "timestamp": 1617296206000,
    "description": "Aid Response",
    "address": "10306 Meridian Ave N",
    "active": false,
    "unitCount": 1,
    "severity": 0,
    "lat": 47.703266,
    "long": -122.333904,
    "neighborhood": "Northgate/Maple Leaf",
    "neighborhoodGroup": "North",
    "units": "E16"
  },
  {
    "id_str": "F210030957",
    "created_at": "4/1/2021 9:53:50 AM",
    "timestamp": 1617296030000,
    "description": "Aid Response",
    "address": "1505 Westlake Ave N",
    "active": false,
    "unitCount": 1,
    "severity": 0,
    "lat": 47.632365,
    "long": -122.340932,
    "neighborhood": "Queen Anne",
    "neighborhoodGroup": "Magnolia/Queen Anne",
    "units": "A4"
  },
  {
    "id_str": "F210030952",
    "created_at": "4/1/2021 9:27:16 AM",
    "timestamp": 1617294436000,
    "description": "Aid Response",
    "address": "Elliott Ave / Blanchard St",
    "active": false,
    "unitCount": 2,
    "severity": 0,
    "lat": 47.61161,
    "long": -122.346533,
    "neighborhood": "Belltown",
    "neighborhoodGroup": "Downtown",
    "units": "E2 L4"
  },
  {
    "id_str": "F210030951",
    "created_at": "4/1/2021 9:22:45 AM",
    "timestamp": 1617294165000,
    "description": "Aid Response",
    "address": "500 5th Ave",
    "active": false,
    "unitCount": 1,
    "severity": 0,
    "lat": 47.602985,
    "long": -122.328535,
    "neighborhood": "First Hill",
    "neighborhoodGroup": "East",
    "units": "A5"
  },
  {
    "id_str": "F210030950",
    "created_at": "4/1/2021 9:17:39 AM",
    "timestamp": 1617293859000,
    "description": "Aid Response",
    "address": "1524 Elliott Ave",
    "active": false,
    "unitCount": 1,
    "severity": 0,
    "lat": 47.608179,
    "long": -122.342415,
    "neighborhood": "Downtown Commercial Core",
    "neighborhoodGroup": "Downtown",
    "units": "A4"
  },
  {
    "id_str": "F210030949",
    "created_at": "4/1/2021 9:10:54 AM",
    "timestamp": 1617293454000,
    "description": "Auto Fire Alarm",
    "address": "14396 30th Ave Ne",
    "active": false,
    "unitCount": 2,
    "severity": 0,
    "lat": 47.732881,
    "long": -122.296531,
    "neighborhood": "Olympic Hills/Victory Heights",
    "neighborhoodGroup": "North",
    "units": "E39 L5"
  },
  {
    "id_str": "F210030947",
    "created_at": "4/1/2021 8:39:52 AM",
    "timestamp": 1617291592000,
    "description": "Aid Response",
    "address": "1210 Ne 98th St",
    "active": false,
    "unitCount": 1,
    "severity": 0,
    "lat": 47.70036,
    "long": -122.314845,
    "neighborhood": "Northgate/Maple Leaf",
    "neighborhoodGroup": "North",
    "units": "E16"
  },
  {
    "id_str": "F210030945",
    "created_at": "4/1/2021 8:26:17 AM",
    "timestamp": 1617290777000,
    "description": "Medic Response",
    "address": "750 N 143rd St",
    "active": false,
    "unitCount": 2,
    "severity": 0,
    "lat": 47.732314,
    "long": -122.3498,
    "neighborhood": "Broadview/Bitter Lake",
    "neighborhoodGroup": "Northwest",
    "units": "E24 M31"
  },
  {
    "id_str": "F210030944",
    "created_at": "4/1/2021 8:25:43 AM",
    "timestamp": 1617290743000,
    "description": "Aid Response",
    "address": "2106 5th Ave",
    "active": false,
    "unitCount": 1,
    "severity": 0,
    "lat": 47.614535,
    "long": -122.34054,
    "neighborhood": "Cascade/Eastlake",
    "neighborhoodGroup": "Lake Union",
    "units": "E2"
  },
  {
    "id_str": "F210030943",
    "created_at": "4/1/2021 8:24:53 AM",
    "timestamp": 1617290693000,
    "description": "Aid Response",
    "address": "116 Fairview Ave N",
    "active": false,
    "unitCount": 1,
    "severity": 0,
    "lat": 47.618693,
    "long": -122.334256,
    "neighborhood": "Cascade/Eastlake",
    "neighborhoodGroup": "Lake Union",
    "units": "A2"
  },
  {
    "id_str": "F210030942",
    "created_at": "4/1/2021 8:19:23 AM",
    "timestamp": 1617290363000,
    "description": "Medic Response",
    "address": "14355 32nd Ave Ne",
    "active": false,
    "unitCount": 2,
    "severity": 0,
    "lat": 47.732448,
    "long": -122.293826,
    "neighborhood": "Cedar Park/Meadowbrook",
    "neighborhoodGroup": "North",
    "units": "E39 M17"
  },
  {
    "id_str": "F210030939",
    "created_at": "4/1/2021 8:17:14 AM",
    "timestamp": 1617290234000,
    "description": "Aid Response",
    "address": "336 18th Ave",
    "active": false,
    "unitCount": 1,
    "severity": 0,
    "lat": 47.604653,
    "long": -122.308952,
    "neighborhood": "Central Area/Squire Park",
    "neighborhoodGroup": "Central",
    "units": "A25"
  },
  {
    "id_str": "F210030938",
    "created_at": "4/1/2021 8:16:04 AM",
    "timestamp": 1617290164000,
    "description": "Auto Fire Alarm",
    "address": "4295 East Stevens Way Ne",
    "active": false,
    "unitCount": 2,
    "severity": 0,
    "lat": 47.659389,
    "long": -122.306902,
    "neighborhood": "University District",
    "neighborhoodGroup": "Northeast",
    "units": "E31 L9"
  },
  {
    "id_str": "F210030935",
    "created_at": "4/1/2021 7:39:15 AM",
    "timestamp": 1617287955000,
    "description": "Aid Response",
    "address": "3036 62nd Ave Sw",
    "active": false,
    "unitCount": 1,
    "severity": 0,
    "lat": 47.577426,
    "long": -122.412002,
    "neighborhood": "Alki/Admiral",
    "neighborhoodGroup": "Southwest",
    "units": "E29"
  },
  {
    "id_str": "F210030934",
    "created_at": "4/1/2021 7:38:05 AM",
    "timestamp": 1617287885000,
    "description": "Aid Response",
    "address": "523 Broadway E",
    "active": false,
    "unitCount": 1,
    "severity": 0,
    "lat": 47.623385,
    "long": -122.320928,
    "neighborhood": "Capitol Hill",
    "neighborhoodGroup": "East",
    "units": "A25"
  },
  {
    "id_str": "F210030933",
    "created_at": "4/1/2021 7:37:10 AM",
    "timestamp": 1617287830000,
    "description": "Aid Response",
    "address": "4113 37th Ave S",
    "active": false,
    "unitCount": 1,
    "severity": 0,
    "lat": 47.566067,
    "long": -122.286093,
    "neighborhood": "Columbia City",
    "neighborhoodGroup": "Southeast",
    "units": "E30"
  },
  {
    "id_str": "F210030932",
    "created_at": "4/1/2021 7:28:23 AM",
    "timestamp": 1617287303000,
    "description": "Aid Response",
    "address": "7436 East Green Lake Dr N",
    "active": false,
    "unitCount": 1,
    "severity": 0,
    "lat": 47.682439,
    "long": -122.328842,
    "neighborhood": "Green Lake",
    "neighborhoodGroup": "Northwest",
    "units": "E16"
  },
  {
    "id_str": "F210030927",
    "created_at": "4/1/2021 7:02:42 AM",
    "timestamp": 1617285762000,
    "description": "Dumpster Fire",
    "address": "3rd Ave S / S Walker St",
    "active": false,
    "unitCount": 1,
    "severity": 0,
    "lat": 47.583975,
    "long": -122.329969,
    "neighborhood": "Duwamish/SODO",
    "neighborhoodGroup": "Greater Duwamish",
    "units": "E10"
  },
  {
    "id_str": "F210030926",
    "created_at": "4/1/2021 6:59:39 AM",
    "timestamp": 1617285579000,
    "description": "Aid Response",
    "address": "2990 3rd Ave W",
    "active": false,
    "unitCount": 1,
    "severity": 0,
    "lat": 47.646732,
    "long": -122.360736,
    "neighborhood": "Queen Anne",
    "neighborhoodGroup": "Magnolia/Queen Anne",
    "units": "E9"
  },
  {
    "id_str": "F210030925",
    "created_at": "4/1/2021 6:30:27 AM",
    "timestamp": 1617283827000,
    "description": "Aid Response",
    "address": "4415 S Myrtle St",
    "active": false,
    "unitCount": 1,
    "severity": 0,
    "lat": 47.538893,
    "long": -122.277854,
    "neighborhood": "Columbia City",
    "neighborhoodGroup": "Southeast",
    "units": "E28"
  },
  {
    "id_str": "F210030924",
    "created_at": "4/1/2021 6:30:22 AM",
    "timestamp": 1617283822000,
    "description": "Aid Response",
    "address": "2100 N Northgate Way",
    "active": false,
    "unitCount": 1,
    "severity": 0,
    "lat": 47.708663,
    "long": -122.333993,
    "neighborhood": "Northgate/Maple Leaf",
    "neighborhoodGroup": "North",
    "units": "E24"
  },
  {
    "id_str": "F210030923",
    "created_at": "4/1/2021 6:11:02 AM",
    "timestamp": 1617282662000,
    "description": "Fire in Building",
    "address": "4003 Airport Way S",
    "active": false,
    "unitCount": 20,
    "severity": 2,
    "lat": 47.568046,
    "long": -122.322673,
    "neighborhood": "Duwamish/SODO",
    "neighborhoodGroup": "Greater Duwamish",
    "units": "A14 AIR10 B2 B5 DEP1 E10 E13 E27 E30 E36 E5 L1 L3 M10 M44 MAR5 R1 REHAB1 SAFT2 STAF10"
  },
  {
    "id_str": "F210030921",
    "created_at": "4/1/2021 5:49:48 AM",
    "timestamp": 1617281388000,
    "description": "Aid Response",
    "address": "434 N 35th St",
    "active": false,
    "unitCount": 1,
    "severity": 0,
    "lat": 47.651288,
    "long": -122.353934,
    "neighborhood": "Fremont",
    "neighborhoodGroup": "Lake Union",
    "units": "E18"
  },
  {
    "id_str": "F210030920",
    "created_at": "4/1/2021 5:49:35 AM",
    "timestamp": 1617281375000,
    "description": "Aid Response",
    "address": "434 N 35th St",
    "active": false,
    "unitCount": 1,
    "severity": 0,
    "lat": 47.651288,
    "long": -122.353934,
    "neighborhood": "Fremont",
    "neighborhoodGroup": "Lake Union",
    "units": "E9"
  },
  {
    "id_str": "F210030919",
    "created_at": "4/1/2021 5:47:32 AM",
    "timestamp": 1617281252000,
    "description": "1RED 1 Unit",
    "address": "1315 Hubbell Pl",
    "active": false,
    "unitCount": 1,
    "severity": 0,
    "lat": 47.610444,
    "long": -122.330742,
    "neighborhood": "First Hill",
    "neighborhoodGroup": "East",
    "units": "E10"
  },
  {
    "id_str": "F210030918",
    "created_at": "4/1/2021 5:40:56 AM",
    "timestamp": 1617280856000,
    "description": "Rubbish Fire",
    "address": "89 Yesler Way",
    "active": false,
    "unitCount": 1,
    "severity": 0,
    "lat": 47.601723,
    "long": -122.33488,
    "neighborhood": "Downtown Commercial Core",
    "neighborhoodGroup": "Downtown",
    "units": "E5"
  },
  {
    "id_str": "F210030917",
    "created_at": "4/1/2021 5:29:01 AM",
    "timestamp": 1617280141000,
    "description": "Aid Response",
    "address": "109 23rd Ave E",
    "active": false,
    "unitCount": 1,
    "severity": 0,
    "lat": 47.619215,
    "long": -122.302545,
    "neighborhood": "Central Area/Squire Park",
    "neighborhoodGroup": "Central",
    "units": "A25"
  },
  {
    "id_str": "F210030916",
    "created_at": "4/1/2021 5:21:27 AM",
    "timestamp": 1617279687000,
    "description": "Alarm Bell",
    "address": "2200 1st Ave S",
    "active": false,
    "unitCount": 2,
    "severity": 0,
    "lat": 47.583979,
    "long": -122.334199,
    "neighborhood": "Duwamish/SODO",
    "neighborhoodGroup": "Greater Duwamish",
    "units": "E10 R1"
  },
  {
    "id_str": "F210030915",
    "created_at": "4/1/2021 5:20:47 AM",
    "timestamp": 1617279647000,
    "description": "Aid Response",
    "address": "500 5th Ave",
    "active": false,
    "unitCount": 1,
    "severity": 0,
    "lat": 47.602985,
    "long": -122.328535,
    "neighborhood": "First Hill",
    "neighborhoodGroup": "East",
    "units": "A10"
  },
  {
    "id_str": "F210030913",
    "created_at": "4/1/2021 5:09:28 AM",
    "timestamp": 1617278968000,
    "description": "Aid Response",
    "address": "Yesler Way / 1st Ave",
    "active": false,
    "unitCount": 1,
    "severity": 0,
    "lat": 47.601722,
    "long": -122.334179,
    "neighborhood": "Downtown Commercial Core",
    "neighborhoodGroup": "Downtown",
    "units": "A5"
  },
  {
    "id_str": "F210030911",
    "created_at": "4/1/2021 4:46:27 AM",
    "timestamp": 1617277587000,
    "description": "Medic Response, 7 per Rule",
    "address": "3621 33rd Ave S",
    "active": false,
    "unitCount": 3,
    "severity": 0,
    "lat": 47.571408,
    "long": -122.291001,
    "neighborhood": "Columbia City",
    "neighborhoodGroup": "Southeast",
    "units": "E13 E30 M28"
  },
  {
    "id_str": "F210030909",
    "created_at": "4/1/2021 4:30:09 AM",
    "timestamp": 1617276609000,
    "description": "Alarm Bell",
    "address": "2250 Nw 58th St",
    "active": false,
    "unitCount": 2,
    "severity": 0,
    "lat": 47.670913,
    "long": -122.385447,
    "neighborhood": "Ballard",
    "neighborhoodGroup": "Ballard",
    "units": "E18 L8"
  },
  {
    "id_str": "F210030907",
    "created_at": "4/1/2021 4:10:30 AM",
    "timestamp": 1617275430000,
    "description": "Aid Response",
    "address": "1906 Ne 45th St",
    "active": false,
    "unitCount": 1,
    "severity": 0,
    "lat": 47.661258,
    "long": -122.307201,
    "neighborhood": "University District",
    "neighborhoodGroup": "Northeast",
    "units": "E17"
  },
  {
    "id_str": "F210030904",
    "created_at": "4/1/2021 3:40:32 AM",
    "timestamp": 1617273632000,
    "description": "Aid Response",
    "address": "925 4th Ave",
    "active": false,
    "unitCount": 1,
    "severity": 0,
    "lat": 47.605549,
    "long": -122.332417,
    "neighborhood": "Downtown Commercial Core",
    "neighborhoodGroup": "Downtown",
    "units": "A10"
  },
  {
    "id_str": "F210030899",
    "created_at": "4/1/2021 3:02:52 AM",
    "timestamp": 1617271372000,
    "description": "Aid Response",
    "address": "1st Ave / Yesler Way",
    "active": false,
    "unitCount": 1,
    "severity": 0,
    "lat": 47.601722,
    "long": -122.334179,
    "neighborhood": "Downtown Commercial Core",
    "neighborhoodGroup": "Downtown",
    "units": "E10"
  },
  {
    "id_str": "F210030898",
    "created_at": "4/1/2021 3:01:59 AM",
    "timestamp": 1617271319000,
    "description": "Medic Response",
    "address": "811 Maynard Ave S",
    "active": false,
    "unitCount": 2,
    "severity": 0,
    "lat": 47.595741,
    "long": -122.325068,
    "neighborhood": "Duwamish/SODO",
    "neighborhoodGroup": "Greater Duwamish",
    "units": "A10 M1"
  },
  {
    "id_str": "F210030897",
    "created_at": "4/1/2021 3:01:08 AM",
    "timestamp": 1617271268000,
    "description": "Medic Response, 7 per Rule",
    "address": "3rd Ave / Pike St",
    "active": false,
    "unitCount": 3,
    "severity": 0,
    "lat": 47.60975,
    "long": -122.337793,
    "neighborhood": "Downtown Commercial Core",
    "neighborhoodGroup": "Downtown",
    "units": "A5 E5 M10"
  },
  {
    "id_str": "F210030895",
    "created_at": "4/1/2021 2:50:26 AM",
    "timestamp": 1617270626000,
    "description": "Aid Response",
    "address": "1922 9th Ave",
    "active": false,
    "unitCount": 1,
    "severity": 0,
    "lat": 47.615781,
    "long": -122.334715,
    "neighborhood": "Cascade/Eastlake",
    "neighborhoodGroup": "Lake Union",
    "units": "A2"
  },
  {
    "id_str": "F210030894",
    "created_at": "4/1/2021 2:37:55 AM",
    "timestamp": 1617269875000,
    "description": "Rubbish Fire",
    "address": "2201 4th Ave S",
    "active": false,
    "unitCount": 1,
    "severity": 0,
    "lat": 47.583966,
    "long": -122.329054,
    "neighborhood": "Duwamish/SODO",
    "neighborhoodGroup": "Greater Duwamish",
    "units": "E10"
  },
  {
    "id_str": "F210030893",
    "created_at": "4/1/2021 2:31:39 AM",
    "timestamp": 1617269499000,
    "description": "Aid Response",
    "address": "25th Ave Ne / Ne Blakeley St",
    "active": false,
    "unitCount": 1,
    "severity": 0,
    "lat": 47.666267,
    "long": -122.300605,
    "neighborhood": "Ravenna/Bryant",
    "neighborhoodGroup": "Northeast",
    "units": "E38"
  },
  {
    "id_str": "F210030892",
    "created_at": "4/1/2021 2:23:01 AM",
    "timestamp": 1617268981000,
    "description": "Aid Response Yellow",
    "address": "8538 Mary Ave Nw",
    "active": false,
    "unitCount": 1,
    "severity": 0,
    "lat": 47.690955,
    "long": -122.375464,
    "neighborhood": "North Beach/Blue Ridge",
    "neighborhoodGroup": "Ballard",
    "units": "E35"
  },
  {
    "id_str": "F210030890",
    "created_at": "4/1/2021 1:58:42 AM",
    "timestamp": 1617267522000,
    "description": "Aid Response",
    "address": "1522 E Madison St",
    "active": false,
    "unitCount": 1,
    "severity": 0,
    "lat": 47.614622,
    "long": -122.312476,
    "neighborhood": "Central Area/Squire Park",
    "neighborhoodGroup": "Central",
    "units": "A25"
  },
  {
    "id_str": "F210030888",
    "created_at": "4/1/2021 1:49:44 AM",
    "timestamp": 1617266984000,
    "description": "Aid Response",
    "address": "5701 22nd Ave Nw",
    "active": false,
    "unitCount": 1,
    "severity": 0,
    "lat": 47.670183,
    "long": -122.384743,
    "neighborhood": "Ballard",
    "neighborhoodGroup": "Ballard",
    "units": "E18"
  },
  {
    "id_str": "F210030887",
    "created_at": "4/1/2021 1:39:51 AM",
    "timestamp": 1617266391000,
    "description": "Medic Response",
    "address": "4700 12th Ave Ne",
    "active": false,
    "unitCount": 2,
    "severity": 0,
    "lat": 47.663106,
    "long": -122.315263,
    "neighborhood": "University District",
    "neighborhoodGroup": "Northeast",
    "units": "E31 M17"
  },
  {
    "id_str": "F210030885",
    "created_at": "4/1/2021 1:18:31 AM",
    "timestamp": 1617265111000,
    "description": "Aid Response Yellow",
    "address": "1519 12th Ave",
    "active": false,
    "unitCount": 1,
    "severity": 0,
    "lat": 47.614317,
    "long": -122.316839,
    "neighborhood": "Capitol Hill",
    "neighborhoodGroup": "East",
    "units": "A25"
  },
  {
    "id_str": "F210030884",
    "created_at": "4/1/2021 1:16:19 AM",
    "timestamp": 1617264979000,
    "description": "Medic Response",
    "address": "1339 California Ave Sw",
    "active": false,
    "unitCount": 2,
    "severity": 0,
    "lat": 47.591652,
    "long": -122.386144,
    "neighborhood": "Alki/Admiral",
    "neighborhoodGroup": "Southwest",
    "units": "E29 M32"
  },
  {
    "id_str": "F210030881",
    "created_at": "4/1/2021 12:54:34 AM",
    "timestamp": 1617263674000,
    "description": "Auto Fire Alarm",
    "address": "1601 13TH AVE",
    "active": false,
    "unitCount": 2,
    "severity": 0,
    "lat": 47.615273,
    "long": -122.315549,
    "neighborhood": "Capitol Hill",
    "neighborhoodGroup": "East",
    "units": "E25 L10"
  },
  {
    "id_str": "F210030878",
    "created_at": "4/1/2021 12:19:32 AM",
    "timestamp": 1617261572000,
    "description": "Rescue Lock In/Out",
    "address": "4612 S Othello St",
    "active": false,
    "unitCount": 1,
    "severity": 0,
    "lat": 47.537023,
    "long": -122.275186,
    "neighborhood": "Columbia City",
    "neighborhoodGroup": "Southeast",
    "units": "L12"
  },
  {
    "id_str": "F210030876",
    "created_at": "4/1/2021 12:10:12 AM",
    "timestamp": 1617261012000,
    "description": "4RED - 2 + 1 + 1",
    "address": "3022 NE 137TH ST",
    "active": false,
    "unitCount": 4,
    "severity": 0,
    "lat": 47.728022,
    "long": -122.296428,
    "neighborhood": "Cedar Park/Meadowbrook",
    "neighborhoodGroup": "North",
    "units": "B6 E39 E40 L5"
  },
  {
    "id_str": "F210030875",
    "created_at": "4/1/2021 12:05:30 AM",
    "timestamp": 1617260730000,
    "description": "Aid Response",
    "address": "2611 S Dearborn St",
    "active": false,
    "unitCount": 1,
    "severity": 0,
    "lat": 47.595541,
    "long": -122.298643,
    "neighborhood": "Madrona/Leschi",
    "neighborhoodGroup": "Central",
    "units": "E6"
  },
  {
    "id_str": "F210030874",
    "created_at": "4/1/2021 12:05:07 AM",
    "timestamp": 1617260707000,
    "description": "Medic Response",
    "address": "4520 2nd Ave Ne",
    "active": false,
    "unitCount": 2,
    "severity": 0,
    "lat": 47.661597,
    "long": -122.327247,
    "neighborhood": "Wallingford",
    "neighborhoodGroup": "Lake Union",
    "units": "E17 M17"
  },
  {
    "id_str": "F210030872",
    "created_at": "3/31/2021 11:55:54 PM",
    "timestamp": 1617260154000,
    "description": "Medic Response",
    "address": "3417 15th Ave S",
    "active": false,
    "unitCount": 2,
    "severity": 0,
    "lat": 47.572968,
    "long": -122.313397,
    "neighborhood": "North Beacon Hill/Jefferson Park",
    "neighborhoodGroup": "Greater Duwamish",
    "units": "E13 M1"
  },
  {
    "id_str": "F210030871",
    "created_at": "3/31/2021 11:51:45 PM",
    "timestamp": 1617259905000,
    "description": "Aid Response",
    "address": "13000 Linden Ave N",
    "active": false,
    "unitCount": 1,
    "severity": 0,
    "lat": 47.723218,
    "long": -122.348195,
    "neighborhood": "Broadview/Bitter Lake",
    "neighborhoodGroup": "Northwest",
    "units": "E24"
  },
  {
    "id_str": "F210030869",
    "created_at": "3/31/2021 11:44:44 PM",
    "timestamp": 1617259484000,
    "description": "Aid Response",
    "address": "3727 Magnolia Blvd W",
    "active": false,
    "unitCount": 1,
    "severity": 0,
    "lat": 47.653461,
    "long": -122.412261,
    "neighborhood": "Magnolia",
    "neighborhoodGroup": "Magnolia/Queen Anne",
    "units": "E41"
  },
  {
    "id_str": "F210030868",
    "created_at": "3/31/2021 11:44:07 PM",
    "timestamp": 1617259447000,
    "description": "Aid Response",
    "address": "1900-block Utah Ave S",
    "active": false,
    "unitCount": 1,
    "severity": 0,
    "lat": 47.586104,
    "long": -122.335122,
    "neighborhood": "Duwamish/SODO",
    "neighborhoodGroup": "Greater Duwamish",
    "units": "A14"
  },
  {
    "id_str": "F210030866",
    "created_at": "3/31/2021 11:34:50 PM",
    "timestamp": 1617258890000,
    "description": "Medic Response",
    "address": "500 5th Ave",
    "active": false,
    "unitCount": 2,
    "severity": 0,
    "lat": 47.602985,
    "long": -122.328535,
    "neighborhood": "First Hill",
    "neighborhoodGroup": "East",
    "units": "A10 M10"
  },
  {
    "id_str": "F210030862",
    "created_at": "3/31/2021 11:21:10 PM",
    "timestamp": 1617258070000,
    "description": "Aid Response",
    "address": "5550 33rd Ave Ne",
    "active": false,
    "unitCount": 1,
    "severity": 0,
    "lat": 47.668963,
    "long": -122.292643,
    "neighborhood": "Ravenna/Bryant",
    "neighborhoodGroup": "Northeast",
    "units": "E38"
  },
  {
    "id_str": "F210030861",
    "created_at": "3/31/2021 11:20:54 PM",
    "timestamp": 1617258054000,
    "description": "Low Acuity Response",
    "address": "3928 S Eddy St",
    "active": false,
    "unitCount": 1,
    "severity": 0,
    "lat": 47.545302,
    "long": -122.283098,
    "neighborhood": "Columbia City",
    "neighborhoodGroup": "Southeast",
    "units": "L12"
  },
  {
    "id_str": "F210030859",
    "created_at": "3/31/2021 11:18:11 PM",
    "timestamp": 1617257891000,
    "description": "Aid Response",
    "address": "5033 37th Ave S",
    "active": false,
    "unitCount": 1,
    "severity": 0,
    "lat": 47.556785,
    "long": -122.286143,
    "neighborhood": "Columbia City",
    "neighborhoodGroup": "Southeast",
    "units": "E28"
  },
  {
    "id_str": "F210030860",
    "created_at": "3/31/2021 11:17:53 PM",
    "timestamp": 1617257873000,
    "description": "2RED - 1 + 1",
    "address": "1550 N 115th St",
    "active": false,
    "unitCount": 2,
    "severity": 0,
    "lat": 47.712305,
    "long": -122.339596,
    "neighborhood": "Haller Lake",
    "neighborhoodGroup": "Northwest",
    "units": "E24 L5"
  },
  {
    "id_str": "F210030858",
    "created_at": "3/31/2021 11:11:23 PM",
    "timestamp": 1617257483000,
    "description": "Scenes Of Violence 7",
    "address": "2134 Western Ave",
    "active": false,
    "unitCount": 5,
    "severity": 1,
    "lat": 47.611432,
    "long": -122.34521,
    "neighborhood": "Belltown",
    "neighborhoodGroup": "Downtown",
    "units": "A2 B2 E2 M10 M44"
  },
  {
    "id_str": "F210030853",
    "created_at": "3/31/2021 10:59:44 PM",
    "timestamp": 1617256784000,
    "description": "Aid Response",
    "address": "411 University St",
    "active": false,
    "unitCount": 1,
    "severity": 0,
    "lat": 47.60828,
    "long": -122.334742,
    "neighborhood": "Downtown Commercial Core",
    "neighborhoodGroup": "Downtown",
    "units": "A5"
  },
  {
    "id_str": "F210030854",
    "created_at": "3/31/2021 10:57:20 PM",
    "timestamp": 1617256640000,
    "description": "Investigate Out Of Service",
    "address": "1158 Broadway",
    "active": false,
    "unitCount": 1,
    "severity": 0,
    "lat": 47.611585,
    "long": -122.32076,
    "neighborhood": "Capitol Hill",
    "neighborhoodGroup": "East",
    "units": "E25"
  },
  {
    "id_str": "F210030852",
    "created_at": "3/31/2021 10:54:11 PM",
    "timestamp": 1617256451000,
    "description": "Activated CO Detector",
    "address": "400 Wall St",
    "active": false,
    "unitCount": 1,
    "severity": 0,
    "lat": 47.616691,
    "long": -122.346171,
    "neighborhood": "Cascade/Eastlake",
    "neighborhoodGroup": "Lake Union",
    "units": "L4"
  },
  {
    "id_str": "F210030851",
    "created_at": "3/31/2021 10:50:33 PM",
    "timestamp": 1617256233000,
    "description": "Investigate Out Of Service",
    "address": "432 31st Ave E",
    "active": false,
    "unitCount": 1,
    "severity": 0,
    "lat": 47.622858,
    "long": -122.291974,
    "neighborhood": "Central Area/Squire Park",
    "neighborhoodGroup": "Central",
    "units": "E34"
  },
  {
    "id_str": "F210030850",
    "created_at": "3/31/2021 10:45:56 PM",
    "timestamp": 1617255956000,
    "description": "Medic Response",
    "address": "1501 E Thomas St",
    "active": false,
    "unitCount": 2,
    "severity": 0,
    "lat": 47.620503,
    "long": -122.312698,
    "neighborhood": "Capitol Hill",
    "neighborhoodGroup": "East",
    "units": "A25 M1"
  },
  {
    "id_str": "F210030848",
    "created_at": "3/31/2021 10:42:02 PM",
    "timestamp": 1617255722000,
    "description": "Auto Fire Alarm",
    "address": "2212 S Jackson St",
    "active": false,
    "unitCount": 2,
    "severity": 0,
    "lat": 47.599276,
    "long": -122.303156,
    "neighborhood": "Judkins Park",
    "neighborhoodGroup": "Central",
    "units": "E10 L3"
  },
  {
    "id_str": "F210030846",
    "created_at": "3/31/2021 10:39:09 PM",
    "timestamp": 1617255549000,
    "description": "Aid Response",
    "address": "801 9th Ave",
    "active": false,
    "unitCount": 1,
    "severity": 0,
    "lat": 47.606982,
    "long": -122.326056,
    "neighborhood": "First Hill",
    "neighborhoodGroup": "East",
    "units": "A10"
  },
  {
    "id_str": "F210030845",
    "created_at": "3/31/2021 10:34:43 PM",
    "timestamp": 1617255283000,
    "description": "Electrical Problem",
    "address": "2923 S Brighton St",
    "active": false,
    "unitCount": 1,
    "severity": 0,
    "lat": 47.541321,
    "long": -122.294795,
    "neighborhood": "South Beacon Hill/NewHolly",
    "neighborhoodGroup": "Greater Duwamish",
    "units": "L12"
  },
  {
    "id_str": "F210030844",
    "created_at": "3/31/2021 10:32:07 PM",
    "timestamp": 1617255127000,
    "description": "Aid Response",
    "address": "11TH AVE NW / NW 54TH ST",
    "active": false,
    "unitCount": 1,
    "severity": 0,
    "lat": 47.667885,
    "long": -122.368845,
    "neighborhood": "Ballard",
    "neighborhoodGroup": "Ballard",
    "units": "E18"
  },
  {
    "id_str": "F210030843",
    "created_at": "3/31/2021 10:17:24 PM",
    "timestamp": 1617254244000,
    "description": "Aid Response",
    "address": "4823 S Garden St",
    "active": false,
    "unitCount": 1,
    "severity": 0,
    "lat": 47.537637,
    "long": -122.272464,
    "neighborhood": "Columbia City",
    "neighborhoodGroup": "Southeast",
    "units": "E28"
  },
  {
    "id_str": "F210030842",
    "created_at": "3/31/2021 10:07:40 PM",
    "timestamp": 1617253660000,
    "description": "Aid Response",
    "address": "4114 38th Ave S",
    "active": false,
    "unitCount": 2,
    "severity": 0,
    "lat": 47.566081,
    "long": -122.284995,
    "neighborhood": "Columbia City",
    "neighborhoodGroup": "Southeast",
    "units": "E28 E30"
  },
  {
    "id_str": "F210030841",
    "created_at": "3/31/2021 10:04:26 PM",
    "timestamp": 1617253466000,
    "description": "MVI - Motor Vehicle Incident",
    "address": "14005 Aurora Ave N",
    "active": false,
    "unitCount": 1,
    "severity": 0,
    "lat": 47.730514,
    "long": -122.345057,
    "neighborhood": "Haller Lake",
    "neighborhoodGroup": "Northwest",
    "units": "E24"
  },
  {
    "id_str": "F210030838",
    "created_at": "3/31/2021 9:58:05 PM",
    "timestamp": 1617253085000,
    "description": "Aid Response",
    "address": "13301 23rd Ave Ne",
    "active": false,
    "unitCount": 1,
    "severity": 0,
    "lat": 47.72477,
    "long": -122.304572,
    "neighborhood": "Olympic Hills/Victory Heights",
    "neighborhoodGroup": "North",
    "units": "E39"
  },
  {
    "id_str": "F210030836",
    "created_at": "3/31/2021 9:48:38 PM",
    "timestamp": 1617252518000,
    "description": "Aid Response",
    "address": "900 University St",
    "active": false,
    "unitCount": 1,
    "severity": 0,
    "lat": 47.61055,
    "long": -122.329318,
    "neighborhood": "First Hill",
    "neighborhoodGroup": "East",
    "units": "E25"
  },
  {
    "id_str": "F210030835",
    "created_at": "3/31/2021 9:48:11 PM",
    "timestamp": 1617252491000,
    "description": "Aid Response",
    "address": "3rd Ave / Union St",
    "active": false,
    "unitCount": 2,
    "severity": 0,
    "lat": 47.608756,
    "long": -122.336885,
    "neighborhood": "Downtown Commercial Core",
    "neighborhoodGroup": "Downtown",
    "units": "L1 M17"
  },
  {
    "id_str": "F210030834",
    "created_at": "3/31/2021 9:47:24 PM",
    "timestamp": 1617252444000,
    "description": "Aid Response Yellow",
    "address": "3008 E Spring St",
    "active": false,
    "unitCount": 1,
    "severity": 0,
    "lat": 47.611666,
    "long": -122.293675,
    "neighborhood": "Central Area/Squire Park",
    "neighborhoodGroup": "Central",
    "units": "E6"
  },
  {
    "id_str": "F210030833",
    "created_at": "3/31/2021 9:42:10 PM",
    "timestamp": 1617252130000,
    "description": "Aid Response",
    "address": "500 5TH AVE",
    "active": false,
    "unitCount": 1,
    "severity": 0,
    "lat": 47.602985,
    "long": -122.328535,
    "neighborhood": "First Hill",
    "neighborhoodGroup": "East",
    "units": "A5"
  },
  {
    "id_str": "F210030831",
    "created_at": "3/31/2021 9:42:08 PM",
    "timestamp": 1617252128000,
    "description": "Aid Response",
    "address": "12th Ave Ne / Ne 47th St",
    "active": false,
    "unitCount": 1,
    "severity": 0,
    "lat": 47.663106,
    "long": -122.315263,
    "neighborhood": "University District",
    "neighborhoodGroup": "Northeast",
    "units": "E31"
  },
  {
    "id_str": "F210030828",
    "created_at": "3/31/2021 9:40:50 PM",
    "timestamp": 1617252050000,
    "description": "Aid Response",
    "address": "6529 36th Ave Ne",
    "active": false,
    "unitCount": 1,
    "severity": 0,
    "lat": 47.675953,
    "long": -122.288936,
    "neighborhood": "Wedgwood/View Ridge",
    "neighborhoodGroup": "Northeast",
    "units": "E38"
  },
  {
    "id_str": "F210030827",
    "created_at": "3/31/2021 9:39:38 PM",
    "timestamp": 1617251978000,
    "description": "1RED 1 Unit",
    "address": "1301 1st Ave",
    "active": false,
    "unitCount": 1,
    "severity": 0,
    "lat": 47.606835,
    "long": -122.338197,
    "neighborhood": "Downtown Commercial Core",
    "neighborhoodGroup": "Downtown",
    "units": "E5"
  },
  {
    "id_str": "F210030826",
    "created_at": "3/31/2021 9:36:28 PM",
    "timestamp": 1617251788000,
    "description": "Aid Response",
    "address": "1531 Broadway",
    "active": false,
    "unitCount": 1,
    "severity": 0,
    "lat": 47.614431,
    "long": -122.320786,
    "neighborhood": "Capitol Hill",
    "neighborhoodGroup": "East",
    "units": "A25"
  },
  {
    "id_str": "F210030824",
    "created_at": "3/31/2021 9:17:07 PM",
    "timestamp": 1617250627000,
    "description": "MVI Medic",
    "address": "6th Ave / James St",
    "active": false,
    "unitCount": 2,
    "severity": 0,
    "lat": 47.604161,
    "long": -122.328079,
    "neighborhood": "First Hill",
    "neighborhoodGroup": "East",
    "units": "E10 M10"
  },
  {
    "id_str": "F210030823",
    "created_at": "3/31/2021 9:16:24 PM",
    "timestamp": 1617250584000,
    "description": "Aid Response",
    "address": "1911 22nd Ave S",
    "active": false,
    "unitCount": 1,
    "severity": 0,
    "lat": 47.586234,
    "long": -122.304237,
    "neighborhood": "North Beacon Hill/Jefferson Park",
    "neighborhoodGroup": "Greater Duwamish",
    "units": "E30"
  },
  {
    "id_str": "F210030821",
    "created_at": "3/31/2021 9:12:43 PM",
    "timestamp": 1617250363000,
    "description": "Aid Response",
    "address": "15th Ave Ne / Ne 125th St",
    "active": false,
    "unitCount": 1,
    "severity": 0,
    "lat": 47.719414,
    "long": -122.312679,
    "neighborhood": "Olympic Hills/Victory Heights",
    "neighborhoodGroup": "North",
    "units": "E39"
  },
  {
    "id_str": "F210030820",
    "created_at": "3/31/2021 9:11:04 PM",
    "timestamp": 1617250264000,
    "description": "Aid Response",
    "address": "600 Pine St",
    "active": false,
    "unitCount": 1,
    "severity": 0,
    "lat": 47.612136,
    "long": -122.335373,
    "neighborhood": "First Hill",
    "neighborhoodGroup": "East",
    "units": "A10"
  },
  {
    "id_str": "F210030819",
    "created_at": "3/31/2021 9:06:38 PM",
    "timestamp": 1617249998000,
    "description": "Illegal Burn",
    "address": "11th Ave / E Denny Way",
    "active": false,
    "unitCount": 1,
    "severity": 0,
    "lat": 47.618759,
    "long": -122.318215,
    "neighborhood": "Capitol Hill",
    "neighborhoodGroup": "East",
    "units": "E25"
  },
  {
    "id_str": "F210030818",
    "created_at": "3/31/2021 9:03:41 PM",
    "timestamp": 1617249821000,
    "description": "Medic Response",
    "address": "306 Blanchard St",
    "active": false,
    "unitCount": 2,
    "severity": 0,
    "lat": 47.613977,
    "long": -122.343441,
    "neighborhood": "Cascade/Eastlake",
    "neighborhoodGroup": "Lake Union",
    "units": "A2 M1"
  },
  {
    "id_str": "F210030816",
    "created_at": "3/31/2021 8:56:50 PM",
    "timestamp": 1617249410000,
    "description": "Aid Response",
    "address": "3957 S Lucile St",
    "active": false,
    "unitCount": 1,
    "severity": 0,
    "lat": 47.552693,
    "long": -122.282956,
    "neighborhood": "Columbia City",
    "neighborhoodGroup": "Southeast",
    "units": "E28"
  },
  {
    "id_str": "F210030815",
    "created_at": "3/31/2021 8:51:37 PM",
    "timestamp": 1617249097000,
    "description": "Aid Response",
    "address": "9230 2nd Ave Sw",
    "active": false,
    "unitCount": 1,
    "severity": 0,
    "lat": 47.520679,
    "long": -122.335803,
    "units": "E26"
  },
  {
    "id_str": "F210030814",
    "created_at": "3/31/2021 8:50:03 PM",
    "timestamp": 1617249003000,
    "description": "Illegal Burn",
    "address": "60th Ave Sw / Alki Ave Sw",
    "active": false,
    "unitCount": 1,
    "severity": 0,
    "lat": 47.579509,
    "long": -122.409331,
    "neighborhood": "Alki/Admiral",
    "neighborhoodGroup": "Southwest",
    "units": "E29"
  },
  {
    "id_str": "F210030813",
    "created_at": "3/31/2021 8:49:26 PM",
    "timestamp": 1617248966000,
    "description": "Aid Response",
    "address": "933 Nw 97th St",
    "active": false,
    "unitCount": 2,
    "severity": 0,
    "lat": 47.700156,
    "long": -122.369018,
    "neighborhood": "North Beach/Blue Ridge",
    "neighborhoodGroup": "Ballard",
    "units": "E21 M31"
  },
  {
    "id_str": "F210030812",
    "created_at": "3/31/2021 8:42:24 PM",
    "timestamp": 1617248544000,
    "description": "Aid Response",
    "address": "811 Maynard Ave S",
    "active": false,
    "unitCount": 1,
    "severity": 0,
    "lat": 47.595741,
    "long": -122.325068,
    "neighborhood": "Duwamish/SODO",
    "neighborhoodGroup": "Greater Duwamish",
    "units": "A5"
  },
  {
    "id_str": "F210030809",
    "created_at": "3/31/2021 8:35:02 PM",
    "timestamp": 1617248102000,
    "description": "Aid Response",
    "address": "S Massachusetts St / M L King Jr Way S",
    "active": false,
    "unitCount": 1,
    "severity": 0,
    "lat": 47.588312,
    "long": -122.298051,
    "neighborhood": "Mt. Baker/North Rainier",
    "neighborhoodGroup": "Southeast",
    "units": "E30"
  },
  {
    "id_str": "F210030808",
    "created_at": "3/31/2021 8:32:28 PM",
    "timestamp": 1617247948000,
    "description": "Aid Response",
    "address": "6312 CALIFORNIA AVE SW",
    "active": false,
    "unitCount": 1,
    "severity": 0,
    "lat": 47.546561,
    "long": -122.387196,
    "neighborhood": "Fauntleroy/Seaview",
    "neighborhoodGroup": "Southwest",
    "units": "E32"
  },
  {
    "id_str": "F210030805",
    "created_at": "3/31/2021 8:28:06 PM",
    "timestamp": 1617247686000,
    "description": "Aid Response",
    "address": "32nd Ave Nw / Loyal Way Nw",
    "active": false,
    "unitCount": 1,
    "severity": 0,
    "lat": 47.690573,
    "long": -122.398327,
    "neighborhood": "North Beach/Blue Ridge",
    "neighborhoodGroup": "Ballard",
    "units": "E35"
  },
  {
    "id_str": "F210030804",
    "created_at": "3/31/2021 8:26:36 PM",
    "timestamp": 1617247596000,
    "description": "Rescue Lock In/Out",
    "address": "1815 Terry Ave",
    "active": false,
    "unitCount": 1,
    "severity": 0,
    "lat": 47.615602,
    "long": -122.332488,
    "neighborhood": "Cascade/Eastlake",
    "neighborhoodGroup": "Lake Union",
    "units": "E2"
  },
  {
    "id_str": "F210030803",
    "created_at": "3/31/2021 8:25:35 PM",
    "timestamp": 1617247535000,
    "description": "Aid Response",
    "address": "816 Hiawatha Pl S",
    "active": false,
    "unitCount": 1,
    "severity": 0,
    "lat": 47.595639,
    "long": -122.310039,
    "neighborhood": "North Beacon Hill/Jefferson Park",
    "neighborhoodGroup": "Greater Duwamish",
    "units": "E6"
  },
  {
    "id_str": "F210030797",
    "created_at": "3/31/2021 8:08:30 PM",
    "timestamp": 1617246510000,
    "description": "Low Acuity Response",
    "address": "2100 California Ave Sw",
    "active": false,
    "unitCount": 1,
    "severity": 0,
    "lat": 47.585371,
    "long": -122.386371,
    "neighborhood": "Alki/Admiral",
    "neighborhoodGroup": "Southwest",
    "units": "L11"
  },
  {
    "id_str": "F210030796",
    "created_at": "3/31/2021 8:05:43 PM",
    "timestamp": 1617246343000,
    "description": "Aid Response",
    "address": "2405 55th Ave Sw",
    "active": false,
    "unitCount": 1,
    "severity": 0,
    "lat": 47.582378,
    "long": -122.402602,
    "neighborhood": "West Seattle Junction/Genesee Hill",
    "neighborhoodGroup": "Southwest",
    "units": "E29"
  },
  {
    "id_str": "F210030795",
    "created_at": "3/31/2021 8:01:24 PM",
    "timestamp": 1617246084000,
    "description": "Illegal Burn",
    "address": "N 97th St / Densmore Ave N",
    "active": false,
    "unitCount": 1,
    "severity": 0,
    "lat": 47.699598,
    "long": -122.337649,
    "neighborhood": "Licton Springs",
    "neighborhoodGroup": "Northwest",
    "units": "E16"
  },
  {
    "id_str": "F210030793",
    "created_at": "3/31/2021 8:00:27 PM",
    "timestamp": 1617246027000,
    "description": "Illegal Burn",
    "address": "36th Ave S / S Adams St",
    "active": false,
    "unitCount": 2,
    "severity": 0,
    "lat": 47.565398,
    "long": -122.287386,
    "neighborhood": "Columbia City",
    "neighborhoodGroup": "Southeast",
    "units": "E28 L12"
  },
  {
    "id_str": "F210030792",
    "created_at": "3/31/2021 7:54:19 PM",
    "timestamp": 1617245659000,
    "description": "Aid Response",
    "address": "2917 S Snoqualmie St",
    "active": false,
    "unitCount": 1,
    "severity": 0,
    "lat": 47.561509,
    "long": -122.29496,
    "neighborhood": "North Beacon Hill/Jefferson Park",
    "neighborhoodGroup": "Greater Duwamish",
    "units": "E30"
  },
  {
    "id_str": "F210030791",
    "created_at": "3/31/2021 7:53:31 PM",
    "timestamp": 1617245611000,
    "description": "Illegal Burn",
    "address": "4200 S Adams St",
    "active": false,
    "unitCount": 1,
    "severity": 0,
    "lat": 47.56526,
    "long": -122.280756,
    "neighborhood": "Columbia City",
    "neighborhoodGroup": "Southeast",
    "units": "E28"
  },
  {
    "id_str": "F210030789",
    "created_at": "3/31/2021 7:51:27 PM",
    "timestamp": 1617245487000,
    "description": "Aid Response",
    "address": "523 11th Ave E",
    "active": false,
    "unitCount": 2,
    "severity": 0,
    "lat": 47.623375,
    "long": -122.317801,
    "neighborhood": "Capitol Hill",
    "neighborhoodGroup": "East",
    "units": "A25 E25"
  },
  {
    "id_str": "F210030786",
    "created_at": "3/31/2021 7:46:18 PM",
    "timestamp": 1617245178000,
    "description": "Medic Response",
    "address": "116 Stewart St",
    "active": false,
    "unitCount": 2,
    "severity": 0,
    "lat": 47.610387,
    "long": -122.341198,
    "neighborhood": "Belltown",
    "neighborhoodGroup": "Downtown",
    "units": "A4 M1"
  },
  {
    "id_str": "F210030787",
    "created_at": "3/31/2021 7:46:00 PM",
    "timestamp": 1617245160000,
    "description": "Aid Response",
    "address": "5450 Leary Ave Nw",
    "active": false,
    "unitCount": 1,
    "severity": 0,
    "lat": 47.667823,
    "long": -122.383486,
    "neighborhood": "Ballard",
    "neighborhoodGroup": "Ballard",
    "units": "E18"
  },
  {
    "id_str": "F210030785",
    "created_at": "3/31/2021 7:35:21 PM",
    "timestamp": 1617244521000,
    "description": "Aid Response",
    "address": "1625 E Madison St",
    "active": false,
    "unitCount": 1,
    "severity": 0,
    "lat": 47.615275,
    "long": -122.310907,
    "neighborhood": "Central Area/Squire Park",
    "neighborhoodGroup": "Central",
    "units": "E25"
  },
  {
    "id_str": "F210030781",
    "created_at": "3/31/2021 7:26:51 PM",
    "timestamp": 1617244011000,
    "description": "MVI - Motor Vehicle Incident",
    "address": "7th Ave / Battery St",
    "active": false,
    "unitCount": 1,
    "severity": 0,
    "lat": 47.618132,
    "long": -122.342655,
    "neighborhood": "Cascade/Eastlake",
    "neighborhoodGroup": "Lake Union",
    "units": "E2"
  },
  {
    "id_str": "F210030780",
    "created_at": "3/31/2021 7:25:27 PM",
    "timestamp": 1617243927000,
    "description": "Aid Response",
    "address": "3440 East Marginal Way S",
    "active": false,
    "unitCount": 1,
    "severity": 0,
    "lat": 47.573305,
    "long": -122.339696,
    "neighborhood": "Duwamish/SODO",
    "neighborhoodGroup": "Greater Duwamish",
    "units": "A14"
  },
  {
    "id_str": "F210030778",
    "created_at": "3/31/2021 7:18:06 PM",
    "timestamp": 1617243486000,
    "description": "Aid Response",
    "address": "1401 Broadway",
    "active": false,
    "unitCount": 1,
    "severity": 0,
    "lat": 47.612963,
    "long": -122.320762,
    "neighborhood": "Capitol Hill",
    "neighborhoodGroup": "East",
    "units": "A25"
  },
  {
    "id_str": "F210030777",
    "created_at": "3/31/2021 7:15:28 PM",
    "timestamp": 1617243328000,
    "description": "Spill, Non-Hazmat",
    "address": "140 Lakeside Ave S",
    "active": false,
    "unitCount": 1,
    "severity": 0,
    "lat": 47.601308,
    "long": -122.285483,
    "neighborhood": "Madrona/Leschi",
    "neighborhoodGroup": "Central",
    "units": "E6"
  },
  {
    "id_str": "F210030776",
    "created_at": "3/31/2021 7:14:36 PM",
    "timestamp": 1617243276000,
    "description": "Aid Response",
    "address": "4524 7th Ave Ne",
    "active": false,
    "unitCount": 1,
    "severity": 0,
    "lat": 47.661857,
    "long": -122.320725,
    "neighborhood": "Wallingford",
    "neighborhoodGroup": "Lake Union",
    "units": "E17"
  },
  {
    "id_str": "F210030774",
    "created_at": "3/31/2021 7:10:13 PM",
    "timestamp": 1617243013000,
    "description": "Aid Response",
    "address": "1st Ave / Bell St",
    "active": false,
    "unitCount": 1,
    "severity": 0,
    "lat": 47.613375,
    "long": -122.346513,
    "neighborhood": "Belltown",
    "neighborhoodGroup": "Downtown",
    "units": "A4"
  },
  {
    "id_str": "F210030772",
    "created_at": "3/31/2021 7:08:38 PM",
    "timestamp": 1617242918000,
    "description": "Investigate Out Of Service",
    "address": "5605 Delridge Way Sw",
    "active": false,
    "unitCount": 1,
    "severity": 0,
    "lat": 47.551888,
    "long": -122.362988,
    "neighborhood": "High Point",
    "neighborhoodGroup": "Delridge Neighborhoods",
    "units": "E11"
  },
  {
    "id_str": "F210030771",
    "created_at": "3/31/2021 7:06:22 PM",
    "timestamp": 1617242782000,
    "description": "Electrical Problem",
    "address": "465 Garfield St",
    "active": false,
    "unitCount": 1,
    "severity": 0,
    "lat": 47.633154,
    "long": -122.348006,
    "neighborhood": "Queen Anne",
    "neighborhoodGroup": "Magnolia/Queen Anne",
    "units": "E8"
  },
  {
    "id_str": "F210030770",
    "created_at": "3/31/2021 7:05:31 PM",
    "timestamp": 1617242731000,
    "description": "Aid Response",
    "address": "509 3rd Ave",
    "active": false,
    "unitCount": 3,
    "severity": 0,
    "lat": 47.602114,
    "long": -122.330809,
    "neighborhood": "Downtown Commercial Core",
    "neighborhoodGroup": "Downtown",
    "units": "A5 E10 L1"
  },
  {
    "id_str": "F210030768",
    "created_at": "3/31/2021 6:56:27 PM",
    "timestamp": 1617242187000,
    "description": "Aid Response",
    "address": "811 Maynard Ave S",
    "active": false,
    "unitCount": 1,
    "severity": 0,
    "lat": 47.595741,
    "long": -122.325068,
    "neighborhood": "Duwamish/SODO",
    "neighborhoodGroup": "Greater Duwamish",
    "units": "A10"
  },
  {
    "id_str": "F210030767",
    "created_at": "3/31/2021 6:55:38 PM",
    "timestamp": 1617242138000,
    "description": "Aid Response",
    "address": "424 Minor Ave N",
    "active": false,
    "unitCount": 1,
    "severity": 0,
    "lat": 47.622242,
    "long": -122.332995,
    "neighborhood": "Cascade/Eastlake",
    "neighborhoodGroup": "Lake Union",
    "units": "A2"
  },
  {
    "id_str": "F210030766",
    "created_at": "3/31/2021 6:55:29 PM",
    "timestamp": 1617242129000,
    "description": "Aid Response",
    "address": "14021 15th Ave Ne",
    "active": false,
    "unitCount": 1,
    "severity": 0,
    "lat": 47.730447,
    "long": -122.312702,
    "neighborhood": "Olympic Hills/Victory Heights",
    "neighborhoodGroup": "North",
    "units": "E39"
  },
  {
    "id_str": "F210030765",
    "created_at": "3/31/2021 6:54:26 PM",
    "timestamp": 1617242066000,
    "description": "Low Acuity Response",
    "address": "1871 E Yesler Way",
    "active": false,
    "unitCount": 1,
    "severity": 0,
    "lat": 47.601677,
    "long": -122.308016,
    "neighborhood": "Central Area/Squire Park",
    "neighborhoodGroup": "Central",
    "units": "E6"
  },
  {
    "id_str": "F210030764",
    "created_at": "3/31/2021 6:53:30 PM",
    "timestamp": 1617242010000,
    "description": "Aid Response",
    "address": "10345 Meridian Ave N",
    "active": false,
    "unitCount": 1,
    "severity": 0,
    "lat": 47.703624,
    "long": -122.333909,
    "neighborhood": "Northgate/Maple Leaf",
    "neighborhoodGroup": "North",
    "units": "A31"
  },
  {
    "id_str": "F210030763",
    "created_at": "3/31/2021 6:51:50 PM",
    "timestamp": 1617241910000,
    "description": "Aid Response",
    "address": "5612 48th Ave Sw",
    "active": false,
    "unitCount": 1,
    "severity": 0,
    "lat": 47.552114,
    "long": -122.393703,
    "neighborhood": "Fauntleroy/Seaview",
    "neighborhoodGroup": "Southwest",
    "units": "E32"
  },
  {
    "id_str": "F210030758",
    "created_at": "3/31/2021 6:39:32 PM",
    "timestamp": 1617241172000,
    "description": "Aid Response",
    "address": "118 Bell St",
    "active": false,
    "unitCount": 1,
    "severity": 0,
    "lat": 47.613497,
    "long": -122.346355,
    "neighborhood": "Belltown",
    "neighborhoodGroup": "Downtown",
    "units": "A4"
  },
  {
    "id_str": "F210030759",
    "created_at": "3/31/2021 6:39:32 PM",
    "timestamp": 1617241172000,
    "description": "Aid Response",
    "address": "3800 Montlake Blvd Ne",
    "active": false,
    "unitCount": 1,
    "severity": 0,
    "lat": 47.651083,
    "long": -122.303907,
    "neighborhood": "University District",
    "neighborhoodGroup": "Northeast",
    "units": "E31"
  },
  {
    "id_str": "F210030757",
    "created_at": "3/31/2021 6:33:29 PM",
    "timestamp": 1617240809000,
    "description": "Aid Response",
    "address": "4th Ave S / S Jackson St",
    "active": false,
    "unitCount": 2,
    "severity": 0,
    "lat": 47.599197,
    "long": -122.328968,
    "neighborhood": "Pioneer Square/International District",
    "neighborhoodGroup": "Downtown",
    "units": "A10 A5"
  },
  {
    "id_str": "F210030753",
    "created_at": "3/31/2021 6:22:00 PM",
    "timestamp": 1617240120000,
    "description": "Aid Response",
    "address": "8538 Mary Ave Nw",
    "active": false,
    "unitCount": 1,
    "severity": 0,
    "lat": 47.690955,
    "long": -122.375464,
    "neighborhood": "North Beach/Blue Ridge",
    "neighborhoodGroup": "Ballard",
    "units": "E35"
  },
  {
    "id_str": "F210030751",
    "created_at": "3/31/2021 6:16:47 PM",
    "timestamp": 1617239807000,
    "description": "Medic Response",
    "address": "SB I5 AT MICHIGAN",
    "active": false,
    "unitCount": 3,
    "severity": 0,
    "lat": 47.559045,
    "long": -122.321742,
    "neighborhood": "Duwamish/SODO",
    "neighborhoodGroup": "Greater Duwamish",
    "units": "E10 E13 M10"
  },
  {
    "id_str": "F210030750",
    "created_at": "3/31/2021 6:12:53 PM",
    "timestamp": 1617239573000,
    "description": "Medic Response",
    "address": "Nw 57th St / 24th Ave Nw",
    "active": false,
    "unitCount": 3,
    "severity": 0,
    "lat": 47.670187,
    "long": -122.387587,
    "neighborhood": "Sunset Hill/Loyal Heights",
    "neighborhoodGroup": "Ballard",
    "units": "E18 M1 M18"
  },
  {
    "id_str": "F210030747",
    "created_at": "3/31/2021 6:06:54 PM",
    "timestamp": 1617239214000,
    "description": "Medic Response",
    "address": "6807 Aurora Ave N",
    "active": false,
    "unitCount": 2,
    "severity": 0,
    "lat": 47.679555,
    "long": -122.34542,
    "neighborhood": "Greenwood/Phinney Ridge",
    "neighborhoodGroup": "Northwest",
    "units": "E16 M31"
  },
  {
    "id_str": "F210030744",
    "created_at": "3/31/2021 6:03:28 PM",
    "timestamp": 1617239008000,
    "description": "Auto Fire Alarm",
    "address": "201 Yesler Way",
    "active": false,
    "unitCount": 2,
    "severity": 0,
    "lat": 47.601719,
    "long": -122.331966,
    "neighborhood": "Downtown Commercial Core",
    "neighborhoodGroup": "Downtown",
    "units": "E10 L1"
  },
  {
    "id_str": "F210030743",
    "created_at": "3/31/2021 5:53:11 PM",
    "timestamp": 1617238391000,
    "description": "Aid Response",
    "address": "1111 HARVARD AVE",
    "active": false,
    "unitCount": 1,
    "severity": 0,
    "lat": 47.611993,
    "long": -122.321427,
    "neighborhood": "Capitol Hill",
    "neighborhoodGroup": "East",
    "units": "A25"
  },
  {
    "id_str": "F210030742",
    "created_at": "3/31/2021 5:52:13 PM",
    "timestamp": 1617238333000,
    "description": "Medic Response",
    "address": "8520 20th Ave Ne",
    "active": false,
    "unitCount": 2,
    "severity": 0,
    "lat": 47.690481,
    "long": -122.306859,
    "neighborhood": "Wedgwood/View Ridge",
    "neighborhoodGroup": "Northeast",
    "units": "E40 M17"
  },
  {
    "id_str": "F210030741",
    "created_at": "3/31/2021 5:51:53 PM",
    "timestamp": 1617238313000,
    "description": "Aid Response",
    "address": "5th Ave S / S King St",
    "active": false,
    "unitCount": 2,
    "severity": 0,
    "lat": 47.598356,
    "long": -122.327671,
    "neighborhood": "Pioneer Square/International District",
    "neighborhoodGroup": "Downtown",
    "units": "A10 A5"
  },
  {
    "id_str": "F210030740",
    "created_at": "3/31/2021 5:49:36 PM",
    "timestamp": 1617238176000,
    "description": "Aid Response",
    "address": "7301 Delridge Way Sw",
    "active": false,
    "unitCount": 1,
    "severity": 0,
    "lat": 47.537106,
    "long": -122.361215,
    "neighborhood": "High Point",
    "neighborhoodGroup": "Delridge Neighborhoods",
    "units": "E11"
  },
  {
    "id_str": "F210030739",
    "created_at": "3/31/2021 5:43:35 PM",
    "timestamp": 1617237815000,
    "description": "Aid Response",
    "address": "322 Nw 84th St",
    "active": false,
    "unitCount": 1,
    "severity": 0,
    "lat": 47.689835,
    "long": -122.360836,
    "neighborhood": "Greenwood/Phinney Ridge",
    "neighborhoodGroup": "Northwest",
    "units": "E21"
  },
  {
    "id_str": "F210030738",
    "created_at": "3/31/2021 5:31:47 PM",
    "timestamp": 1617237107000,
    "description": "Aid Response",
    "address": "2651 32nd Ave W",
    "active": false,
    "unitCount": 1,
    "severity": 0,
    "lat": 47.644617,
    "long": -122.398283,
    "neighborhood": "Magnolia",
    "neighborhoodGroup": "Magnolia/Queen Anne",
    "units": "E41"
  },
  {
    "id_str": "F210030736",
    "created_at": "3/31/2021 5:26:12 PM",
    "timestamp": 1617236772000,
    "description": "MVI - Motor Vehicle Incident",
    "address": "11018 Meridian Ave N",
    "active": false,
    "unitCount": 1,
    "severity": 0,
    "lat": 47.708741,
    "long": -122.333994,
    "neighborhood": "Northgate/Maple Leaf",
    "neighborhoodGroup": "North",
    "units": "E24"
  },
  {
    "id_str": "F210030732",
    "created_at": "3/31/2021 5:23:02 PM",
    "timestamp": 1617236582000,
    "description": "Auto Fire Alarm",
    "address": "1533 Western Ave",
    "active": false,
    "unitCount": 2,
    "severity": 0,
    "lat": 47.608682,
    "long": -122.341421,
    "neighborhood": "Downtown Commercial Core",
    "neighborhoodGroup": "Downtown",
    "units": "E5 L4"
  },
  {
    "id_str": "F210030728",
    "created_at": "3/31/2021 5:21:36 PM",
    "timestamp": 1617236496000,
    "description": "Aid Response",
    "address": "5507 35TH AVE NE",
    "active": false,
    "unitCount": 1,
    "severity": 0,
    "lat": 47.668567,
    "long": -122.290194,
    "neighborhood": "Ravenna/Bryant",
    "neighborhoodGroup": "Northeast",
    "units": "E38"
  },
  {
    "id_str": "F210030729",
    "created_at": "3/31/2021 5:21:22 PM",
    "timestamp": 1617236482000,
    "description": "Aid Response",
    "address": "Sw Florida St / Harbor Ave Sw",
    "active": false,
    "unitCount": 1,
    "severity": 0,
    "lat": 47.584748,
    "long": -122.375468,
    "neighborhood": "North Delridge",
    "neighborhoodGroup": "Delridge Neighborhoods",
    "units": "E29"
  },
  {
    "id_str": "F210030726",
    "created_at": "3/31/2021 5:20:11 PM",
    "timestamp": 1617236411000,
    "description": "Aid Response",
    "address": "3035 1st Ave",
    "active": false,
    "unitCount": 1,
    "severity": 0,
    "lat": 47.617834,
    "long": -122.354059,
    "neighborhood": "Belltown",
    "neighborhoodGroup": "Downtown",
    "units": "A4"
  },
  {
    "id_str": "F210030724",
    "created_at": "3/31/2021 5:17:31 PM",
    "timestamp": 1617236251000,
    "description": "Aid Response",
    "address": "3222 Rainier Ave S",
    "active": false,
    "unitCount": 2,
    "severity": 0,
    "lat": 47.574826,
    "long": -122.295462,
    "neighborhood": "Mt. Baker/North Rainier",
    "neighborhoodGroup": "Southeast",
    "units": "E30 H1"
  },
  {
    "id_str": "F210030725",
    "created_at": "3/31/2021 5:16:52 PM",
    "timestamp": 1617236212000,
    "description": "Aid Response",
    "address": "8011 Fauntleroy Way Sw",
    "active": false,
    "unitCount": 1,
    "severity": 0,
    "lat": 47.531494,
    "long": -122.392698,
    "neighborhood": "Fauntleroy/Seaview",
    "neighborhoodGroup": "Southwest",
    "units": "L13"
  }
]