[
  {
    "id_str": "F210011549",
    "created_at": "2/4/2021 3:42:43 PM",
    "timestamp": 1612482163000,
    "description": "Medic Response",
    "address": "10048 Interlake Ave N",
    "active": false,
    "unitCount": 2,
    "severity": 0,
    "lat": 47.701706,
    "long": -122.340604,
    "neighborhood": "Licton Springs",
    "neighborhoodGroup": "Northwest",
    "units": "E21 M31"
  },
  {
    "id_str": "F210011548",
    "created_at": "2/4/2021 3:33:08 PM",
    "timestamp": 1612481588000,
    "description": "Aid Response",
    "address": "500 5th Av",
    "active": false,
    "unitCount": 1,
    "severity": 0,
    "lat": 47.602985,
    "long": -122.328535,
    "neighborhood": "First Hill",
    "neighborhoodGroup": "East",
    "units": "A5"
  },
  {
    "id_str": "F210011547",
    "created_at": "2/4/2021 3:32:42 PM",
    "timestamp": 1612481562000,
    "description": "Aid Response",
    "address": "2nd Ave / Seneca St",
    "active": false,
    "unitCount": 1,
    "severity": 0,
    "lat": 47.606586,
    "long": -122.336434,
    "neighborhood": "Downtown Commercial Core",
    "neighborhoodGroup": "Downtown",
    "units": "E5"
  },
  {
    "id_str": "F210011546",
    "created_at": "2/4/2021 3:30:37 PM",
    "timestamp": 1612481437000,
    "description": "Aid Response",
    "address": "14200 Linden Av N",
    "active": false,
    "unitCount": 1,
    "severity": 0,
    "lat": 47.731677,
    "long": -122.347772,
    "neighborhood": "Broadview/Bitter Lake",
    "neighborhoodGroup": "Northwest",
    "units": "A31"
  },
  {
    "id_str": "F210011545",
    "created_at": "2/4/2021 3:24:54 PM",
    "timestamp": 1612481094000,
    "description": "MVI - Motor Vehicle Incident",
    "address": "23rd Ave E / E Madison St",
    "active": false,
    "unitCount": 3,
    "severity": 0,
    "lat": 47.619171,
    "long": -122.302547,
    "neighborhood": "Central Area/Squire Park",
    "neighborhoodGroup": "Central",
    "units": "E25 M1 M10"
  },
  {
    "id_str": "F210011543",
    "created_at": "2/4/2021 3:11:55 PM",
    "timestamp": 1612480315000,
    "description": "Medic Response",
    "address": "3513 S MORGAN ST",
    "active": false,
    "unitCount": 2,
    "severity": 0,
    "lat": 47.544305,
    "long": -122.287904,
    "neighborhood": "South Beacon Hill/NewHolly",
    "neighborhoodGroup": "Greater Duwamish",
    "units": "L12 M28"
  },
  {
    "id_str": "F210011540",
    "created_at": "2/4/2021 2:56:58 PM",
    "timestamp": 1612479418000,
    "description": "Rescue Elevator",
    "address": "300 Pine St",
    "active": false,
    "unitCount": 1,
    "severity": 0,
    "lat": 47.610743,
    "long": -122.338702,
    "neighborhood": "Downtown Commercial Core",
    "neighborhoodGroup": "Downtown",
    "units": "L4"
  },
  {
    "id_str": "F210011538",
    "created_at": "2/4/2021 2:55:41 PM",
    "timestamp": 1612479341000,
    "description": "Aid Response",
    "address": "7500 Seward Park Av S",
    "active": false,
    "unitCount": 1,
    "severity": 0,
    "lat": 47.535387,
    "long": -122.267284,
    "neighborhood": "Seward Park",
    "neighborhoodGroup": "Southeast",
    "units": "E28"
  },
  {
    "id_str": "F210011537",
    "created_at": "2/4/2021 2:48:25 PM",
    "timestamp": 1612478905000,
    "description": "Automatic Fire Alarm False",
    "address": "3817 17th Ave Sw",
    "active": false,
    "unitCount": 2,
    "severity": 0,
    "lat": 47.569721,
    "long": -122.355881,
    "neighborhood": "North Delridge",
    "neighborhoodGroup": "Delridge Neighborhoods",
    "units": "E32 L11"
  },
  {
    "id_str": "F210011536",
    "created_at": "2/4/2021 2:33:45 PM",
    "timestamp": 1612478025000,
    "description": "1RED 1 Unit",
    "address": "9032 17th Av Sw",
    "active": false,
    "unitCount": 2,
    "severity": 0,
    "lat": 47.522571,
    "long": -122.356452,
    "neighborhood": "Roxhill/Westwood",
    "neighborhoodGroup": "Delridge Neighborhoods",
    "units": "B7 E37"
  },
  {
    "id_str": "F210011535",
    "created_at": "2/4/2021 2:28:14 PM",
    "timestamp": 1612477694000,
    "description": "Aid Response",
    "address": "4th Ave / Pike St",
    "active": false,
    "unitCount": 1,
    "severity": 0,
    "lat": 47.610214,
    "long": -122.336683,
    "neighborhood": "Downtown Commercial Core",
    "neighborhoodGroup": "Downtown",
    "units": "A5"
  },
  {
    "id_str": "F210011534",
    "created_at": "2/4/2021 2:25:21 PM",
    "timestamp": 1612477521000,
    "description": "Auto Fire Alarm",
    "address": "420 4th Ave",
    "active": false,
    "unitCount": 2,
    "severity": 0,
    "lat": 47.601986,
    "long": -122.32914,
    "neighborhood": "Downtown Commercial Core",
    "neighborhoodGroup": "Downtown",
    "units": "E5 L3"
  },
  {
    "id_str": "F210011531",
    "created_at": "2/4/2021 2:15:29 PM",
    "timestamp": 1612476929000,
    "description": "AFA4 - Auto Alarm 2 + 1 + 1",
    "address": "2758 Alki Av Sw",
    "active": false,
    "unitCount": 4,
    "severity": 0,
    "lat": 47.578954,
    "long": -122.411233,
    "neighborhood": "Alki/Admiral",
    "neighborhoodGroup": "Southwest",
    "units": "B7 E29 E32 L11"
  },
  {
    "id_str": "F210011530",
    "created_at": "2/4/2021 1:54:02 PM",
    "timestamp": 1612475642000,
    "description": "Medic Response",
    "address": "210 9th Ave N",
    "active": false,
    "unitCount": 2,
    "severity": 0,
    "lat": 47.619817,
    "long": -122.339777,
    "neighborhood": "Cascade/Eastlake",
    "neighborhoodGroup": "Lake Union",
    "units": "A4 M10"
  },
  {
    "id_str": "F210011529",
    "created_at": "2/4/2021 1:51:34 PM",
    "timestamp": 1612475494000,
    "description": "Aid Response",
    "address": "1311 12th Av S",
    "active": false,
    "unitCount": 1,
    "severity": 0,
    "lat": 47.591454,
    "long": -122.317281,
    "neighborhood": "Duwamish/SODO",
    "neighborhoodGroup": "Greater Duwamish",
    "units": "E6"
  },
  {
    "id_str": "F210011528",
    "created_at": "2/4/2021 1:43:39 PM",
    "timestamp": 1612475019000,
    "description": "Aid Response",
    "address": "4435 35th Av Sw",
    "active": false,
    "unitCount": 1,
    "severity": 0,
    "lat": 47.563869,
    "long": -122.376191,
    "neighborhood": "North Delridge",
    "neighborhoodGroup": "Delridge Neighborhoods",
    "units": "E32"
  },
  {
    "id_str": "F210011527",
    "created_at": "2/4/2021 1:38:40 PM",
    "timestamp": 1612474720000,
    "description": "Aid Response",
    "address": "500 5th Av",
    "active": false,
    "unitCount": 1,
    "severity": 0,
    "lat": 47.602985,
    "long": -122.328535,
    "neighborhood": "First Hill",
    "neighborhoodGroup": "East",
    "units": "A10"
  },
  {
    "id_str": "F210011525",
    "created_at": "2/4/2021 1:38:05 PM",
    "timestamp": 1612474685000,
    "description": "Low Acuity Response",
    "address": "216 James St",
    "active": false,
    "unitCount": 1,
    "severity": 0,
    "lat": 47.602382,
    "long": -122.332338,
    "neighborhood": "Downtown Commercial Core",
    "neighborhoodGroup": "Downtown",
    "units": "H1"
  },
  {
    "id_str": "F210011526",
    "created_at": "2/4/2021 1:38:00 PM",
    "timestamp": 1612474680000,
    "description": "Aid Response",
    "address": "1531 Ne 145th St",
    "active": false,
    "unitCount": 1,
    "severity": 0,
    "lat": 47.733947,
    "long": -122.312326,
    "units": "L5"
  },
  {
    "id_str": "F210011524",
    "created_at": "2/4/2021 1:34:01 PM",
    "timestamp": 1612474441000,
    "description": "Aid Response",
    "address": "301 Mercer St",
    "active": false,
    "unitCount": 1,
    "severity": 0,
    "lat": 47.62457,
    "long": -122.351461,
    "neighborhood": "Cascade/Eastlake",
    "neighborhoodGroup": "Lake Union",
    "units": "E8"
  },
  {
    "id_str": "F210011523",
    "created_at": "2/4/2021 1:32:40 PM",
    "timestamp": 1612474360000,
    "description": "Auto Fire Alarm",
    "address": "1114 Lakeview Blvd E",
    "active": false,
    "unitCount": 2,
    "severity": 0,
    "lat": 47.629263,
    "long": -122.326015,
    "neighborhood": "Cascade/Eastlake",
    "neighborhoodGroup": "Lake Union",
    "units": "E22 L10"
  },
  {
    "id_str": "F210011522",
    "created_at": "2/4/2021 1:31:45 PM",
    "timestamp": 1612474305000,
    "description": "Aid Response",
    "address": "500 Westlake Av N",
    "active": false,
    "unitCount": 1,
    "severity": 0,
    "lat": 47.623209,
    "long": -122.338446,
    "neighborhood": "Cascade/Eastlake",
    "neighborhoodGroup": "Lake Union",
    "units": "A4"
  },
  {
    "id_str": "F210011521",
    "created_at": "2/4/2021 1:23:24 PM",
    "timestamp": 1612473804000,
    "description": "Medic Response",
    "address": "14072 24th Ave Ne",
    "active": false,
    "unitCount": 2,
    "severity": 0,
    "lat": 47.730563,
    "long": -122.302866,
    "neighborhood": "Olympic Hills/Victory Heights",
    "neighborhoodGroup": "North",
    "units": "E39 M17"
  },
  {
    "id_str": "F210011520",
    "created_at": "2/4/2021 1:18:40 PM",
    "timestamp": 1612473520000,
    "description": "Medic Response",
    "address": "11026 Dayton Ave N",
    "active": false,
    "unitCount": 2,
    "severity": 0,
    "lat": 47.708935,
    "long": -122.352814,
    "neighborhood": "North Beach/Blue Ridge",
    "neighborhoodGroup": "Ballard",
    "units": "E24 M18"
  },
  {
    "id_str": "F210011519",
    "created_at": "2/4/2021 1:09:35 PM",
    "timestamp": 1612472975000,
    "description": "Aid Response",
    "address": "255 S King St",
    "active": false,
    "unitCount": 2,
    "severity": 0,
    "lat": 47.598287,
    "long": -122.330894,
    "neighborhood": "Duwamish/SODO",
    "neighborhoodGroup": "Greater Duwamish",
    "units": "A5 E10"
  },
  {
    "id_str": "F210011518",
    "created_at": "2/4/2021 1:03:37 PM",
    "timestamp": 1612472617000,
    "description": "Aid Response",
    "address": "1417 Nw 54th St",
    "active": false,
    "unitCount": 2,
    "severity": 0,
    "lat": 47.66789,
    "long": -122.374018,
    "neighborhood": "Ballard",
    "neighborhoodGroup": "Ballard",
    "units": "A31 E18"
  },
  {
    "id_str": "F210011517",
    "created_at": "2/4/2021 1:02:53 PM",
    "timestamp": 1612472573000,
    "description": "Aid Response",
    "address": "424 Minor Av N",
    "active": false,
    "unitCount": 1,
    "severity": 0,
    "lat": 47.622242,
    "long": -122.332995,
    "neighborhood": "Cascade/Eastlake",
    "neighborhoodGroup": "Lake Union",
    "units": "A2"
  },
  {
    "id_str": "F210011516",
    "created_at": "2/4/2021 1:00:30 PM",
    "timestamp": 1612472430000,
    "description": "Aid Response",
    "address": "3rd Ave / Yesler Way",
    "active": false,
    "unitCount": 1,
    "severity": 0,
    "lat": 47.601716,
    "long": -122.330265,
    "neighborhood": "Downtown Commercial Core",
    "neighborhoodGroup": "Downtown",
    "units": "A10"
  },
  {
    "id_str": "F210011512",
    "created_at": "2/4/2021 12:50:52 PM",
    "timestamp": 1612471852000,
    "description": "Aid Response",
    "address": "1411 S Concord St",
    "active": false,
    "unitCount": 1,
    "severity": 0,
    "lat": 47.523892,
    "long": -122.314927,
    "neighborhood": "South Park",
    "neighborhoodGroup": "Greater Duwamish",
    "units": "E27"
  },
  {
    "id_str": "F210011513",
    "created_at": "2/4/2021 12:50:06 PM",
    "timestamp": 1612471806000,
    "description": "Aid Response",
    "address": "12533 27th Ave Ne",
    "active": false,
    "unitCount": 1,
    "severity": 0,
    "lat": 47.719594,
    "long": -122.299092,
    "neighborhood": "Olympic Hills/Victory Heights",
    "neighborhoodGroup": "North",
    "units": "E39"
  },
  {
    "id_str": "F210011511",
    "created_at": "2/4/2021 12:47:58 PM",
    "timestamp": 1612471678000,
    "description": "Aid Response",
    "address": "1900 Rainier Av S",
    "active": false,
    "unitCount": 1,
    "severity": 0,
    "lat": 47.58633,
    "long": -122.304239,
    "neighborhood": "North Beacon Hill/Jefferson Park",
    "neighborhoodGroup": "Greater Duwamish",
    "units": "A5"
  },
  {
    "id_str": "F210011510",
    "created_at": "2/4/2021 12:47:41 PM",
    "timestamp": 1612471661000,
    "description": "1RED 1 Unit",
    "address": "9541 Ashworth Ave N",
    "active": false,
    "unitCount": 1,
    "severity": 0,
    "lat": 47.698157,
    "long": -122.339707,
    "neighborhood": "Licton Springs",
    "neighborhoodGroup": "Northwest",
    "units": "E16"
  },
  {
    "id_str": "F210011509",
    "created_at": "2/4/2021 12:42:33 PM",
    "timestamp": 1612471353000,
    "description": "Aid Response",
    "address": "201 Yesler Way",
    "active": false,
    "unitCount": 1,
    "severity": 0,
    "lat": 47.601719,
    "long": -122.331966,
    "neighborhood": "Downtown Commercial Core",
    "neighborhoodGroup": "Downtown",
    "units": "A10"
  },
  {
    "id_str": "F210011508",
    "created_at": "2/4/2021 12:42:31 PM",
    "timestamp": 1612471351000,
    "description": "Low Acuity Response",
    "address": "9027 21st Ave Sw",
    "active": false,
    "unitCount": 1,
    "severity": 0,
    "lat": 47.522611,
    "long": -122.360496,
    "neighborhood": "Roxhill/Westwood",
    "neighborhoodGroup": "Delridge Neighborhoods",
    "units": "E11"
  },
  {
    "id_str": "F210011507",
    "created_at": "2/4/2021 12:38:26 PM",
    "timestamp": 1612471106000,
    "description": "Low Acuity Response",
    "address": "600 5th Av W",
    "active": false,
    "unitCount": 3,
    "severity": 0,
    "lat": 47.624607,
    "long": -122.36324,
    "neighborhood": "Queen Anne",
    "neighborhoodGroup": "Magnolia/Queen Anne",
    "units": "A2 A4 B5"
  },
  {
    "id_str": "F210011506",
    "created_at": "2/4/2021 12:37:19 PM",
    "timestamp": 1612471039000,
    "description": "Aid Response",
    "address": "11 W Aloha St",
    "active": false,
    "unitCount": 1,
    "severity": 0,
    "lat": 47.627192,
    "long": -122.356823,
    "neighborhood": "Queen Anne",
    "neighborhoodGroup": "Magnolia/Queen Anne",
    "units": "E8"
  },
  {
    "id_str": "F210011505",
    "created_at": "2/4/2021 12:31:20 PM",
    "timestamp": 1612470680000,
    "description": "Scenes Of Violence 7",
    "address": "43RD AVE S / S OTHELLO ST",
    "active": false,
    "unitCount": 6,
    "severity": 1,
    "lat": 47.537053,
    "long": -122.279385,
    "neighborhood": "Columbia City",
    "neighborhoodGroup": "Southeast",
    "units": "B5 E26 E28 E30 M28 M44"
  },
  {
    "id_str": "F210011504",
    "created_at": "2/4/2021 12:30:08 PM",
    "timestamp": 1612470608000,
    "description": "Aid Response",
    "address": "1540 12th Av S",
    "active": false,
    "unitCount": 1,
    "severity": 0,
    "lat": 47.589675,
    "long": -122.317279,
    "neighborhood": "Duwamish/SODO",
    "neighborhoodGroup": "Greater Duwamish",
    "units": "E13"
  },
  {
    "id_str": "F210011503",
    "created_at": "2/4/2021 12:29:52 PM",
    "timestamp": 1612470592000,
    "description": "Medic Response",
    "address": "117 Nw 116th St",
    "active": false,
    "unitCount": 2,
    "severity": 0,
    "lat": 47.712848,
    "long": -122.358411,
    "neighborhood": "Broadview/Bitter Lake",
    "neighborhoodGroup": "Northwest",
    "units": "A31 M31"
  },
  {
    "id_str": "F210011500",
    "created_at": "2/4/2021 11:56:59 AM",
    "timestamp": 1612468619000,
    "description": "Aid Response",
    "address": "11501 15th Av Ne",
    "active": false,
    "unitCount": 1,
    "severity": 0,
    "lat": 47.712167,
    "long": -122.312433,
    "neighborhood": "Olympic Hills/Victory Heights",
    "neighborhoodGroup": "North",
    "units": "L5"
  },
  {
    "id_str": "F210011501",
    "created_at": "2/4/2021 11:55:36 AM",
    "timestamp": 1612468536000,
    "description": "AFA4 - Auto Alarm 2 + 1 + 1",
    "address": "2114 E Yesler Way",
    "active": false,
    "unitCount": 4,
    "severity": 0,
    "lat": 47.601672,
    "long": -122.304858,
    "neighborhood": "Central Area/Squire Park",
    "neighborhoodGroup": "Central",
    "units": "B2 E10 E34 L1"
  },
  {
    "id_str": "F210011498",
    "created_at": "2/4/2021 11:40:25 AM",
    "timestamp": 1612467625000,
    "description": "Illegal Burn",
    "address": "8558 Nesbit Ave N",
    "active": false,
    "unitCount": 1,
    "severity": 0,
    "lat": 47.690902,
    "long": -122.343453,
    "neighborhood": "Licton Springs",
    "neighborhoodGroup": "Northwest",
    "units": "E21"
  },
  {
    "id_str": "F210011495",
    "created_at": "2/4/2021 11:30:39 AM",
    "timestamp": 1612467039000,
    "description": "Aid Response",
    "address": "2024 3rd Av",
    "active": false,
    "unitCount": 1,
    "severity": 0,
    "lat": 47.612578,
    "long": -122.341197,
    "neighborhood": "Cascade/Eastlake",
    "neighborhoodGroup": "Lake Union",
    "units": "A4"
  },
  {
    "id_str": "F210011494",
    "created_at": "2/4/2021 11:26:05 AM",
    "timestamp": 1612466765000,
    "description": "MVI - Motor Vehicle Incident",
    "address": "1st Ave S / S Holgate St",
    "active": false,
    "unitCount": 2,
    "severity": 0,
    "lat": 47.586104,
    "long": -122.334198,
    "neighborhood": "Duwamish/SODO",
    "neighborhoodGroup": "Greater Duwamish",
    "units": "E5 H1"
  },
  {
    "id_str": "F210011493",
    "created_at": "2/4/2021 11:18:43 AM",
    "timestamp": 1612466323000,
    "description": "Aid Response",
    "address": "11038 Lake City Way Ne",
    "active": false,
    "unitCount": 1,
    "severity": 0,
    "lat": 47.708684,
    "long": -122.301275,
    "neighborhood": "Olympic Hills/Victory Heights",
    "neighborhoodGroup": "North",
    "units": "E39"
  },
  {
    "id_str": "F210011492",
    "created_at": "2/4/2021 11:16:51 AM",
    "timestamp": 1612466211000,
    "description": "Aid Response",
    "address": "23rd Ave W / Thorndyke Ave W",
    "active": false,
    "unitCount": 1,
    "severity": 0,
    "lat": 47.640785,
    "long": -122.386178,
    "neighborhood": "Interbay",
    "neighborhoodGroup": "Magnolia/Queen Anne",
    "units": "E41"
  },
  {
    "id_str": "F210011491",
    "created_at": "2/4/2021 11:16:17 AM",
    "timestamp": 1612466177000,
    "description": "Aid Response",
    "address": "8206 35th Av Ne",
    "active": false,
    "unitCount": 1,
    "severity": 0,
    "lat": 47.688476,
    "long": -122.290657,
    "neighborhood": "Wedgwood/View Ridge",
    "neighborhoodGroup": "Northeast",
    "units": "E40"
  },
  {
    "id_str": "F210011490",
    "created_at": "2/4/2021 11:12:02 AM",
    "timestamp": 1612465922000,
    "description": "Aid Response",
    "address": "1811 Eastlake Av",
    "active": false,
    "unitCount": 2,
    "severity": 0,
    "lat": 47.618002,
    "long": -122.329182,
    "neighborhood": "Cascade/Eastlake",
    "neighborhoodGroup": "Lake Union",
    "units": "A25 E25"
  },
  {
    "id_str": "F210011489",
    "created_at": "2/4/2021 11:10:45 AM",
    "timestamp": 1612465845000,
    "description": "Aid Response",
    "address": "2151 6th Ave",
    "active": false,
    "unitCount": 3,
    "severity": 0,
    "lat": 47.615553,
    "long": -122.340278,
    "neighborhood": "Cascade/Eastlake",
    "neighborhoodGroup": "Lake Union",
    "units": "A4 M1 M32"
  },
  {
    "id_str": "F210011487",
    "created_at": "2/4/2021 11:02:03 AM",
    "timestamp": 1612465323000,
    "description": "Aid Response",
    "address": "2451 Aurora Av N",
    "active": false,
    "unitCount": 1,
    "severity": 0,
    "lat": 47.64231,
    "long": -122.346999,
    "neighborhood": "Queen Anne",
    "neighborhoodGroup": "Magnolia/Queen Anne",
    "units": "E9"
  },
  {
    "id_str": "F210011486",
    "created_at": "2/4/2021 11:00:01 AM",
    "timestamp": 1612465201000,
    "description": "Medic Response",
    "address": "2114 N 65th St",
    "active": false,
    "unitCount": 2,
    "severity": 0,
    "lat": 47.675982,
    "long": -122.332495,
    "neighborhood": "Green Lake",
    "neighborhoodGroup": "Northwest",
    "units": "E16 M17"
  },
  {
    "id_str": "F210011485",
    "created_at": "2/4/2021 10:59:21 AM",
    "timestamp": 1612465161000,
    "description": "Aid Response",
    "address": "5622 S Bangor St",
    "active": false,
    "unitCount": 1,
    "severity": 0,
    "lat": 47.506123,
    "long": -122.262695,
    "neighborhood": "Rainier Beach",
    "neighborhoodGroup": "Southeast",
    "units": "E28"
  },
  {
    "id_str": "F210011484",
    "created_at": "2/4/2021 10:51:09 AM",
    "timestamp": 1612464669000,
    "description": "Aid Response",
    "address": "108 5th Av S",
    "active": false,
    "unitCount": 1,
    "severity": 0,
    "lat": 47.601618,
    "long": -122.327656,
    "neighborhood": "Pioneer Square/International District",
    "neighborhoodGroup": "Downtown",
    "units": "A5"
  },
  {
    "id_str": "F210011480",
    "created_at": "2/4/2021 10:11:21 AM",
    "timestamp": 1612462281000,
    "description": "Aid Response",
    "address": "1201 Mercer St",
    "active": false,
    "unitCount": 1,
    "severity": 0,
    "lat": 47.624269,
    "long": -122.33298,
    "neighborhood": "Cascade/Eastlake",
    "neighborhoodGroup": "Lake Union",
    "units": "L10"
  },
  {
    "id_str": "F210011479",
    "created_at": "2/4/2021 10:08:16 AM",
    "timestamp": 1612462096000,
    "description": "MVI - Motor Vehicle Incident",
    "address": "RENTON AVE S / S CLOVERDALE ST",
    "active": false,
    "unitCount": 1,
    "severity": 0,
    "lat": 47.526114,
    "long": -122.279265,
    "neighborhood": "South Beacon Hill/NewHolly",
    "neighborhoodGroup": "Greater Duwamish",
    "units": "E28"
  },
  {
    "id_str": "F210011477",
    "created_at": "2/4/2021 10:04:13 AM",
    "timestamp": 1612461853000,
    "description": "Aid Response",
    "address": "910 Marion St",
    "active": false,
    "unitCount": 1,
    "severity": 0,
    "lat": 47.607742,
    "long": -122.326595,
    "neighborhood": "First Hill",
    "neighborhoodGroup": "East",
    "units": "E5"
  },
  {
    "id_str": "F210011476",
    "created_at": "2/4/2021 10:00:55 AM",
    "timestamp": 1612461655000,
    "description": "Aid Response",
    "address": "1126 Nw 45th St",
    "active": false,
    "unitCount": 1,
    "severity": 0,
    "lat": 47.661469,
    "long": -122.371006,
    "neighborhood": "Ballard",
    "neighborhoodGroup": "Ballard",
    "units": "E21"
  },
  {
    "id_str": "F210011474",
    "created_at": "2/4/2021 9:56:36 AM",
    "timestamp": 1612461396000,
    "description": "Aid Response",
    "address": "140 4th Av N",
    "active": false,
    "unitCount": 1,
    "severity": 0,
    "lat": 47.619041,
    "long": -122.348899,
    "neighborhood": "Cascade/Eastlake",
    "neighborhoodGroup": "Lake Union",
    "units": "A2"
  },
  {
    "id_str": "F210011472",
    "created_at": "2/4/2021 9:46:11 AM",
    "timestamp": 1612460771000,
    "description": "Medic Response",
    "address": "7612 39th Ave Sw",
    "active": false,
    "unitCount": 2,
    "severity": 0,
    "lat": 47.534179,
    "long": -122.381973,
    "neighborhood": "Fauntleroy/Seaview",
    "neighborhoodGroup": "Southwest",
    "units": "E37 M32"
  },
  {
    "id_str": "F210011471",
    "created_at": "2/4/2021 9:45:16 AM",
    "timestamp": 1612460716000,
    "description": "Auto Fire Alarm",
    "address": "1620 Belmont Av",
    "active": false,
    "unitCount": 2,
    "severity": 0,
    "lat": 47.615443,
    "long": -122.324476,
    "neighborhood": "Capitol Hill",
    "neighborhoodGroup": "East",
    "units": "E25 L10"
  },
  {
    "id_str": "F210011470",
    "created_at": "2/4/2021 9:42:20 AM",
    "timestamp": 1612460540000,
    "description": "Aid Response",
    "address": "805 4th Av N",
    "active": false,
    "unitCount": 1,
    "severity": 0,
    "lat": 47.626322,
    "long": -122.348863,
    "neighborhood": "Queen Anne",
    "neighborhoodGroup": "Magnolia/Queen Anne",
    "units": "A4"
  },
  {
    "id_str": "F210011468",
    "created_at": "2/4/2021 9:34:59 AM",
    "timestamp": 1612460099000,
    "description": "Aid Response",
    "address": "2717 Dexter Av N",
    "active": false,
    "unitCount": 1,
    "severity": 0,
    "lat": 47.644374,
    "long": -122.346913,
    "neighborhood": "Queen Anne",
    "neighborhoodGroup": "Magnolia/Queen Anne",
    "units": "E20"
  },
  {
    "id_str": "F210011467",
    "created_at": "2/4/2021 9:32:49 AM",
    "timestamp": 1612459969000,
    "description": "Aid Response",
    "address": "101 6TH AV S",
    "active": false,
    "unitCount": 1,
    "severity": 0,
    "lat": 47.601701,
    "long": -122.326351,
    "neighborhood": "Pioneer Square/International District",
    "neighborhoodGroup": "Downtown",
    "units": "A10"
  },
  {
    "id_str": "F210011466",
    "created_at": "2/4/2021 9:31:19 AM",
    "timestamp": 1612459879000,
    "description": "Low Acuity Response",
    "address": "2320 4th Av",
    "active": false,
    "unitCount": 1,
    "severity": 0,
    "lat": 47.615516,
    "long": -122.344184,
    "neighborhood": "Cascade/Eastlake",
    "neighborhoodGroup": "Lake Union",
    "units": "H1"
  },
  {
    "id_str": "F210011465",
    "created_at": "2/4/2021 9:29:54 AM",
    "timestamp": 1612459794000,
    "description": "Auto Fire Alarm",
    "address": "1307 N 45th St",
    "active": false,
    "unitCount": 3,
    "severity": 0,
    "lat": 47.661385,
    "long": -122.342039,
    "neighborhood": "Wallingford",
    "neighborhoodGroup": "Lake Union",
    "units": "E9 L8 L9"
  },
  {
    "id_str": "F210011464",
    "created_at": "2/4/2021 9:29:39 AM",
    "timestamp": 1612459779000,
    "description": "Aid Response",
    "address": "9240 2nd Av Sw",
    "active": false,
    "unitCount": 1,
    "severity": 0,
    "lat": 47.520451,
    "long": -122.336003,
    "units": "E26"
  },
  {
    "id_str": "F210011463",
    "created_at": "2/4/2021 9:27:37 AM",
    "timestamp": 1612459657000,
    "description": "Aid Response",
    "address": "1521 2nd Av",
    "active": false,
    "unitCount": 1,
    "severity": 0,
    "lat": 47.609488,
    "long": -122.339089,
    "neighborhood": "Downtown Commercial Core",
    "neighborhoodGroup": "Downtown",
    "units": "A4"
  },
  {
    "id_str": "F210011462",
    "created_at": "2/4/2021 9:11:30 AM",
    "timestamp": 1612458690000,
    "description": "Auto Fire Alarm",
    "address": "4575 Sand Point Way Ne",
    "active": false,
    "unitCount": 2,
    "severity": 0,
    "lat": 47.66185,
    "long": -122.286109,
    "neighborhood": "Laurelhurst/Sand Point",
    "neighborhoodGroup": "Northeast",
    "units": "E38 L9"
  },
  {
    "id_str": "F210011460",
    "created_at": "2/4/2021 8:50:53 AM",
    "timestamp": 1612457453000,
    "description": "Aid Response",
    "address": "5th Ave / Seneca St",
    "active": false,
    "unitCount": 1,
    "severity": 0,
    "lat": 47.607979,
    "long": -122.333104,
    "neighborhood": "Downtown Commercial Core",
    "neighborhoodGroup": "Downtown",
    "units": "A5"
  },
  {
    "id_str": "F210011459",
    "created_at": "2/4/2021 8:46:38 AM",
    "timestamp": 1612457198000,
    "description": "Aid Response",
    "address": "2353 19th Ave S",
    "active": false,
    "unitCount": 1,
    "severity": 0,
    "lat": 47.582433,
    "long": -122.308179,
    "neighborhood": "North Beacon Hill/Jefferson Park",
    "neighborhoodGroup": "Greater Duwamish",
    "units": "E13"
  },
  {
    "id_str": "F210011458",
    "created_at": "2/4/2021 8:44:42 AM",
    "timestamp": 1612457082000,
    "description": "Aid Response",
    "address": "S Henderson St / Rainier Ave S",
    "active": false,
    "unitCount": 1,
    "severity": 0,
    "lat": 47.523307,
    "long": -122.269986,
    "neighborhood": "Rainier Beach",
    "neighborhoodGroup": "Southeast",
    "units": "E33"
  },
  {
    "id_str": "F210011457",
    "created_at": "2/4/2021 8:38:30 AM",
    "timestamp": 1612456710000,
    "description": "Low Acuity Response",
    "address": "8915 30th Ave Nw",
    "active": false,
    "unitCount": 1,
    "severity": 0,
    "lat": 47.693785,
    "long": -122.395705,
    "neighborhood": "North Beach/Blue Ridge",
    "neighborhoodGroup": "Ballard",
    "units": "E35"
  },
  {
    "id_str": "F210011453",
    "created_at": "2/4/2021 8:16:04 AM",
    "timestamp": 1612455364000,
    "description": "Aid Response",
    "address": "12060 Palatine Ave N",
    "active": false,
    "unitCount": 1,
    "severity": 0,
    "lat": 47.716536,
    "long": -122.356981,
    "neighborhood": "Broadview/Bitter Lake",
    "neighborhoodGroup": "Northwest",
    "units": "E24"
  },
  {
    "id_str": "F210011451",
    "created_at": "2/4/2021 8:07:38 AM",
    "timestamp": 1612454858000,
    "description": "Aid Response",
    "address": "5th Ave S / S Washington St",
    "active": false,
    "unitCount": 1,
    "severity": 0,
    "lat": 47.600873,
    "long": -122.32766,
    "neighborhood": "Pioneer Square/International District",
    "neighborhoodGroup": "Downtown",
    "units": "A10"
  },
  {
    "id_str": "F210011449",
    "created_at": "2/4/2021 8:05:54 AM",
    "timestamp": 1612454754000,
    "description": "Automatic Fire Alarm False",
    "address": "2100 24th Av S",
    "active": false,
    "unitCount": 1,
    "severity": 0,
    "lat": 47.584503,
    "long": -122.301632,
    "neighborhood": "Mt. Baker/North Rainier",
    "neighborhoodGroup": "Southeast",
    "units": "E30"
  },
  {
    "id_str": "F210011446",
    "created_at": "2/4/2021 7:42:31 AM",
    "timestamp": 1612453351000,
    "description": "Aid Response",
    "address": "2400 11th Av Sw",
    "active": false,
    "unitCount": 1,
    "severity": 0,
    "lat": 47.584283,
    "long": -122.350759,
    "neighborhood": "North Delridge",
    "neighborhoodGroup": "Delridge Neighborhoods",
    "units": "E36"
  },
  {
    "id_str": "F210011444",
    "created_at": "2/4/2021 7:36:14 AM",
    "timestamp": 1612452974000,
    "description": "Medic Response",
    "address": "4800 Sand Point Way Ne",
    "active": false,
    "unitCount": 2,
    "severity": 0,
    "lat": 47.664275,
    "long": -122.283475,
    "neighborhood": "Laurelhurst/Sand Point",
    "neighborhoodGroup": "Northeast",
    "units": "E38 M17"
  },
  {
    "id_str": "F210011442",
    "created_at": "2/4/2021 7:34:33 AM",
    "timestamp": 1612452873000,
    "description": "Medic Response",
    "address": "1421 Minor Av",
    "active": false,
    "unitCount": 2,
    "severity": 0,
    "lat": 47.613146,
    "long": -122.327096,
    "neighborhood": "Capitol Hill",
    "neighborhoodGroup": "East",
    "units": "A25 M1"
  },
  {
    "id_str": "F210011443",
    "created_at": "2/4/2021 7:32:59 AM",
    "timestamp": 1612452779000,
    "description": "Illegal Burn",
    "address": "902 N 128th St",
    "active": false,
    "unitCount": 1,
    "severity": 0,
    "lat": 47.722309,
    "long": -122.348292,
    "neighborhood": "Broadview/Bitter Lake",
    "neighborhoodGroup": "Northwest",
    "units": "E24"
  },
  {
    "id_str": "F210011441",
    "created_at": "2/4/2021 7:29:30 AM",
    "timestamp": 1612452570000,
    "description": "Aid Response",
    "address": "Nw 100th St / 7th Ave Nw",
    "active": false,
    "unitCount": 1,
    "severity": 0,
    "lat": 47.701505,
    "long": -122.364762,
    "neighborhood": "North Beach/Blue Ridge",
    "neighborhoodGroup": "Ballard",
    "units": "E35"
  },
  {
    "id_str": "F210011438",
    "created_at": "2/4/2021 7:24:25 AM",
    "timestamp": 1612452265000,
    "description": "Aid Response",
    "address": "6900 East Green Lake Way N",
    "active": false,
    "unitCount": 1,
    "severity": 0,
    "lat": 47.678556,
    "long": -122.326837,
    "neighborhood": "Green Lake",
    "neighborhoodGroup": "Northwest",
    "units": "E16"
  },
  {
    "id_str": "F210011436",
    "created_at": "2/4/2021 7:17:42 AM",
    "timestamp": 1612451862000,
    "description": "Low Acuity Response",
    "address": "2616 E Roy St",
    "active": false,
    "unitCount": 1,
    "severity": 0,
    "lat": 47.625168,
    "long": -122.298584,
    "neighborhood": "Miller Park",
    "neighborhoodGroup": "East",
    "units": "E34"
  },
  {
    "id_str": "F210011434",
    "created_at": "2/4/2021 7:10:08 AM",
    "timestamp": 1612451408000,
    "description": "Aid Response",
    "address": "2215 1st Av",
    "active": false,
    "unitCount": 1,
    "severity": 0,
    "lat": 47.612716,
    "long": -122.345399,
    "neighborhood": "Belltown",
    "neighborhoodGroup": "Downtown",
    "units": "A2"
  },
  {
    "id_str": "F210011435",
    "created_at": "2/4/2021 7:09:54 AM",
    "timestamp": 1612451394000,
    "description": "1RED 1 Unit",
    "address": "N 63rd St / Whitman Pl N",
    "active": false,
    "unitCount": 1,
    "severity": 0,
    "lat": 47.673938,
    "long": -122.34666,
    "neighborhood": "Green Lake",
    "neighborhoodGroup": "Northwest",
    "units": "E21"
  },
  {
    "id_str": "F210011433",
    "created_at": "2/4/2021 7:01:24 AM",
    "timestamp": 1612450884000,
    "description": "Aid Response",
    "address": "8742 Fauntlee Crest Sw",
    "active": false,
    "unitCount": 2,
    "severity": 0,
    "lat": 47.524792,
    "long": -122.386851,
    "neighborhood": "Fauntleroy/Seaview",
    "neighborhoodGroup": "Southwest",
    "units": "A14 E37"
  },
  {
    "id_str": "F210011427",
    "created_at": "2/4/2021 6:34:06 AM",
    "timestamp": 1612449246000,
    "description": "Low Acuity Response",
    "address": "3544 Ne 90th St",
    "active": false,
    "unitCount": 1,
    "severity": 0,
    "lat": 47.69382,
    "long": -122.290226,
    "neighborhood": "Wedgwood/View Ridge",
    "neighborhoodGroup": "Northeast",
    "units": "E40"
  },
  {
    "id_str": "F210011425",
    "created_at": "2/4/2021 6:24:25 AM",
    "timestamp": 1612448665000,
    "description": "Aid Response",
    "address": "2028 Franklin Ave E",
    "active": false,
    "unitCount": 1,
    "severity": 0,
    "lat": 47.636969,
    "long": -122.324682,
    "neighborhood": "Cascade/Eastlake",
    "neighborhoodGroup": "Lake Union",
    "units": "E22"
  },
  {
    "id_str": "F210011423",
    "created_at": "2/4/2021 6:21:33 AM",
    "timestamp": 1612448493000,
    "description": "Aid Response",
    "address": "532 N 137th St",
    "active": false,
    "unitCount": 1,
    "severity": 0,
    "lat": 47.728473,
    "long": -122.351691,
    "neighborhood": "Broadview/Bitter Lake",
    "neighborhoodGroup": "Northwest",
    "units": "E24"
  },
  {
    "id_str": "F210011422",
    "created_at": "2/4/2021 6:20:06 AM",
    "timestamp": 1612448406000,
    "description": "Aid Response",
    "address": "109 JOHN ST",
    "active": false,
    "unitCount": 1,
    "severity": 0,
    "lat": 47.619767,
    "long": -122.355198,
    "neighborhood": "Queen Anne",
    "neighborhoodGroup": "Magnolia/Queen Anne",
    "units": "A2"
  },
  {
    "id_str": "F210011417",
    "created_at": "2/4/2021 5:56:28 AM",
    "timestamp": 1612446988000,
    "description": "Aid Response",
    "address": "1618 E Calhoun St",
    "active": false,
    "unitCount": 1,
    "severity": 0,
    "lat": 47.641022,
    "long": -122.310498,
    "neighborhood": "Montlake/Portage Bay",
    "neighborhoodGroup": "Northeast",
    "units": "E22"
  },
  {
    "id_str": "F210011412",
    "created_at": "2/4/2021 5:35:01 AM",
    "timestamp": 1612445701000,
    "description": "Auto Fire Alarm",
    "address": "326 9th Ave",
    "active": false,
    "unitCount": 2,
    "severity": 0,
    "lat": 47.603593,
    "long": -122.322954,
    "neighborhood": "First Hill",
    "neighborhoodGroup": "East",
    "units": "E10 L1"
  },
  {
    "id_str": "F210011411",
    "created_at": "2/4/2021 5:30:53 AM",
    "timestamp": 1612445453000,
    "description": "Aid Response",
    "address": "100 Crockett St",
    "active": false,
    "unitCount": 2,
    "severity": 0,
    "lat": 47.637416,
    "long": -122.355598,
    "neighborhood": "Queen Anne",
    "neighborhoodGroup": "Magnolia/Queen Anne",
    "units": "E8 L6"
  },
  {
    "id_str": "F210011409",
    "created_at": "2/4/2021 5:16:00 AM",
    "timestamp": 1612444560000,
    "description": "Low Acuity Response",
    "address": "13751 32nd Av Ne",
    "active": false,
    "unitCount": 1,
    "severity": 0,
    "lat": 47.728533,
    "long": -122.293652,
    "neighborhood": "Cedar Park/Meadowbrook",
    "neighborhoodGroup": "North",
    "units": "E39"
  },
  {
    "id_str": "F210011404",
    "created_at": "2/4/2021 4:50:15 AM",
    "timestamp": 1612443015000,
    "description": "Aid Response",
    "address": "10740 Fremont Ave N",
    "active": false,
    "unitCount": 1,
    "severity": 0,
    "lat": 47.70666,
    "long": -122.35011,
    "neighborhood": "Broadview/Bitter Lake",
    "neighborhoodGroup": "Northwest",
    "units": "E24"
  },
  {
    "id_str": "F210011403",
    "created_at": "2/4/2021 4:46:05 AM",
    "timestamp": 1612442765000,
    "description": "Auto Fire Alarm",
    "address": "325 Aurora Av N",
    "active": false,
    "unitCount": 2,
    "severity": 0,
    "lat": 47.62177,
    "long": -122.34374,
    "neighborhood": "Cascade/Eastlake",
    "neighborhoodGroup": "Lake Union",
    "units": "E2 L4"
  },
  {
    "id_str": "F210011401",
    "created_at": "2/4/2021 4:44:35 AM",
    "timestamp": 1612442675000,
    "description": "Aid Response",
    "address": "3rd Ave / Spring St",
    "active": false,
    "unitCount": 1,
    "severity": 0,
    "lat": 47.606337,
    "long": -122.334672,
    "neighborhood": "Downtown Commercial Core",
    "neighborhoodGroup": "Downtown",
    "units": "A5"
  },
  {
    "id_str": "F210011399",
    "created_at": "2/4/2021 4:33:01 AM",
    "timestamp": 1612441981000,
    "description": "Activated CO Detector",
    "address": "4200 Mary Gates Memorial Dr Ne",
    "active": false,
    "unitCount": 1,
    "severity": 0,
    "lat": 47.65988,
    "long": -122.291744,
    "neighborhood": "University District",
    "neighborhoodGroup": "Northeast",
    "units": "L9"
  },
  {
    "id_str": "F210011397",
    "created_at": "2/4/2021 4:18:47 AM",
    "timestamp": 1612441127000,
    "description": "Aid Response",
    "address": "500 W Roy St",
    "active": false,
    "unitCount": 1,
    "severity": 0,
    "lat": 47.625859,
    "long": -122.363231,
    "neighborhood": "Queen Anne",
    "neighborhoodGroup": "Magnolia/Queen Anne",
    "units": "E8"
  },
  {
    "id_str": "F210011395",
    "created_at": "2/4/2021 3:58:54 AM",
    "timestamp": 1612439934000,
    "description": "1RED 1 Unit",
    "address": "Ne 45th St / 7th Ave Ne",
    "active": false,
    "unitCount": 1,
    "severity": 0,
    "lat": 47.661319,
    "long": -122.320728,
    "neighborhood": "Wallingford",
    "neighborhoodGroup": "Lake Union",
    "units": "E31"
  },
  {
    "id_str": "F210011394",
    "created_at": "2/4/2021 3:34:42 AM",
    "timestamp": 1612438482000,
    "description": "Medic Response",
    "address": "7055 38th Ave Ne",
    "active": false,
    "unitCount": 2,
    "severity": 0,
    "lat": 47.679745,
    "long": -122.287147,
    "neighborhood": "Wedgwood/View Ridge",
    "neighborhoodGroup": "Northeast",
    "units": "E38 M17"
  },
  {
    "id_str": "F210011393",
    "created_at": "2/4/2021 3:32:45 AM",
    "timestamp": 1612438365000,
    "description": "Aid Response",
    "address": "101 6th Av S",
    "active": false,
    "unitCount": 1,
    "severity": 0,
    "lat": 47.601701,
    "long": -122.326351,
    "neighborhood": "Pioneer Square/International District",
    "neighborhoodGroup": "Downtown",
    "units": "A10"
  },
  {
    "id_str": "F210011392",
    "created_at": "2/4/2021 3:12:01 AM",
    "timestamp": 1612437121000,
    "description": "Aid Response",
    "address": "2500 N 45th St",
    "active": false,
    "unitCount": 1,
    "severity": 0,
    "lat": 47.661363,
    "long": -122.328969,
    "neighborhood": "Wallingford",
    "neighborhoodGroup": "Lake Union",
    "units": "E17"
  },
  {
    "id_str": "F210011391",
    "created_at": "2/4/2021 3:01:24 AM",
    "timestamp": 1612436484000,
    "description": "Aid Response",
    "address": "10312 9th Ave Nw",
    "active": false,
    "unitCount": 1,
    "severity": 0,
    "lat": 47.703448,
    "long": -122.368745,
    "neighborhood": "North Beach/Blue Ridge",
    "neighborhoodGroup": "Ballard",
    "units": "E35"
  },
  {
    "id_str": "F210011390",
    "created_at": "2/4/2021 2:58:33 AM",
    "timestamp": 1612436313000,
    "description": "Low Acuity Response",
    "address": "2024 3rd Av",
    "active": false,
    "unitCount": 1,
    "severity": 0,
    "lat": 47.612578,
    "long": -122.341197,
    "neighborhood": "Cascade/Eastlake",
    "neighborhoodGroup": "Lake Union",
    "units": "A2"
  },
  {
    "id_str": "F210011388",
    "created_at": "2/4/2021 2:51:10 AM",
    "timestamp": 1612435870000,
    "description": "Dumpster Fire",
    "address": "1414 Broadway",
    "active": false,
    "unitCount": 1,
    "severity": 0,
    "lat": 47.613111,
    "long": -122.320764,
    "neighborhood": "Capitol Hill",
    "neighborhoodGroup": "East",
    "units": "E25"
  },
  {
    "id_str": "F210011386",
    "created_at": "2/4/2021 2:39:32 AM",
    "timestamp": 1612435172000,
    "description": "Auto Fire Alarm",
    "address": "5019 Roosevelt Way Ne",
    "active": false,
    "unitCount": 2,
    "severity": 0,
    "lat": 47.665073,
    "long": -122.317402,
    "neighborhood": "University District",
    "neighborhoodGroup": "Northeast",
    "units": "E31 L9"
  },
  {
    "id_str": "F210011385",
    "created_at": "2/4/2021 2:38:59 AM",
    "timestamp": 1612435139000,
    "description": "Aid Response",
    "address": "1421 Minor Av",
    "active": false,
    "unitCount": 1,
    "severity": 0,
    "lat": 47.613146,
    "long": -122.327096,
    "neighborhood": "Capitol Hill",
    "neighborhoodGroup": "East",
    "units": "A25"
  },
  {
    "id_str": "F210011384",
    "created_at": "2/4/2021 2:35:33 AM",
    "timestamp": 1612434933000,
    "description": "Aid Response",
    "address": "8500 20TH AVE NE",
    "active": false,
    "unitCount": 1,
    "severity": 0,
    "lat": 47.690303,
    "long": -122.306854,
    "neighborhood": "Wedgwood/View Ridge",
    "neighborhoodGroup": "Northeast",
    "units": "E40"
  },
  {
    "id_str": "F210011383",
    "created_at": "2/4/2021 2:21:56 AM",
    "timestamp": 1612434116000,
    "description": "Aid Response",
    "address": "800 N 59TH ST",
    "active": false,
    "unitCount": 1,
    "severity": 0,
    "lat": 47.671728,
    "long": -122.348499,
    "neighborhood": "Greenwood/Phinney Ridge",
    "neighborhoodGroup": "Northwest",
    "units": "E21"
  },
  {
    "id_str": "F210011382",
    "created_at": "2/4/2021 2:16:19 AM",
    "timestamp": 1612433779000,
    "description": "Aid Response",
    "address": "185 37th Ave E",
    "active": false,
    "unitCount": 1,
    "severity": 0,
    "lat": 47.619953,
    "long": -122.285919,
    "neighborhood": "Madrona/Leschi",
    "neighborhoodGroup": "Central",
    "units": "E34"
  },
  {
    "id_str": "F210011381",
    "created_at": "2/4/2021 2:13:39 AM",
    "timestamp": 1612433619000,
    "description": "Aid Response",
    "address": "116 Fairview Av N",
    "active": false,
    "unitCount": 1,
    "severity": 0,
    "lat": 47.618693,
    "long": -122.334256,
    "neighborhood": "Cascade/Eastlake",
    "neighborhoodGroup": "Lake Union",
    "units": "A2"
  },
  {
    "id_str": "F210011380",
    "created_at": "2/4/2021 1:49:54 AM",
    "timestamp": 1612432194000,
    "description": "Aid Response",
    "address": "2112 E Denny Way",
    "active": false,
    "unitCount": 1,
    "severity": 0,
    "lat": 47.618448,
    "long": -122.304694,
    "neighborhood": "Central Area/Squire Park",
    "neighborhoodGroup": "Central",
    "units": "A25"
  },
  {
    "id_str": "F210011379",
    "created_at": "2/4/2021 1:47:08 AM",
    "timestamp": 1612432028000,
    "description": "Aid Response",
    "address": "4818 M L King Jr Way S",
    "active": false,
    "unitCount": 1,
    "severity": 0,
    "lat": 47.559093,
    "long": -122.292171,
    "neighborhood": "Columbia City",
    "neighborhoodGroup": "Southeast",
    "units": "E28"
  },
  {
    "id_str": "F210011378",
    "created_at": "2/4/2021 1:43:35 AM",
    "timestamp": 1612431815000,
    "description": "Medic Response",
    "address": "Mary Ave Nw / Nw 85th St",
    "active": false,
    "unitCount": 2,
    "severity": 0,
    "lat": 47.690615,
    "long": -122.375466,
    "neighborhood": "North Beach/Blue Ridge",
    "neighborhoodGroup": "Ballard",
    "units": "E21 M31"
  },
  {
    "id_str": "F210011376",
    "created_at": "2/4/2021 1:33:53 AM",
    "timestamp": 1612431233000,
    "description": "Aid Response",
    "address": "15th Ave Nw / Nw 80th St",
    "active": false,
    "unitCount": 1,
    "severity": 0,
    "lat": 47.686878,
    "long": -122.376793,
    "neighborhood": "Whittier Heights",
    "neighborhoodGroup": "Ballard",
    "units": "E35"
  },
  {
    "id_str": "F210011375",
    "created_at": "2/4/2021 1:26:00 AM",
    "timestamp": 1612430760000,
    "description": "Aid Response",
    "address": "505 1st Av N",
    "active": false,
    "unitCount": 1,
    "severity": 0,
    "lat": 47.623325,
    "long": -122.355415,
    "neighborhood": "Queen Anne",
    "neighborhoodGroup": "Magnolia/Queen Anne",
    "units": "A2"
  },
  {
    "id_str": "F210011374",
    "created_at": "2/4/2021 1:25:13 AM",
    "timestamp": 1612430713000,
    "description": "Aid Response",
    "address": "100 Melrose Av E",
    "active": false,
    "unitCount": 1,
    "severity": 0,
    "lat": 47.618497,
    "long": -122.327854,
    "neighborhood": "Capitol Hill",
    "neighborhoodGroup": "East",
    "units": "A25"
  },
  {
    "id_str": "F210011373",
    "created_at": "2/4/2021 1:15:04 AM",
    "timestamp": 1612430104000,
    "description": "Aid Response",
    "address": "Ne 43rd St / University Way Ne",
    "active": false,
    "unitCount": 1,
    "severity": 0,
    "lat": 47.659795,
    "long": -122.313168,
    "neighborhood": "University District",
    "neighborhoodGroup": "Northeast",
    "units": "E17"
  },
  {
    "id_str": "F210011369",
    "created_at": "2/4/2021 12:26:15 AM",
    "timestamp": 1612427175000,
    "description": "Aid Response",
    "address": "2208 15th Av W",
    "active": false,
    "unitCount": 1,
    "severity": 0,
    "lat": 47.638695,
    "long": -122.376149,
    "neighborhood": "Interbay",
    "neighborhoodGroup": "Magnolia/Queen Anne",
    "units": "E20"
  },
  {
    "id_str": "F210011368",
    "created_at": "2/4/2021 12:17:13 AM",
    "timestamp": 1612426633000,
    "description": "Activated CO Detector",
    "address": "2707 W Jameson St",
    "active": false,
    "unitCount": 1,
    "severity": 0,
    "lat": 47.659445,
    "long": -122.391112,
    "neighborhood": "Interbay",
    "neighborhoodGroup": "Magnolia/Queen Anne",
    "units": "L8"
  },
  {
    "id_str": "F210011367",
    "created_at": "2/4/2021 12:13:45 AM",
    "timestamp": 1612426425000,
    "description": "Auto Fire Alarm",
    "address": "936 N 34th St",
    "active": false,
    "unitCount": 2,
    "severity": 0,
    "lat": 47.649094,
    "long": -122.346444,
    "neighborhood": "Fremont",
    "neighborhoodGroup": "Lake Union",
    "units": "E9 L6"
  },
  {
    "id_str": "F210011365",
    "created_at": "2/4/2021 12:01:26 AM",
    "timestamp": 1612425686000,
    "description": "Aid Response",
    "address": "14330 12th Av Ne",
    "active": false,
    "unitCount": 1,
    "severity": 0,
    "lat": 47.732429,
    "long": -122.315418,
    "neighborhood": "Olympic Hills/Victory Heights",
    "neighborhoodGroup": "North",
    "units": "E39"
  },
  {
    "id_str": "F210011364",
    "created_at": "2/3/2021 11:56:37 PM",
    "timestamp": 1612425397000,
    "description": "Aid Response",
    "address": "7101 62nd Av Ne",
    "active": false,
    "unitCount": 1,
    "severity": 0,
    "lat": 47.679973,
    "long": -122.262231,
    "neighborhood": "Laurelhurst/Sand Point",
    "neighborhoodGroup": "Northeast",
    "units": "E38"
  },
  {
    "id_str": "F210011363",
    "created_at": "2/3/2021 11:47:20 PM",
    "timestamp": 1612424840000,
    "description": "Aid Response Yellow",
    "address": "8812 3rd Ave S",
    "active": false,
    "unitCount": 1,
    "severity": 0,
    "lat": 47.524261,
    "long": -122.330737,
    "neighborhood": "South Park",
    "neighborhoodGroup": "Greater Duwamish",
    "units": "E26"
  },
  {
    "id_str": "F210011362",
    "created_at": "2/3/2021 11:32:24 PM",
    "timestamp": 1612423944000,
    "description": "Aid Response",
    "address": "5215 15th Av Ne",
    "active": false,
    "unitCount": 1,
    "severity": 0,
    "lat": 47.666527,
    "long": -122.311914,
    "neighborhood": "University District",
    "neighborhoodGroup": "Northeast",
    "units": "E31"
  },
  {
    "id_str": "F210011361",
    "created_at": "2/3/2021 11:30:56 PM",
    "timestamp": 1612423856000,
    "description": "Low Acuity Response",
    "address": "6618 Sw Admiral Way",
    "active": false,
    "unitCount": 1,
    "severity": 0,
    "lat": 47.575975,
    "long": -122.416953,
    "neighborhood": "Alki/Admiral",
    "neighborhoodGroup": "Southwest",
    "units": "E29"
  },
  {
    "id_str": "F210011360",
    "created_at": "2/3/2021 11:29:14 PM",
    "timestamp": 1612423754000,
    "description": "Investigate Out Of Service",
    "address": "1633 34TH AVE",
    "active": false,
    "unitCount": 1,
    "severity": 0,
    "lat": 47.615628,
    "long": -122.289228,
    "neighborhood": "Madrona/Leschi",
    "neighborhoodGroup": "Central",
    "units": "E34"
  },
  {
    "id_str": "F210011358",
    "created_at": "2/3/2021 11:13:24 PM",
    "timestamp": 1612422804000,
    "description": "Low Acuity Response",
    "address": "1200 Boylston Av",
    "active": false,
    "unitCount": 1,
    "severity": 0,
    "lat": 47.612158,
    "long": -122.323113,
    "neighborhood": "Capitol Hill",
    "neighborhoodGroup": "East",
    "units": "A25"
  },
  {
    "id_str": "F210011357",
    "created_at": "2/3/2021 10:54:20 PM",
    "timestamp": 1612421660000,
    "description": "Aid Response",
    "address": "2244 13th Av W",
    "active": false,
    "unitCount": 1,
    "severity": 0,
    "lat": 47.639715,
    "long": -122.373767,
    "neighborhood": "Interbay",
    "neighborhoodGroup": "Magnolia/Queen Anne",
    "units": "E20"
  },
  {
    "id_str": "F210011356",
    "created_at": "2/3/2021 10:49:22 PM",
    "timestamp": 1612421362000,
    "description": "Aid Response",
    "address": "320 Ne 65th St",
    "active": false,
    "unitCount": 1,
    "severity": 0,
    "lat": 47.675903,
    "long": -122.325299,
    "neighborhood": "Green Lake",
    "neighborhoodGroup": "Northwest",
    "units": "E16"
  },
  {
    "id_str": "F210011355",
    "created_at": "2/3/2021 10:44:38 PM",
    "timestamp": 1612421078000,
    "description": "Aid Response",
    "address": "5607 15th Av Ne",
    "active": false,
    "unitCount": 1,
    "severity": 0,
    "lat": 47.669524,
    "long": -122.311888,
    "neighborhood": "University District",
    "neighborhoodGroup": "Northeast",
    "units": "E17"
  },
  {
    "id_str": "F210011354",
    "created_at": "2/3/2021 10:42:55 PM",
    "timestamp": 1612420975000,
    "description": "Aid Response",
    "address": "4628 S Holly St",
    "active": false,
    "unitCount": 1,
    "severity": 0,
    "lat": 47.542466,
    "long": -122.275011,
    "neighborhood": "Columbia City",
    "neighborhoodGroup": "Southeast",
    "units": "E28"
  },
  {
    "id_str": "F210011353",
    "created_at": "2/3/2021 10:39:29 PM",
    "timestamp": 1612420769000,
    "description": "Aid Response",
    "address": "3rd Ave / Vine St",
    "active": false,
    "unitCount": 1,
    "severity": 0,
    "lat": 47.616579,
    "long": -122.347964,
    "neighborhood": "Cascade/Eastlake",
    "neighborhoodGroup": "Lake Union",
    "units": "E2"
  },
  {
    "id_str": "F210011352",
    "created_at": "2/3/2021 10:28:44 PM",
    "timestamp": 1612420124000,
    "description": "Medic Response",
    "address": "2226 Elliott Av",
    "active": false,
    "unitCount": 4,
    "severity": 0,
    "lat": 47.611768,
    "long": -122.34722,
    "neighborhood": "Belltown",
    "neighborhoodGroup": "Downtown",
    "units": "A2 E2 L4 M10"
  },
  {
    "id_str": "F210011350",
    "created_at": "2/3/2021 10:23:07 PM",
    "timestamp": 1612419787000,
    "description": "Auto Fire Alarm",
    "address": "1811 Eastlake Av",
    "active": false,
    "unitCount": 2,
    "severity": 0,
    "lat": 47.618002,
    "long": -122.329182,
    "neighborhood": "Cascade/Eastlake",
    "neighborhoodGroup": "Lake Union",
    "units": "E25 L4"
  },
  {
    "id_str": "F210011349",
    "created_at": "2/3/2021 10:10:34 PM",
    "timestamp": 1612419034000,
    "description": "Low Acuity Response",
    "address": "12546 33rd Av Ne",
    "active": false,
    "unitCount": 1,
    "severity": 0,
    "lat": 47.719585,
    "long": -122.292729,
    "neighborhood": "Cedar Park/Meadowbrook",
    "neighborhoodGroup": "North",
    "units": "E39"
  },
  {
    "id_str": "F210011348",
    "created_at": "2/3/2021 10:06:10 PM",
    "timestamp": 1612418770000,
    "description": "Aid Response",
    "address": "1624 4th Av",
    "active": false,
    "unitCount": 1,
    "severity": 0,
    "lat": 47.611323,
    "long": -122.337698,
    "neighborhood": "Downtown Commercial Core",
    "neighborhoodGroup": "Downtown",
    "units": "A2"
  },
  {
    "id_str": "F210011347",
    "created_at": "2/3/2021 10:05:11 PM",
    "timestamp": 1612418711000,
    "description": "Medic Response",
    "address": "8616 16th Ave Sw",
    "active": false,
    "unitCount": 2,
    "severity": 0,
    "lat": 47.52637,
    "long": -122.355074,
    "neighborhood": "Highland Park",
    "neighborhoodGroup": "Delridge Neighborhoods",
    "units": "E11 M26"
  },
  {
    "id_str": "F210011346",
    "created_at": "2/3/2021 9:57:01 PM",
    "timestamp": 1612418221000,
    "description": "MVI - Motor Vehicle Incident",
    "address": "10th Ave S / S Donovan St",
    "active": false,
    "unitCount": 1,
    "severity": 0,
    "lat": 47.525608,
    "long": -122.320298,
    "neighborhood": "South Park",
    "neighborhoodGroup": "Greater Duwamish",
    "units": "E26"
  },
  {
    "id_str": "F210011345",
    "created_at": "2/3/2021 9:55:15 PM",
    "timestamp": 1612418115000,
    "description": "Aid Response",
    "address": "3rd Ave / Cherry St",
    "active": false,
    "unitCount": 1,
    "severity": 0,
    "lat": 47.603484,
    "long": -122.332062,
    "neighborhood": "Downtown Commercial Core",
    "neighborhoodGroup": "Downtown",
    "units": "A10"
  },
  {
    "id_str": "F210011343",
    "created_at": "2/3/2021 9:52:04 PM",
    "timestamp": 1612417924000,
    "description": "Aid Response",
    "address": "3512 S Juneau St",
    "active": false,
    "unitCount": 2,
    "severity": 0,
    "lat": 47.549772,
    "long": -122.288795,
    "neighborhood": "Beacon Hill",
    "neighborhoodGroup": "Greater Duwamish",
    "units": "E28 L12"
  },
  {
    "id_str": "F210011342",
    "created_at": "2/3/2021 9:51:10 PM",
    "timestamp": 1612417870000,
    "description": "Aid Response",
    "address": "5602 15th Av Ne",
    "active": false,
    "unitCount": 1,
    "severity": 0,
    "lat": 47.669459,
    "long": -122.311887,
    "neighborhood": "University District",
    "neighborhoodGroup": "Northeast",
    "units": "E31"
  },
  {
    "id_str": "F210011341",
    "created_at": "2/3/2021 9:46:57 PM",
    "timestamp": 1612417617000,
    "description": "Rubbish Fire",
    "address": "Warren Ave N / Mercer St",
    "active": false,
    "unitCount": 1,
    "severity": 0,
    "lat": 47.624576,
    "long": -122.354098,
    "neighborhood": "Queen Anne",
    "neighborhoodGroup": "Magnolia/Queen Anne",
    "units": "E8"
  },
  {
    "id_str": "F210011340",
    "created_at": "2/3/2021 9:38:56 PM",
    "timestamp": 1612417136000,
    "description": "Auto Fire Alarm",
    "address": "5019 Roosevelt Way Ne",
    "active": false,
    "unitCount": 2,
    "severity": 0,
    "lat": 47.665073,
    "long": -122.317402,
    "neighborhood": "University District",
    "neighborhoodGroup": "Northeast",
    "units": "E17 L9"
  },
  {
    "id_str": "F210011339",
    "created_at": "2/3/2021 9:23:22 PM",
    "timestamp": 1612416202000,
    "description": "Aid Response",
    "address": "Ne 130th St / Lake City Way Ne",
    "active": false,
    "unitCount": 1,
    "severity": 0,
    "lat": 47.722899,
    "long": -122.293194,
    "neighborhood": "Cedar Park/Meadowbrook",
    "neighborhoodGroup": "North",
    "units": "E39"
  },
  {
    "id_str": "F210011337",
    "created_at": "2/3/2021 9:17:22 PM",
    "timestamp": 1612415842000,
    "description": "Aid Response",
    "address": "3820 38th Ave Sw",
    "active": false,
    "unitCount": 1,
    "severity": 0,
    "lat": 47.569285,
    "long": -122.380248,
    "neighborhood": "West Seattle Junction/Genesee Hill",
    "neighborhoodGroup": "Southwest",
    "units": "L11"
  },
  {
    "id_str": "F210011336",
    "created_at": "2/3/2021 9:04:08 PM",
    "timestamp": 1612415048000,
    "description": "Aid Response",
    "address": "751 N 135th St",
    "active": false,
    "unitCount": 1,
    "severity": 0,
    "lat": 47.726805,
    "long": -122.347791,
    "neighborhood": "Broadview/Bitter Lake",
    "neighborhoodGroup": "Northwest",
    "units": "E24"
  },
  {
    "id_str": "F210011335",
    "created_at": "2/3/2021 9:03:09 PM",
    "timestamp": 1612414989000,
    "description": "Medic Response",
    "address": "1234 S King St",
    "active": false,
    "unitCount": 2,
    "severity": 0,
    "lat": 47.598337,
    "long": -122.316572,
    "neighborhood": "Judkins Park",
    "neighborhoodGroup": "Central",
    "units": "A5 M1"
  },
  {
    "id_str": "F210011333",
    "created_at": "2/3/2021 9:01:12 PM",
    "timestamp": 1612414872000,
    "description": "Automatic Fire Alarm Resd",
    "address": "5006 51st Ave Sw",
    "active": false,
    "unitCount": 1,
    "severity": 0,
    "lat": 47.557459,
    "long": -122.397744,
    "neighborhood": "West Seattle Junction/Genesee Hill",
    "neighborhoodGroup": "Southwest",
    "units": "L11"
  },
  {
    "id_str": "F210011331",
    "created_at": "2/3/2021 8:54:20 PM",
    "timestamp": 1612414460000,
    "description": "Medic Response",
    "address": "1501 17th Av",
    "active": false,
    "unitCount": 2,
    "severity": 0,
    "lat": 47.614106,
    "long": -122.310161,
    "neighborhood": "Central Area/Squire Park",
    "neighborhoodGroup": "Central",
    "units": "A25 M10"
  },
  {
    "id_str": "F210011330",
    "created_at": "2/3/2021 8:52:41 PM",
    "timestamp": 1612414361000,
    "description": "Aid Response",
    "address": "5455 Delridge Way Sw",
    "active": false,
    "unitCount": 1,
    "severity": 0,
    "lat": 47.553221,
    "long": -122.36297,
    "neighborhood": "High Point",
    "neighborhoodGroup": "Delridge Neighborhoods",
    "units": "E32"
  },
  {
    "id_str": "F210011329",
    "created_at": "2/3/2021 8:52:14 PM",
    "timestamp": 1612414334000,
    "description": "Aid Response",
    "address": "DISCOVERY PARK BLVD / MONTANA CIR W",
    "active": false,
    "unitCount": 1,
    "severity": 0,
    "lat": 47.660706,
    "long": -122.415068,
    "neighborhood": "Magnolia",
    "neighborhoodGroup": "Magnolia/Queen Anne",
    "units": "E41"
  },
  {
    "id_str": "F210011327",
    "created_at": "2/3/2021 8:46:28 PM",
    "timestamp": 1612413988000,
    "description": "Aid Response",
    "address": "5051 50th Av Ne",
    "active": false,
    "unitCount": 1,
    "severity": 0,
    "lat": 47.665537,
    "long": -122.274078,
    "neighborhood": "Laurelhurst/Sand Point",
    "neighborhoodGroup": "Northeast",
    "units": "E38"
  },
  {
    "id_str": "F210011326",
    "created_at": "2/3/2021 8:33:07 PM",
    "timestamp": 1612413187000,
    "description": "Medic Response",
    "address": "2414 Prescott Ave Sw",
    "active": false,
    "unitCount": 2,
    "severity": 0,
    "lat": 47.58247,
    "long": -122.37931,
    "neighborhood": "Alki/Admiral",
    "neighborhoodGroup": "Southwest",
    "units": "E29 M32"
  },
  {
    "id_str": "F210011325",
    "created_at": "2/3/2021 8:31:53 PM",
    "timestamp": 1612413113000,
    "description": "Aid Response",
    "address": "6900 37th Av S",
    "active": false,
    "unitCount": 1,
    "severity": 0,
    "lat": 47.540654,
    "long": -122.286239,
    "neighborhood": "South Beacon Hill/NewHolly",
    "neighborhoodGroup": "Greater Duwamish",
    "units": "E33"
  },
  {
    "id_str": "F210011324",
    "created_at": "2/3/2021 8:30:25 PM",
    "timestamp": 1612413025000,
    "description": "Aid Response",
    "address": "12534 Lake City Way Ne",
    "active": false,
    "unitCount": 1,
    "severity": 0,
    "lat": 47.719581,
    "long": -122.295054,
    "neighborhood": "Cedar Park/Meadowbrook",
    "neighborhoodGroup": "North",
    "units": "L5"
  },
  {
    "id_str": "F210011321",
    "created_at": "2/3/2021 8:26:30 PM",
    "timestamp": 1612412790000,
    "description": "Aid Response",
    "address": "5459 23rd Ave Sw",
    "active": false,
    "unitCount": 1,
    "severity": 0,
    "lat": 47.553503,
    "long": -122.361747,
    "neighborhood": "High Point",
    "neighborhoodGroup": "Delridge Neighborhoods",
    "units": "E36"
  },
  {
    "id_str": "F210011318",
    "created_at": "2/3/2021 8:22:13 PM",
    "timestamp": 1612412533000,
    "description": "MVI - Motor Vehicle Incident",
    "address": "Greenwood Ave N / N 95th St",
    "active": false,
    "unitCount": 1,
    "severity": 0,
    "lat": 47.697839,
    "long": -122.355377,
    "neighborhood": "Greenwood/Phinney Ridge",
    "neighborhoodGroup": "Northwest",
    "units": "E21"
  },
  {
    "id_str": "F210011317",
    "created_at": "2/3/2021 8:19:21 PM",
    "timestamp": 1612412361000,
    "description": "Fire in Building",
    "address": "6251 Airport Way S",
    "active": false,
    "unitCount": 21,
    "severity": 2,
    "lat": 47.547662,
    "long": -122.314251,
    "neighborhood": "Beacon Hill",
    "neighborhoodGroup": "Greater Duwamish",
    "units": "A14 AIR10 B2 B5 DEP1 E10 E11 E13 E26 E27 E28 E30 L1 L12 M26 M44 MAR5 R1 REHAB1 SAFT2 STAF10"
  },
  {
    "id_str": "F210011316",
    "created_at": "2/3/2021 8:17:38 PM",
    "timestamp": 1612412258000,
    "description": "Low Acuity Response",
    "address": "507 Ne Northgate Way",
    "active": false,
    "unitCount": 1,
    "severity": 0,
    "lat": 47.708594,
    "long": -122.323211,
    "neighborhood": "Northgate/Maple Leaf",
    "neighborhoodGroup": "North",
    "units": "E39"
  },
  {
    "id_str": "F210011315",
    "created_at": "2/3/2021 8:09:23 PM",
    "timestamp": 1612411763000,
    "description": "Aid Response",
    "address": "1428 37th Ave",
    "active": false,
    "unitCount": 1,
    "severity": 0,
    "lat": 47.613124,
    "long": -122.286004,
    "neighborhood": "Madrona/Leschi",
    "neighborhoodGroup": "Central",
    "units": "E34"
  },
  {
    "id_str": "F210011313",
    "created_at": "2/3/2021 7:53:34 PM",
    "timestamp": 1612410814000,
    "description": "Aid Response",
    "address": "1132 N 128th St",
    "active": false,
    "unitCount": 2,
    "severity": 0,
    "lat": 47.722281,
    "long": -122.344531,
    "neighborhood": "Haller Lake",
    "neighborhoodGroup": "Northwest",
    "units": "A31 E24"
  },
  {
    "id_str": "F210011311",
    "created_at": "2/3/2021 7:41:35 PM",
    "timestamp": 1612410095000,
    "description": "Low Acuity Response",
    "address": "8915 30th Ave Nw",
    "active": false,
    "unitCount": 1,
    "severity": 0,
    "lat": 47.693785,
    "long": -122.395705,
    "neighborhood": "North Beach/Blue Ridge",
    "neighborhoodGroup": "Ballard",
    "units": "E35"
  },
  {
    "id_str": "F210011310",
    "created_at": "2/3/2021 7:41:24 PM",
    "timestamp": 1612410084000,
    "description": "Aid Response",
    "address": "417 Broadway E",
    "active": false,
    "unitCount": 1,
    "severity": 0,
    "lat": 47.622174,
    "long": -122.320909,
    "neighborhood": "Capitol Hill",
    "neighborhoodGroup": "East",
    "units": "E25"
  },
  {
    "id_str": "F210011308",
    "created_at": "2/3/2021 7:31:36 PM",
    "timestamp": 1612409496000,
    "description": "Aid Response",
    "address": "1510 13th Av S",
    "active": false,
    "unitCount": 1,
    "severity": 0,
    "lat": 47.58991,
    "long": -122.315987,
    "neighborhood": "North Beacon Hill/Jefferson Park",
    "neighborhoodGroup": "Greater Duwamish",
    "units": "E13"
  },
  {
    "id_str": "F210011307",
    "created_at": "2/3/2021 7:30:20 PM",
    "timestamp": 1612409420000,
    "description": "Low Acuity Response",
    "address": "6324 31st Ave S",
    "active": false,
    "unitCount": 1,
    "severity": 0,
    "lat": 47.545948,
    "long": -122.292591,
    "neighborhood": "South Beacon Hill/NewHolly",
    "neighborhoodGroup": "Greater Duwamish",
    "units": "E28"
  },
  {
    "id_str": "F210011306",
    "created_at": "2/3/2021 7:27:49 PM",
    "timestamp": 1612409269000,
    "description": "Auto Fire Alarm",
    "address": "2001 6th Av",
    "active": false,
    "unitCount": 2,
    "severity": 0,
    "lat": 47.614391,
    "long": -122.338314,
    "neighborhood": "Cascade/Eastlake",
    "neighborhoodGroup": "Lake Union",
    "units": "E5 L1"
  },
  {
    "id_str": "F210011305",
    "created_at": "2/3/2021 7:23:08 PM",
    "timestamp": 1612408988000,
    "description": "Aid Response",
    "address": "4559 51st Ave Ne",
    "active": false,
    "unitCount": 2,
    "severity": 0,
    "lat": 47.662348,
    "long": -122.272486,
    "neighborhood": "Laurelhurst/Sand Point",
    "neighborhoodGroup": "Northeast",
    "units": "E38 M17"
  },
  {
    "id_str": "F210011303",
    "created_at": "2/3/2021 7:15:52 PM",
    "timestamp": 1612408552000,
    "description": "Aid Response",
    "address": "3720 Montlake Blvd Ne",
    "active": false,
    "unitCount": 1,
    "severity": 0,
    "lat": 47.649404,
    "long": -122.304574,
    "neighborhood": "University District",
    "neighborhoodGroup": "Northeast",
    "units": "L9"
  },
  {
    "id_str": "F210011302",
    "created_at": "2/3/2021 7:15:16 PM",
    "timestamp": 1612408516000,
    "description": "Aid Response",
    "address": "4749 University Way Ne",
    "active": false,
    "unitCount": 1,
    "severity": 0,
    "lat": 47.663383,
    "long": -122.313097,
    "neighborhood": "University District",
    "neighborhoodGroup": "Northeast",
    "units": "E31"
  },
  {
    "id_str": "F210011301",
    "created_at": "2/3/2021 7:12:47 PM",
    "timestamp": 1612408367000,
    "description": "Aid Response",
    "address": "500 17th Av",
    "active": false,
    "unitCount": 1,
    "severity": 0,
    "lat": 47.606176,
    "long": -122.310249,
    "neighborhood": "Central Area/Squire Park",
    "neighborhoodGroup": "Central",
    "units": "A25"
  },
  {
    "id_str": "F210011300",
    "created_at": "2/3/2021 7:09:52 PM",
    "timestamp": 1612408192000,
    "description": "Rescue Elevator",
    "address": "411 University St",
    "active": false,
    "unitCount": 1,
    "severity": 0,
    "lat": 47.60828,
    "long": -122.334742,
    "neighborhood": "Downtown Commercial Core",
    "neighborhoodGroup": "Downtown",
    "units": "L1"
  },
  {
    "id_str": "F210011298",
    "created_at": "2/3/2021 7:05:51 PM",
    "timestamp": 1612407951000,
    "description": "Low Acuity Response",
    "address": "3501 Rainier Av S",
    "active": false,
    "unitCount": 1,
    "severity": 0,
    "lat": 47.571853,
    "long": -122.293193,
    "neighborhood": "Columbia City",
    "neighborhoodGroup": "Southeast",
    "units": "E30"
  },
  {
    "id_str": "F210011297",
    "created_at": "2/3/2021 6:49:03 PM",
    "timestamp": 1612406943000,
    "description": "Low Acuity Response",
    "address": "1915 41st Ave Sw",
    "active": false,
    "unitCount": 1,
    "severity": 0,
    "lat": 47.586684,
    "long": -122.38369,
    "neighborhood": "Alki/Admiral",
    "neighborhoodGroup": "Southwest",
    "units": "E29"
  },
  {
    "id_str": "F210011294",
    "created_at": "2/3/2021 6:42:13 PM",
    "timestamp": 1612406533000,
    "description": "Aid Response",
    "address": "3900 S Othello St",
    "active": false,
    "unitCount": 1,
    "severity": 0,
    "lat": 47.537046,
    "long": -122.283397,
    "neighborhood": "South Beacon Hill/NewHolly",
    "neighborhoodGroup": "Greater Duwamish",
    "units": "E28"
  },
  {
    "id_str": "F210011293",
    "created_at": "2/3/2021 6:41:48 PM",
    "timestamp": 1612406508000,
    "description": "Aid Response",
    "address": "1601 S Lane St",
    "active": false,
    "unitCount": 2,
    "severity": 0,
    "lat": 47.59665,
    "long": -122.311573,
    "neighborhood": "Judkins Park",
    "neighborhoodGroup": "Central",
    "units": "A10 E10"
  },
  {
    "id_str": "F210011292",
    "created_at": "2/3/2021 6:39:57 PM",
    "timestamp": 1612406397000,
    "description": "Aid Response",
    "address": "1415 Nw 52nd St",
    "active": false,
    "unitCount": 1,
    "severity": 0,
    "lat": 47.666431,
    "long": -122.373966,
    "neighborhood": "Ballard",
    "neighborhoodGroup": "Ballard",
    "units": "E18"
  },
  {
    "id_str": "F210011290",
    "created_at": "2/3/2021 6:33:57 PM",
    "timestamp": 1612406037000,
    "description": "Aid Response",
    "address": "420 4th Ave",
    "active": false,
    "unitCount": 1,
    "severity": 0,
    "lat": 47.601986,
    "long": -122.32914,
    "neighborhood": "Downtown Commercial Core",
    "neighborhoodGroup": "Downtown",
    "units": "A10"
  },
  {
    "id_str": "F210011289",
    "created_at": "2/3/2021 6:31:48 PM",
    "timestamp": 1612405908000,
    "description": "Aid Response",
    "address": "3rd Ave / Virginia St",
    "active": false,
    "unitCount": 2,
    "severity": 0,
    "lat": 47.612398,
    "long": -122.340892,
    "neighborhood": "Cascade/Eastlake",
    "neighborhoodGroup": "Lake Union",
    "units": "A2 A4"
  },
  {
    "id_str": "F210011284",
    "created_at": "2/3/2021 6:02:40 PM",
    "timestamp": 1612404160000,
    "description": "Medic Response, 6 per Rule",
    "address": "College Way N / N 92nd St",
    "active": false,
    "unitCount": 3,
    "severity": 0,
    "lat": 47.695952,
    "long": -122.335024,
    "neighborhood": "Licton Springs",
    "neighborhoodGroup": "Northwest",
    "units": "E16 E21 M31"
  },
  {
    "id_str": "F210011282",
    "created_at": "2/3/2021 5:55:57 PM",
    "timestamp": 1612403757000,
    "description": "Aid Response",
    "address": "3501 Ne 98th St",
    "active": false,
    "unitCount": 1,
    "severity": 0,
    "lat": 47.700206,
    "long": -122.290651,
    "neighborhood": "Wedgwood/View Ridge",
    "neighborhoodGroup": "Northeast",
    "units": "A31"
  },
  {
    "id_str": "F210011280",
    "created_at": "2/3/2021 5:53:46 PM",
    "timestamp": 1612403626000,
    "description": "Aid Response",
    "address": "3900 S Othello St",
    "active": false,
    "unitCount": 1,
    "severity": 0,
    "lat": 47.537046,
    "long": -122.283397,
    "neighborhood": "South Beacon Hill/NewHolly",
    "neighborhoodGroup": "Greater Duwamish",
    "units": "E28"
  },
  {
    "id_str": "F210011279",
    "created_at": "2/3/2021 5:49:45 PM",
    "timestamp": 1612403385000,
    "description": "Rescue Elevator",
    "address": "300 Ne Northgate Way",
    "active": false,
    "unitCount": 1,
    "severity": 0,
    "lat": 47.708611,
    "long": -122.325955,
    "neighborhood": "Northgate/Maple Leaf",
    "neighborhoodGroup": "North",
    "units": "L5"
  },
  {
    "id_str": "F210011277",
    "created_at": "2/3/2021 5:41:40 PM",
    "timestamp": 1612402900000,
    "description": "1RED 1 Unit",
    "address": "13732 17th Ave Ne",
    "active": false,
    "unitCount": 1,
    "severity": 0,
    "lat": 47.72864,
    "long": -122.309987,
    "neighborhood": "Olympic Hills/Victory Heights",
    "neighborhoodGroup": "North",
    "units": "E39"
  },
  {
    "id_str": "F210011274",
    "created_at": "2/3/2021 5:38:37 PM",
    "timestamp": 1612402717000,
    "description": "Aid Response",
    "address": "9734 51ST AVE S",
    "active": false,
    "unitCount": 1,
    "severity": 0,
    "lat": 47.513443,
    "long": -122.264717,
    "neighborhood": "Rainier Beach",
    "neighborhoodGroup": "Southeast",
    "units": "E33"
  },
  {
    "id_str": "F210011275",
    "created_at": "2/3/2021 5:36:20 PM",
    "timestamp": 1612402580000,
    "description": "1RED 1 Unit",
    "address": "7501 East Green Lake Dr N",
    "active": false,
    "unitCount": 1,
    "severity": 0,
    "lat": 47.682717,
    "long": -122.330393,
    "neighborhood": "Green Lake",
    "neighborhoodGroup": "Northwest",
    "units": "E16"
  },
  {
    "id_str": "F210011273",
    "created_at": "2/3/2021 5:31:55 PM",
    "timestamp": 1612402315000,
    "description": "Aid Response",
    "address": "411 N 90th St",
    "active": false,
    "unitCount": 1,
    "severity": 0,
    "lat": 47.694213,
    "long": -122.35382,
    "neighborhood": "Greenwood/Phinney Ridge",
    "neighborhoodGroup": "Northwest",
    "units": "E21"
  },
  {
    "id_str": "F210011271",
    "created_at": "2/3/2021 5:23:59 PM",
    "timestamp": 1612401839000,
    "description": "4RED - 2 + 1 + 1",
    "address": "1712 Summit Av",
    "active": false,
    "unitCount": 5,
    "severity": 1,
    "lat": 47.616499,
    "long": -122.325545,
    "neighborhood": "Capitol Hill",
    "neighborhoodGroup": "East",
    "units": "B2 E10 E25 E5 L10"
  },
  {
    "id_str": "F210011269",
    "created_at": "2/3/2021 5:22:00 PM",
    "timestamp": 1612401720000,
    "description": "Aid Response",
    "address": "1808 N 143rd St",
    "active": false,
    "unitCount": 2,
    "severity": 0,
    "lat": 47.732313,
    "long": -122.336877,
    "neighborhood": "Haller Lake",
    "neighborhoodGroup": "Northwest",
    "units": "A31 E24"
  },
  {
    "id_str": "F210011266",
    "created_at": "2/3/2021 5:16:54 PM",
    "timestamp": 1612401414000,
    "description": "Aid Response",
    "address": "3RD AVE / VINE ST",
    "active": false,
    "unitCount": 1,
    "severity": 0,
    "lat": 47.617131,
    "long": -122.348898,
    "neighborhood": "Cascade/Eastlake",
    "neighborhoodGroup": "Lake Union",
    "units": "A2"
  },
  {
    "id_str": "F210011264",
    "created_at": "2/3/2021 5:16:50 PM",
    "timestamp": 1612401410000,
    "description": "Aid Response",
    "address": "Sw Edmunds St / California Ave Sw",
    "active": false,
    "unitCount": 1,
    "severity": 0,
    "lat": 47.559325,
    "long": -122.38683,
    "neighborhood": "West Seattle Junction/Genesee Hill",
    "neighborhoodGroup": "Southwest",
    "units": "E32"
  },
  {
    "id_str": "F210011263",
    "created_at": "2/3/2021 5:09:08 PM",
    "timestamp": 1612400948000,
    "description": "4RED - 2 + 1 + 1",
    "address": "3425 M L King Jr Way S",
    "active": false,
    "unitCount": 4,
    "severity": 0,
    "lat": 47.572708,
    "long": -122.296928,
    "neighborhood": "North Beacon Hill/Jefferson Park",
    "neighborhoodGroup": "Greater Duwamish",
    "units": "B5 E13 E6 L3"
  },
  {
    "id_str": "F210011262",
    "created_at": "2/3/2021 5:06:33 PM",
    "timestamp": 1612400793000,
    "description": "Low Acuity Response",
    "address": "3501 Rainier Av S",
    "active": false,
    "unitCount": 1,
    "severity": 0,
    "lat": 47.571853,
    "long": -122.293193,
    "neighborhood": "Columbia City",
    "neighborhoodGroup": "Southeast",
    "units": "E30"
  },
  {
    "id_str": "F210011260",
    "created_at": "2/3/2021 5:05:00 PM",
    "timestamp": 1612400700000,
    "description": "MVI - Motor Vehicle Incident",
    "address": "Nb I5 At 145",
    "active": false,
    "unitCount": 3,
    "severity": 0,
    "lat": 47.72959,
    "long": -122.324067,
    "neighborhood": "Haller Lake",
    "neighborhoodGroup": "Northwest",
    "units": "A31 E16 E17"
  },
  {
    "id_str": "F210011259",
    "created_at": "2/3/2021 5:03:02 PM",
    "timestamp": 1612400582000,
    "description": "Aid Response",
    "address": "435 Dexter Av N",
    "active": false,
    "unitCount": 2,
    "severity": 0,
    "lat": 47.622461,
    "long": -122.342368,
    "neighborhood": "Cascade/Eastlake",
    "neighborhoodGroup": "Lake Union",
    "units": "A2 L4"
  },
  {
    "id_str": "F210011257",
    "created_at": "2/3/2021 4:59:20 PM",
    "timestamp": 1612400360000,
    "description": "Aid Response",
    "address": "2100 N NORTHLAKE WAY",
    "active": false,
    "unitCount": 1,
    "severity": 0,
    "lat": 47.646929,
    "long": -122.333711,
    "neighborhood": "Fremont",
    "neighborhoodGroup": "Lake Union",
    "units": "E9"
  },
  {
    "id_str": "F210011255",
    "created_at": "2/3/2021 4:41:23 PM",
    "timestamp": 1612399283000,
    "description": "Rescue Elevator",
    "address": "204 3rd Av S",
    "active": false,
    "unitCount": 1,
    "severity": 0,
    "lat": 47.600843,
    "long": -122.330271,
    "neighborhood": "Pioneer Square/International District",
    "neighborhoodGroup": "Downtown",
    "units": "L1"
  },
  {
    "id_str": "F210011254",
    "created_at": "2/3/2021 4:37:06 PM",
    "timestamp": 1612399026000,
    "description": "Illegal Burn",
    "address": "1118 15TH AVE E",
    "active": false,
    "unitCount": 1,
    "severity": 0,
    "lat": 47.628851,
    "long": -122.312543,
    "neighborhood": "Miller Park",
    "neighborhoodGroup": "East",
    "units": "L10"
  },
  {
    "id_str": "F210011253",
    "created_at": "2/3/2021 4:34:18 PM",
    "timestamp": 1612398858000,
    "description": "Automatic Fire Alarm Resd",
    "address": "9728 15th Ave Nw",
    "active": false,
    "unitCount": 1,
    "severity": 0,
    "lat": 47.699797,
    "long": -122.37678,
    "neighborhood": "North Beach/Blue Ridge",
    "neighborhoodGroup": "Ballard",
    "units": "E35"
  },
  {
    "id_str": "F210011252",
    "created_at": "2/3/2021 4:34:07 PM",
    "timestamp": 1612398847000,
    "description": "Auto Fire Alarm",
    "address": "118 Bell St",
    "active": false,
    "unitCount": 2,
    "severity": 0,
    "lat": 47.613497,
    "long": -122.346355,
    "neighborhood": "Belltown",
    "neighborhoodGroup": "Downtown",
    "units": "E8 L4"
  },
  {
    "id_str": "F210011251",
    "created_at": "2/3/2021 4:30:36 PM",
    "timestamp": 1612398636000,
    "description": "Rescue Extrication",
    "address": "SB I5 AT CONVENTION CENTER",
    "active": false,
    "unitCount": 14,
    "severity": 2,
    "lat": 47.607412,
    "long": -122.330402,
    "neighborhood": "First Hill",
    "neighborhoodGroup": "East",
    "units": "A14 A2 A4 B2 B6 E2 E22 E25 E8 L4 M1 M44 R1 SAFT2"
  },
  {
    "id_str": "F210011250",
    "created_at": "2/3/2021 4:25:08 PM",
    "timestamp": 1612398308000,
    "description": "Aid Response",
    "address": "S Spokane St / Colorado Ave S",
    "active": false,
    "unitCount": 1,
    "severity": 0,
    "lat": 47.571381,
    "long": -122.336786,
    "neighborhood": "Duwamish/SODO",
    "neighborhoodGroup": "Greater Duwamish",
    "units": "E13"
  },
  {
    "id_str": "F210011249",
    "created_at": "2/3/2021 4:24:24 PM",
    "timestamp": 1612398264000,
    "description": "Low Acuity Response",
    "address": "9200 2nd Av Sw",
    "active": false,
    "unitCount": 1,
    "severity": 0,
    "lat": 47.521244,
    "long": -122.336301,
    "neighborhood": "Highland Park",
    "neighborhoodGroup": "Delridge Neighborhoods",
    "units": "E11"
  },
  {
    "id_str": "F210011247",
    "created_at": "2/3/2021 4:12:36 PM",
    "timestamp": 1612397556000,
    "description": "Aid Response",
    "address": "115 Broadway E",
    "active": false,
    "unitCount": 1,
    "severity": 0,
    "lat": 47.618907,
    "long": -122.320857,
    "neighborhood": "Capitol Hill",
    "neighborhoodGroup": "East",
    "units": "A25"
  },
  {
    "id_str": "F210011246",
    "created_at": "2/3/2021 4:09:41 PM",
    "timestamp": 1612397381000,
    "description": "MVI - Motor Vehicle Incident",
    "address": "Nb I5 Exp To Nb I5 Near Northgate",
    "active": false,
    "unitCount": 3,
    "severity": 0,
    "lat": 47.698391,
    "long": -122.329583,
    "neighborhood": "Northgate/Maple Leaf",
    "neighborhoodGroup": "North",
    "units": "A5 E10 E5"
  },
  {
    "id_str": "F210011244",
    "created_at": "2/3/2021 4:09:11 PM",
    "timestamp": 1612397351000,
    "description": "Aid Response",
    "address": "11 W Crockett St",
    "active": false,
    "unitCount": 1,
    "severity": 0,
    "lat": 47.63717,
    "long": -122.357078,
    "neighborhood": "Queen Anne",
    "neighborhoodGroup": "Magnolia/Queen Anne",
    "units": "E8"
  }
]