[
  {
    "id_str": "F210100993",
    "created_at": "9/12/2021 4:56:10 PM",
    "timestamp": 1631490970000,
    "description": "Medic Response",
    "address": "400 Spring St",
    "active": false,
    "unitCount": 2,
    "severity": 0,
    "lat": 47.606801,
    "long": -122.333562,
    "neighborhood": "Downtown Commercial Core",
    "neighborhoodGroup": "Downtown",
    "units": "E5 M10"
  },
  {
    "id_str": "F210100992",
    "created_at": "9/12/2021 4:55:20 PM",
    "timestamp": 1631490920000,
    "description": "Auto Fire Alarm",
    "address": "1420 Ne 65th St",
    "active": false,
    "unitCount": 2,
    "severity": 0,
    "lat": 47.675792,
    "long": -122.312886,
    "neighborhood": "University District",
    "neighborhoodGroup": "Northeast",
    "units": "E16 L9"
  },
  {
    "id_str": "F210100991",
    "created_at": "9/12/2021 4:55:13 PM",
    "timestamp": 1631490913000,
    "description": "Medic Response, 7 per Rule",
    "address": "3rd Ave / Pike St",
    "active": false,
    "unitCount": 3,
    "severity": 0,
    "lat": 47.60975,
    "long": -122.337793,
    "neighborhood": "Downtown Commercial Core",
    "neighborhoodGroup": "Downtown",
    "units": "A5 E2 M1"
  },
  {
    "id_str": "F210100989",
    "created_at": "9/12/2021 4:53:52 PM",
    "timestamp": 1631490832000,
    "description": "Automatic Fire Alarm Resd",
    "address": "8601 24th Ave Sw",
    "active": false,
    "unitCount": 1,
    "severity": 0,
    "lat": 47.526475,
    "long": -122.363168,
    "neighborhood": "Roxhill/Westwood",
    "neighborhoodGroup": "Delridge Neighborhoods",
    "units": "E11"
  },
  {
    "id_str": "F210100990",
    "created_at": "9/12/2021 4:53:17 PM",
    "timestamp": 1631490797000,
    "description": "Aid Response",
    "address": "3416 Sound View Dr W",
    "active": false,
    "unitCount": 1,
    "severity": 0,
    "lat": 47.650856,
    "long": -122.417414,
    "neighborhood": "Magnolia",
    "neighborhoodGroup": "Magnolia/Queen Anne",
    "units": "E41"
  },
  {
    "id_str": "F210100988",
    "created_at": "9/12/2021 4:35:15 PM",
    "timestamp": 1631489715000,
    "description": "Aid Response",
    "address": "1005 Terrace St",
    "active": false,
    "unitCount": 1,
    "severity": 0,
    "lat": 47.604615,
    "long": -122.32228,
    "neighborhood": "First Hill",
    "neighborhoodGroup": "East",
    "units": "A10"
  },
  {
    "id_str": "F210100987",
    "created_at": "9/12/2021 4:34:24 PM",
    "timestamp": 1631489664000,
    "description": "Aid Response",
    "address": "1167 Republican St",
    "active": false,
    "unitCount": 1,
    "severity": 0,
    "lat": 47.62312,
    "long": -122.333818,
    "neighborhood": "Cascade/Eastlake",
    "neighborhoodGroup": "Lake Union",
    "units": "E2"
  },
  {
    "id_str": "F210100986",
    "created_at": "9/12/2021 4:30:04 PM",
    "timestamp": 1631489404000,
    "description": "Medic Response",
    "address": "4351 S Othello St",
    "active": false,
    "unitCount": 3,
    "severity": 0,
    "lat": 47.537055,
    "long": -122.278683,
    "neighborhood": "Columbia City",
    "neighborhoodGroup": "Southeast",
    "units": "E28 L12 M28"
  },
  {
    "id_str": "F210100984",
    "created_at": "9/12/2021 4:25:55 PM",
    "timestamp": 1631489155000,
    "description": "Automatic Fire Alarm Resd",
    "address": "8601 24th Ave Sw",
    "active": false,
    "unitCount": 1,
    "severity": 0,
    "lat": 47.526475,
    "long": -122.363168,
    "neighborhood": "Roxhill/Westwood",
    "neighborhoodGroup": "Delridge Neighborhoods",
    "units": "E11"
  },
  {
    "id_str": "F210100983",
    "created_at": "9/12/2021 4:22:50 PM",
    "timestamp": 1631488970000,
    "description": "Low Acuity Response",
    "address": "4914 Sw Stevens St",
    "active": false,
    "unitCount": 1,
    "severity": 0,
    "lat": 47.577531,
    "long": -122.394383,
    "neighborhood": "West Seattle Junction/Genesee Hill",
    "neighborhoodGroup": "Southwest",
    "units": "E29"
  },
  {
    "id_str": "F210100981",
    "created_at": "9/12/2021 4:18:12 PM",
    "timestamp": 1631488692000,
    "description": "Illegal Burn",
    "address": "6508 8th Ave Nw",
    "active": false,
    "unitCount": 1,
    "severity": 0,
    "lat": 47.676048,
    "long": -122.366023,
    "neighborhood": "Greenwood/Phinney Ridge",
    "neighborhoodGroup": "Northwest",
    "units": "E21"
  },
  {
    "id_str": "F210100980",
    "created_at": "9/12/2021 4:11:39 PM",
    "timestamp": 1631488299000,
    "description": "Aid Response",
    "address": "6th Ave S / S Holgate St",
    "active": false,
    "unitCount": 1,
    "severity": 0,
    "lat": 47.586175,
    "long": -122.325975,
    "neighborhood": "Duwamish/SODO",
    "neighborhoodGroup": "Greater Duwamish",
    "units": "A14"
  },
  {
    "id_str": "F210100979",
    "created_at": "9/12/2021 4:10:17 PM",
    "timestamp": 1631488217000,
    "description": "Aid Response",
    "address": "111 Cedar St",
    "active": false,
    "unitCount": 1,
    "severity": 0,
    "lat": 47.615877,
    "long": -122.35052,
    "neighborhood": "Belltown",
    "neighborhoodGroup": "Downtown",
    "units": "E2"
  },
  {
    "id_str": "F210100978",
    "created_at": "9/12/2021 4:08:53 PM",
    "timestamp": 1631488133000,
    "description": "Aid Response",
    "address": "509 3rd Ave",
    "active": false,
    "unitCount": 1,
    "severity": 0,
    "lat": 47.602114,
    "long": -122.330809,
    "neighborhood": "Downtown Commercial Core",
    "neighborhoodGroup": "Downtown",
    "units": "A5"
  },
  {
    "id_str": "F210100976",
    "created_at": "9/12/2021 3:57:13 PM",
    "timestamp": 1631487433000,
    "description": "Aid Response",
    "address": "Delridge Way Sw / Sw Andover St",
    "active": false,
    "unitCount": 1,
    "severity": 0,
    "lat": 47.568347,
    "long": -122.363283,
    "neighborhood": "North Delridge",
    "neighborhoodGroup": "Delridge Neighborhoods",
    "units": "E36"
  },
  {
    "id_str": "F210100971",
    "created_at": "9/12/2021 3:52:23 PM",
    "timestamp": 1631487143000,
    "description": "Brush Fire",
    "address": "200 5th Ave S",
    "active": false,
    "unitCount": 1,
    "severity": 0,
    "lat": 47.600873,
    "long": -122.32766,
    "neighborhood": "Pioneer Square/International District",
    "neighborhoodGroup": "Downtown",
    "units": "E10"
  },
  {
    "id_str": "F210100970",
    "created_at": "9/12/2021 3:38:28 PM",
    "timestamp": 1631486308000,
    "description": "Aid Response",
    "address": "204 3rd Ave S",
    "active": false,
    "unitCount": 1,
    "severity": 0,
    "lat": 47.600843,
    "long": -122.330271,
    "neighborhood": "Pioneer Square/International District",
    "neighborhoodGroup": "Downtown",
    "units": "A10"
  },
  {
    "id_str": "F210100967",
    "created_at": "9/12/2021 3:29:54 PM",
    "timestamp": 1631485794000,
    "description": "Aid Response",
    "address": "6542 4th Ave Ne",
    "active": false,
    "unitCount": 2,
    "severity": 0,
    "lat": 47.676714,
    "long": -122.325148,
    "neighborhood": "Green Lake",
    "neighborhoodGroup": "Northwest",
    "units": "E31 L9"
  },
  {
    "id_str": "F210100966",
    "created_at": "9/12/2021 3:13:16 PM",
    "timestamp": 1631484796000,
    "description": "Aid Response",
    "address": "1431 Minor Ave",
    "active": false,
    "unitCount": 1,
    "severity": 0,
    "lat": 47.613247,
    "long": -122.327187,
    "neighborhood": "Capitol Hill",
    "neighborhoodGroup": "East",
    "units": "E25"
  },
  {
    "id_str": "F210100965",
    "created_at": "9/12/2021 3:06:16 PM",
    "timestamp": 1631484376000,
    "description": "MVI - Motor Vehicle Incident",
    "address": "SB I5 AT RAVENNA",
    "active": false,
    "unitCount": 3,
    "severity": 0,
    "lat": 47.668192,
    "long": -122.322245,
    "neighborhood": "Wallingford",
    "neighborhoodGroup": "Lake Union",
    "units": "A25 E16 E17"
  },
  {
    "id_str": "F210100964",
    "created_at": "9/12/2021 3:03:30 PM",
    "timestamp": 1631484210000,
    "description": "Aid Response",
    "address": "1417 Queen Anne Ave N",
    "active": false,
    "unitCount": 1,
    "severity": 0,
    "lat": 47.631471,
    "long": -122.356593,
    "neighborhood": "Queen Anne",
    "neighborhoodGroup": "Magnolia/Queen Anne",
    "units": "E8"
  },
  {
    "id_str": "F210100960",
    "created_at": "9/12/2021 2:56:41 PM",
    "timestamp": 1631483801000,
    "description": "Medic Response",
    "address": "7133 38th Ave S",
    "active": false,
    "unitCount": 2,
    "severity": 0,
    "lat": 47.538573,
    "long": -122.284738,
    "neighborhood": "South Beacon Hill/NewHolly",
    "neighborhoodGroup": "Greater Duwamish",
    "units": "L12 M10"
  },
  {
    "id_str": "F210100961",
    "created_at": "9/12/2021 2:56:12 PM",
    "timestamp": 1631483772000,
    "description": "Rubbish Fire",
    "address": "S Alaska St / M L King Jr Way S",
    "active": false,
    "unitCount": 1,
    "severity": 0,
    "lat": 47.560808,
    "long": -122.29324,
    "neighborhood": "Columbia City",
    "neighborhoodGroup": "Southeast",
    "units": "E28"
  },
  {
    "id_str": "F210100958",
    "created_at": "9/12/2021 2:41:34 PM",
    "timestamp": 1631482894000,
    "description": "Aid Response",
    "address": "2011 E Roy St",
    "active": false,
    "unitCount": 1,
    "severity": 0,
    "lat": 47.625225,
    "long": -122.305878,
    "neighborhood": "Miller Park",
    "neighborhoodGroup": "East",
    "units": "E25"
  },
  {
    "id_str": "F210100957",
    "created_at": "9/12/2021 2:38:51 PM",
    "timestamp": 1631482731000,
    "description": "Medic Response",
    "address": "15th Ave Sw / Sw Cambridge St",
    "active": false,
    "unitCount": 2,
    "severity": 0,
    "lat": 47.519193,
    "long": -122.354,
    "neighborhood": "Highland Park",
    "neighborhoodGroup": "Delridge Neighborhoods",
    "units": "E11 M32"
  },
  {
    "id_str": "F210100956",
    "created_at": "9/12/2021 2:38:26 PM",
    "timestamp": 1631482706000,
    "description": "MVI - Motor Vehicle Incident",
    "address": "Sw Admiral Way / 41st Ave Sw",
    "active": false,
    "unitCount": 1,
    "severity": 0,
    "lat": 47.581176,
    "long": -122.383889,
    "neighborhood": "Alki/Admiral",
    "neighborhoodGroup": "Southwest",
    "units": "E36"
  },
  {
    "id_str": "F210100955",
    "created_at": "9/12/2021 2:35:31 PM",
    "timestamp": 1631482531000,
    "description": "MVI - Motor Vehicle Incident",
    "address": "Ne 137th St / 30th Ave Ne",
    "active": false,
    "unitCount": 1,
    "severity": 0,
    "lat": 47.727908,
    "long": -122.296426,
    "neighborhood": "Cedar Park/Meadowbrook",
    "neighborhoodGroup": "North",
    "units": "E40"
  },
  {
    "id_str": "F210100953",
    "created_at": "9/12/2021 2:31:51 PM",
    "timestamp": 1631482311000,
    "description": "Aid Response",
    "address": "15th Ave Ne / Ne 143rd St",
    "active": false,
    "unitCount": 1,
    "severity": 0,
    "lat": 47.732126,
    "long": -122.312724,
    "neighborhood": "Olympic Hills/Victory Heights",
    "neighborhoodGroup": "North",
    "units": "E39"
  },
  {
    "id_str": "F210100952",
    "created_at": "9/12/2021 2:29:05 PM",
    "timestamp": 1631482145000,
    "description": "Low Acuity Response",
    "address": "3033 California Ave Sw",
    "active": false,
    "unitCount": 2,
    "severity": 0,
    "lat": 47.576766,
    "long": -122.386721,
    "neighborhood": "West Seattle Junction/Genesee Hill",
    "neighborhoodGroup": "Southwest",
    "units": "E32 E36"
  },
  {
    "id_str": "F210100950",
    "created_at": "9/12/2021 2:25:47 PM",
    "timestamp": 1631481947000,
    "description": "Aid Response",
    "address": "E Harrison St / Broadway E",
    "active": false,
    "unitCount": 1,
    "severity": 0,
    "lat": 47.621988,
    "long": -122.320906,
    "neighborhood": "Capitol Hill",
    "neighborhoodGroup": "East",
    "units": "A25"
  },
  {
    "id_str": "F210100949",
    "created_at": "9/12/2021 2:24:48 PM",
    "timestamp": 1631481888000,
    "description": "Activated CO Detector",
    "address": "5652 26th Ave Sw",
    "active": false,
    "unitCount": 1,
    "severity": 0,
    "lat": 47.551616,
    "long": -122.365565,
    "neighborhood": "High Point",
    "neighborhoodGroup": "Delridge Neighborhoods",
    "units": "L13"
  },
  {
    "id_str": "F210100946",
    "created_at": "9/12/2021 2:23:17 PM",
    "timestamp": 1631481797000,
    "description": "Aid Response",
    "address": "4219 7th Ave Ne",
    "active": false,
    "unitCount": 1,
    "severity": 0,
    "lat": 47.657876,
    "long": -122.320844,
    "neighborhood": "Wallingford",
    "neighborhoodGroup": "Lake Union",
    "units": "E31"
  },
  {
    "id_str": "F210100945",
    "created_at": "9/12/2021 2:22:41 PM",
    "timestamp": 1631481761000,
    "description": "Automatic Fire Alarm False",
    "address": "2425 Harbor Ave Sw",
    "active": false,
    "unitCount": 2,
    "severity": 0,
    "lat": 47.58175,
    "long": -122.37305,
    "neighborhood": "North Delridge",
    "neighborhoodGroup": "Delridge Neighborhoods",
    "units": "E13 E32"
  },
  {
    "id_str": "F210100939",
    "created_at": "9/12/2021 2:13:33 PM",
    "timestamp": 1631481213000,
    "description": "Investigate Out Of Service",
    "address": "S Alaska St / S Columbian Way",
    "active": false,
    "unitCount": 1,
    "severity": 0,
    "lat": 47.561637,
    "long": -122.297283,
    "neighborhood": "Beacon Hill",
    "neighborhoodGroup": "Greater Duwamish",
    "units": "E30"
  },
  {
    "id_str": "F210100938",
    "created_at": "9/12/2021 2:12:44 PM",
    "timestamp": 1631481164000,
    "description": "Aid Response",
    "address": "5900 37th Ave S",
    "active": false,
    "unitCount": 1,
    "severity": 0,
    "lat": 47.549748,
    "long": -122.286273,
    "neighborhood": "Columbia City",
    "neighborhoodGroup": "Southeast",
    "units": "E28"
  },
  {
    "id_str": "F210100937",
    "created_at": "9/12/2021 2:08:02 PM",
    "timestamp": 1631480882000,
    "description": "Medic Response",
    "address": "11248 Crestwood Dr S",
    "active": false,
    "unitCount": 3,
    "severity": 0,
    "lat": 47.502536,
    "long": -122.244372,
    "units": "E33 L12 M28"
  },
  {
    "id_str": "F210100936",
    "created_at": "9/12/2021 2:06:52 PM",
    "timestamp": 1631480812000,
    "description": "Rescue Elevator",
    "address": "3318 30th Ave Sw",
    "active": false,
    "unitCount": 2,
    "severity": 0,
    "lat": 47.573513,
    "long": -122.371453,
    "neighborhood": "North Delridge",
    "neighborhoodGroup": "Delridge Neighborhoods",
    "units": "L1 R1"
  },
  {
    "id_str": "F210100935",
    "created_at": "9/12/2021 2:02:24 PM",
    "timestamp": 1631480544000,
    "description": "AFA4 - Auto Alarm 2 + 1 + 1",
    "address": "1128 Sw Spokane St",
    "active": false,
    "unitCount": 4,
    "severity": 0,
    "lat": 47.571685,
    "long": -122.350839,
    "neighborhood": "North Delridge",
    "neighborhoodGroup": "Delridge Neighborhoods",
    "units": "B5 E13 E36 R1"
  },
  {
    "id_str": "F210100934",
    "created_at": "9/12/2021 2:02:11 PM",
    "timestamp": 1631480531000,
    "description": "AFA4 - Auto Alarm 2 + 1 + 1",
    "address": "1307 Harbor Ave Sw",
    "active": false,
    "unitCount": 4,
    "severity": 0,
    "lat": 47.592146,
    "long": -122.382763,
    "neighborhood": "Alki/Admiral",
    "neighborhoodGroup": "Southwest",
    "units": "B7 E29 E32 L11"
  },
  {
    "id_str": "F210100933",
    "created_at": "9/12/2021 2:00:19 PM",
    "timestamp": 1631480419000,
    "description": "Aid Response",
    "address": "715 2nd Ave W",
    "active": false,
    "unitCount": 2,
    "severity": 0,
    "lat": 47.625795,
    "long": -122.359313,
    "neighborhood": "Queen Anne",
    "neighborhoodGroup": "Magnolia/Queen Anne",
    "units": "E8 L6"
  },
  {
    "id_str": "F210100932",
    "created_at": "9/12/2021 1:59:40 PM",
    "timestamp": 1631480380000,
    "description": "Aid Response",
    "address": "13000 Lake City Way Ne",
    "active": false,
    "unitCount": 1,
    "severity": 0,
    "lat": 47.722899,
    "long": -122.293194,
    "neighborhood": "Cedar Park/Meadowbrook",
    "neighborhoodGroup": "North",
    "units": "E39"
  },
  {
    "id_str": "F210100931",
    "created_at": "9/12/2021 1:53:16 PM",
    "timestamp": 1631479996000,
    "description": "Auto Fire Alarm",
    "address": "533 3rd Ave W",
    "active": false,
    "unitCount": 2,
    "severity": 0,
    "lat": 47.623717,
    "long": -122.360635,
    "neighborhood": "Queen Anne",
    "neighborhoodGroup": "Magnolia/Queen Anne",
    "units": "E2 L6"
  },
  {
    "id_str": "F210100929",
    "created_at": "9/12/2021 1:36:23 PM",
    "timestamp": 1631478983000,
    "description": "Aid Response",
    "address": "9000 Rainier Ave S",
    "active": false,
    "unitCount": 1,
    "severity": 0,
    "lat": 47.523307,
    "long": -122.269986,
    "neighborhood": "Rainier Beach",
    "neighborhoodGroup": "Southeast",
    "units": "L12"
  },
  {
    "id_str": "F210100927",
    "created_at": "9/12/2021 1:35:34 PM",
    "timestamp": 1631478934000,
    "description": "Medic Response, 6 per Rule",
    "address": "29th Ave Sw / Sw Barton St",
    "active": false,
    "unitCount": 3,
    "severity": 0,
    "lat": 47.52104,
    "long": -122.369969,
    "neighborhood": "Roxhill/Westwood",
    "neighborhoodGroup": "Delridge Neighborhoods",
    "units": "E37 L13 M32"
  },
  {
    "id_str": "F210100925",
    "created_at": "9/12/2021 1:29:31 PM",
    "timestamp": 1631478571000,
    "description": "Natural Gas Odor",
    "address": "8002 Earl Ave Nw",
    "active": false,
    "unitCount": 1,
    "severity": 0,
    "lat": 47.686781,
    "long": -122.391927,
    "neighborhood": "Sunset Hill/Loyal Heights",
    "neighborhoodGroup": "Ballard",
    "units": "L8"
  },
  {
    "id_str": "F210100926",
    "created_at": "9/12/2021 1:28:35 PM",
    "timestamp": 1631478515000,
    "description": "Automatic Fire Alarm False",
    "address": "2406 NW 63RD ST",
    "active": false,
    "unitCount": 1,
    "severity": 0,
    "lat": 47.674559,
    "long": -122.387649,
    "neighborhood": "Sunset Hill/Loyal Heights",
    "neighborhoodGroup": "Ballard",
    "units": "E18"
  },
  {
    "id_str": "F210100924",
    "created_at": "9/12/2021 1:25:38 PM",
    "timestamp": 1631478338000,
    "description": "Automatic Fire Alarm Resd",
    "address": "2909 24th Ave W",
    "active": false,
    "unitCount": 1,
    "severity": 0,
    "lat": 47.646269,
    "long": -122.38756,
    "neighborhood": "Interbay",
    "neighborhoodGroup": "Magnolia/Queen Anne",
    "units": "E20"
  },
  {
    "id_str": "F210100923",
    "created_at": "9/12/2021 1:21:50 PM",
    "timestamp": 1631478110000,
    "description": "MVI - Motor Vehicle Incident",
    "address": "Spring St / Boylston Ave",
    "active": false,
    "unitCount": 1,
    "severity": 0,
    "lat": 47.611444,
    "long": -122.322462,
    "neighborhood": "Capitol Hill",
    "neighborhoodGroup": "East",
    "units": "E25"
  },
  {
    "id_str": "F210100922",
    "created_at": "9/12/2021 1:20:32 PM",
    "timestamp": 1631478032000,
    "description": "Aid Response",
    "address": "23rd Ave / E Cherry St",
    "active": false,
    "unitCount": 1,
    "severity": 0,
    "lat": 47.608009,
    "long": -122.30277,
    "neighborhood": "Central Area/Squire Park",
    "neighborhoodGroup": "Central",
    "units": "E6"
  },
  {
    "id_str": "F210100921",
    "created_at": "9/12/2021 1:04:32 PM",
    "timestamp": 1631477072000,
    "description": "Investigate Out Of Service",
    "address": "7087 Holly Park Dr S",
    "active": false,
    "unitCount": 1,
    "severity": 0,
    "lat": 47.539002,
    "long": -122.287357,
    "neighborhood": "South Beacon Hill/NewHolly",
    "neighborhoodGroup": "Greater Duwamish",
    "units": "L12"
  },
  {
    "id_str": "F210100920",
    "created_at": "9/12/2021 1:03:46 PM",
    "timestamp": 1631477026000,
    "description": "Aid Response",
    "address": "1911 22nd Ave S",
    "active": false,
    "unitCount": 1,
    "severity": 0,
    "lat": 47.586234,
    "long": -122.304237,
    "neighborhood": "North Beacon Hill/Jefferson Park",
    "neighborhoodGroup": "Greater Duwamish",
    "units": "E30"
  },
  {
    "id_str": "F210100917",
    "created_at": "9/12/2021 1:02:12 PM",
    "timestamp": 1631476932000,
    "description": "Auto Fire Alarm",
    "address": "4738 19th Ave Ne",
    "active": false,
    "unitCount": 2,
    "severity": 0,
    "lat": 47.663276,
    "long": -122.307215,
    "neighborhood": "University District",
    "neighborhoodGroup": "Northeast",
    "units": "E38 L9"
  },
  {
    "id_str": "F210100916",
    "created_at": "9/12/2021 12:56:28 PM",
    "timestamp": 1631476588000,
    "description": "Aid Response",
    "address": "1231 Ne 102nd St",
    "active": false,
    "unitCount": 1,
    "severity": 0,
    "lat": 47.702175,
    "long": -122.314726,
    "neighborhood": "Northgate/Maple Leaf",
    "neighborhoodGroup": "North",
    "units": "E16"
  },
  {
    "id_str": "F210100913",
    "created_at": "9/12/2021 12:54:04 PM",
    "timestamp": 1631476444000,
    "description": "Auto Fire Alarm",
    "address": "520 Terry Ave",
    "active": false,
    "unitCount": 2,
    "severity": 0,
    "lat": 47.605443,
    "long": -122.323115,
    "neighborhood": "First Hill",
    "neighborhoodGroup": "East",
    "units": "E10 L1"
  },
  {
    "id_str": "F210100910",
    "created_at": "9/12/2021 12:48:04 PM",
    "timestamp": 1631476084000,
    "description": "Medic Response",
    "address": "3504 S WEBSTER ST",
    "active": false,
    "unitCount": 2,
    "severity": 0,
    "lat": 47.535219,
    "long": -122.288146,
    "neighborhood": "South Beacon Hill/NewHolly",
    "neighborhoodGroup": "Greater Duwamish",
    "units": "E28 M28"
  },
  {
    "id_str": "F210100909",
    "created_at": "9/12/2021 12:46:48 PM",
    "timestamp": 1631476008000,
    "description": "Rescue Extrication",
    "address": "SB I5 AT DENNY",
    "active": false,
    "unitCount": 11,
    "severity": 2,
    "lat": 47.601669,
    "long": -122.324897,
    "neighborhood": "Pioneer Square/International District",
    "neighborhoodGroup": "Downtown",
    "units": "A5 B2 B6 E17 E22 L4 L9 M17 M44 R1 SAFT2"
  },
  {
    "id_str": "F210100907",
    "created_at": "9/12/2021 12:46:02 PM",
    "timestamp": 1631475962000,
    "description": "Aid Response",
    "address": "2414 Nw 64th St",
    "active": false,
    "unitCount": 1,
    "severity": 0,
    "lat": 47.675287,
    "long": -122.387751,
    "neighborhood": "Sunset Hill/Loyal Heights",
    "neighborhoodGroup": "Ballard",
    "units": "E18"
  },
  {
    "id_str": "F210100905",
    "created_at": "9/12/2021 12:43:36 PM",
    "timestamp": 1631475816000,
    "description": "Aid Response",
    "address": "1601 13th Ave",
    "active": false,
    "unitCount": 1,
    "severity": 0,
    "lat": 47.615273,
    "long": -122.315549,
    "neighborhood": "Capitol Hill",
    "neighborhoodGroup": "East",
    "units": "A25"
  },
  {
    "id_str": "F210100904",
    "created_at": "9/12/2021 12:40:51 PM",
    "timestamp": 1631475651000,
    "description": "Aid Response",
    "address": "7905 M L KING JR WAY S",
    "active": false,
    "unitCount": 1,
    "severity": 0,
    "lat": 47.530795,
    "long": -122.280778,
    "neighborhood": "South Beacon Hill/NewHolly",
    "neighborhoodGroup": "Greater Duwamish",
    "units": "E33"
  },
  {
    "id_str": "F210100902",
    "created_at": "9/12/2021 12:36:59 PM",
    "timestamp": 1631475419000,
    "description": "Auto Fire Alarm",
    "address": "5015 17th Ave Ne",
    "active": false,
    "unitCount": 2,
    "severity": 0,
    "lat": 47.664986,
    "long": -122.309673,
    "neighborhood": "University District",
    "neighborhoodGroup": "Northeast",
    "units": "E17 L9"
  },
  {
    "id_str": "F210100900",
    "created_at": "9/12/2021 12:35:30 PM",
    "timestamp": 1631475330000,
    "description": "Aid Response",
    "address": "Ne 71st St / Woodlawn Ave Ne",
    "active": false,
    "unitCount": 1,
    "severity": 0,
    "lat": 47.679799,
    "long": -122.32454,
    "neighborhood": "Green Lake",
    "neighborhoodGroup": "Northwest",
    "units": "E31"
  },
  {
    "id_str": "F210100899",
    "created_at": "9/12/2021 12:34:53 PM",
    "timestamp": 1631475293000,
    "description": "Low Acuity Response",
    "address": "3621 33rd Ave S",
    "active": false,
    "unitCount": 1,
    "severity": 0,
    "lat": 47.571408,
    "long": -122.291001,
    "neighborhood": "Columbia City",
    "neighborhoodGroup": "Southeast",
    "units": "E30"
  },
  {
    "id_str": "F210100898",
    "created_at": "9/12/2021 12:30:18 PM",
    "timestamp": 1631475018000,
    "description": "1RED 1 Unit",
    "address": "3022 Sw Bradford St",
    "active": false,
    "unitCount": 1,
    "severity": 0,
    "lat": 47.569237,
    "long": -122.371433,
    "neighborhood": "North Delridge",
    "neighborhoodGroup": "Delridge Neighborhoods",
    "units": "E36"
  },
  {
    "id_str": "F210100897",
    "created_at": "9/12/2021 12:28:09 PM",
    "timestamp": 1631474889000,
    "description": "Aid Response",
    "address": "1605 Ne 73rd St",
    "active": false,
    "unitCount": 1,
    "severity": 0,
    "lat": 47.681221,
    "long": -122.310915,
    "neighborhood": "Ravenna/Bryant",
    "neighborhoodGroup": "Northeast",
    "units": "E16"
  },
  {
    "id_str": "F210100896",
    "created_at": "9/12/2021 12:25:44 PM",
    "timestamp": 1631474744000,
    "description": "Aid Response",
    "address": "7732 30th Ave Sw",
    "active": false,
    "unitCount": 1,
    "severity": 0,
    "lat": 47.533429,
    "long": -122.371163,
    "neighborhood": "Roxhill/Westwood",
    "neighborhoodGroup": "Delridge Neighborhoods",
    "units": "E37"
  },
  {
    "id_str": "F210100893",
    "created_at": "9/12/2021 12:16:03 PM",
    "timestamp": 1631474163000,
    "description": "Automatic Fire Alarm Resd",
    "address": "1420 Sw Sullivan St",
    "active": false,
    "unitCount": 1,
    "severity": 0,
    "lat": 47.527434,
    "long": -122.35331,
    "neighborhood": "Highland Park",
    "neighborhoodGroup": "Delridge Neighborhoods",
    "units": "E11"
  },
  {
    "id_str": "F210100891",
    "created_at": "9/12/2021 12:02:40 PM",
    "timestamp": 1631473360000,
    "description": "Aid Response",
    "address": "719 22nd Ave",
    "active": false,
    "unitCount": 1,
    "severity": 0,
    "lat": 47.608197,
    "long": -122.303721,
    "neighborhood": "Central Area/Squire Park",
    "neighborhoodGroup": "Central",
    "units": "E6"
  },
  {
    "id_str": "F210100890",
    "created_at": "9/12/2021 12:00:48 PM",
    "timestamp": 1631473248000,
    "description": "Aid Response",
    "address": "N 87th St / Greenwood Ave N",
    "active": false,
    "unitCount": 1,
    "severity": 0,
    "lat": 47.692418,
    "long": -122.355321,
    "neighborhood": "Greenwood/Phinney Ridge",
    "neighborhoodGroup": "Northwest",
    "units": "E35"
  },
  {
    "id_str": "F210100889",
    "created_at": "9/12/2021 11:50:22 AM",
    "timestamp": 1631472622000,
    "description": "Aid Response",
    "address": "7326 57th Ave Ne",
    "active": false,
    "unitCount": 1,
    "severity": 0,
    "lat": 47.681504,
    "long": -122.267016,
    "neighborhood": "Laurelhurst/Sand Point",
    "neighborhoodGroup": "Northeast",
    "units": "E40"
  },
  {
    "id_str": "F210100888",
    "created_at": "9/12/2021 11:49:37 AM",
    "timestamp": 1631472577000,
    "description": "Aid Response",
    "address": "2801 Western Ave",
    "active": false,
    "unitCount": 1,
    "severity": 0,
    "lat": 47.615689,
    "long": -122.352409,
    "neighborhood": "Belltown",
    "neighborhoodGroup": "Downtown",
    "units": "E2"
  },
  {
    "id_str": "F210100886",
    "created_at": "9/12/2021 11:48:48 AM",
    "timestamp": 1631472528000,
    "description": "Aid Response",
    "address": "15th Ave E / E John St",
    "active": false,
    "unitCount": 1,
    "severity": 0,
    "lat": 47.619967,
    "long": -122.312719,
    "neighborhood": "Capitol Hill",
    "neighborhoodGroup": "East",
    "units": "A25"
  },
  {
    "id_str": "F210100885",
    "created_at": "9/12/2021 11:46:29 AM",
    "timestamp": 1631472389000,
    "description": "Aid Response",
    "address": "7326 11th Ave Ne",
    "active": false,
    "unitCount": 1,
    "severity": 0,
    "lat": 47.681739,
    "long": -122.316406,
    "neighborhood": "Ravenna/Bryant",
    "neighborhoodGroup": "Northeast",
    "units": "L9"
  },
  {
    "id_str": "F210100884",
    "created_at": "9/12/2021 11:45:44 AM",
    "timestamp": 1631472344000,
    "description": "Aid Response",
    "address": "1039 6th Ave S",
    "active": false,
    "unitCount": 2,
    "severity": 0,
    "lat": 47.593751,
    "long": -122.325968,
    "neighborhood": "Duwamish/SODO",
    "neighborhoodGroup": "Greater Duwamish",
    "units": "A10 M1"
  },
  {
    "id_str": "F210100883",
    "created_at": "9/12/2021 11:43:02 AM",
    "timestamp": 1631472182000,
    "description": "Aid Response",
    "address": "800 Jefferson St",
    "active": false,
    "unitCount": 1,
    "severity": 0,
    "lat": 47.604377,
    "long": -122.325207,
    "neighborhood": "First Hill",
    "neighborhoodGroup": "East",
    "units": "A5"
  },
  {
    "id_str": "F210100881",
    "created_at": "9/12/2021 11:40:48 AM",
    "timestamp": 1631472048000,
    "description": "Aid Response",
    "address": "8558 Nesbit Ave N",
    "active": false,
    "unitCount": 1,
    "severity": 0,
    "lat": 47.690902,
    "long": -122.343453,
    "neighborhood": "Licton Springs",
    "neighborhoodGroup": "Northwest",
    "units": "E21"
  },
  {
    "id_str": "F210100880",
    "created_at": "9/12/2021 11:37:17 AM",
    "timestamp": 1631471837000,
    "description": "Low Acuity Response",
    "address": "9811 California Ave Sw",
    "active": false,
    "unitCount": 1,
    "severity": 0,
    "lat": 47.515534,
    "long": -122.387511,
    "neighborhood": "Arbor Heights",
    "neighborhoodGroup": "Southwest",
    "units": "E37"
  },
  {
    "id_str": "F210100879",
    "created_at": "9/12/2021 11:32:31 AM",
    "timestamp": 1631471551000,
    "description": "Auto Fire Alarm",
    "address": "2629 Sw Andover St",
    "active": false,
    "unitCount": 2,
    "severity": 0,
    "lat": 47.568343,
    "long": -122.365804,
    "neighborhood": "North Delridge",
    "neighborhoodGroup": "Delridge Neighborhoods",
    "units": "E36 L11"
  },
  {
    "id_str": "F210100878",
    "created_at": "9/12/2021 11:21:48 AM",
    "timestamp": 1631470908000,
    "description": "Aid Response",
    "address": "4455 SHILSHOLE AVE NW",
    "active": false,
    "unitCount": 1,
    "severity": 0,
    "lat": 47.661344,
    "long": -122.375508,
    "neighborhood": "Ballard",
    "neighborhoodGroup": "Ballard",
    "units": "E18"
  },
  {
    "id_str": "F210100877",
    "created_at": "9/12/2021 11:19:08 AM",
    "timestamp": 1631470748000,
    "description": "Auto Fire Alarm",
    "address": "1701 Nw 56th St",
    "active": false,
    "unitCount": 2,
    "severity": 0,
    "lat": 47.669446,
    "long": -122.378884,
    "neighborhood": "Ballard",
    "neighborhoodGroup": "Ballard",
    "units": "E18 L8"
  },
  {
    "id_str": "F210100876",
    "created_at": "9/12/2021 11:15:09 AM",
    "timestamp": 1631470509000,
    "description": "Aid Response",
    "address": "6555 38th Ave S",
    "active": false,
    "unitCount": 2,
    "severity": 0,
    "lat": 47.543577,
    "long": -122.284816,
    "neighborhood": "South Beacon Hill/NewHolly",
    "neighborhoodGroup": "Greater Duwamish",
    "units": "E28 E30"
  },
  {
    "id_str": "F210100875",
    "created_at": "9/12/2021 11:12:17 AM",
    "timestamp": 1631470337000,
    "description": "Aid Response",
    "address": "1632 S Weller St",
    "active": false,
    "unitCount": 1,
    "severity": 0,
    "lat": 47.597488,
    "long": -122.311161,
    "neighborhood": "Judkins Park",
    "neighborhoodGroup": "Central",
    "units": "E6"
  },
  {
    "id_str": "F210100874",
    "created_at": "9/12/2021 11:06:04 AM",
    "timestamp": 1631469964000,
    "description": "Unk Odor",
    "address": "1005 Terrace St",
    "active": false,
    "unitCount": 1,
    "severity": 0,
    "lat": 47.604615,
    "long": -122.32228,
    "neighborhood": "First Hill",
    "neighborhoodGroup": "East",
    "units": "E10"
  },
  {
    "id_str": "F210100871",
    "created_at": "9/12/2021 10:50:04 AM",
    "timestamp": 1631469004000,
    "description": "Aid Response",
    "address": "1111 E Olive St",
    "active": false,
    "unitCount": 1,
    "severity": 0,
    "lat": 47.616423,
    "long": -122.318032,
    "neighborhood": "Capitol Hill",
    "neighborhoodGroup": "East",
    "units": "A25"
  },
  {
    "id_str": "F210100869",
    "created_at": "9/12/2021 10:33:38 AM",
    "timestamp": 1631468018000,
    "description": "Aid Response",
    "address": "N 50th St / Whitman Ave N",
    "active": false,
    "unitCount": 2,
    "severity": 0,
    "lat": 47.665045,
    "long": -122.346064,
    "neighborhood": "Green Lake",
    "neighborhoodGroup": "Northwest",
    "units": "E17 E31"
  },
  {
    "id_str": "F210100867",
    "created_at": "9/12/2021 10:28:53 AM",
    "timestamp": 1631467733000,
    "description": "Investigate Out Of Service",
    "address": "2833 SW YANCY ST",
    "active": false,
    "unitCount": 1,
    "severity": 0,
    "lat": 47.567609,
    "long": -122.370765,
    "neighborhood": "North Delridge",
    "neighborhoodGroup": "Delridge Neighborhoods",
    "units": "E32"
  },
  {
    "id_str": "F210100866",
    "created_at": "9/12/2021 10:11:26 AM",
    "timestamp": 1631466686000,
    "description": "Aid Response",
    "address": "2451 Aurora Ave N",
    "active": false,
    "unitCount": 1,
    "severity": 0,
    "lat": 47.64231,
    "long": -122.346999,
    "neighborhood": "Queen Anne",
    "neighborhoodGroup": "Magnolia/Queen Anne",
    "units": "E9"
  },
  {
    "id_str": "F210100865",
    "created_at": "9/12/2021 10:04:38 AM",
    "timestamp": 1631466278000,
    "description": "Rescue Elevator",
    "address": "5300 Tallman Ave Nw",
    "active": false,
    "unitCount": 1,
    "severity": 0,
    "lat": 47.667252,
    "long": -122.380052,
    "neighborhood": "Ballard",
    "neighborhoodGroup": "Ballard",
    "units": "L8"
  },
  {
    "id_str": "F210100864",
    "created_at": "9/12/2021 10:04:28 AM",
    "timestamp": 1631466268000,
    "description": "Encampment Fire",
    "address": "S MYRTLE ST / 7TH AVE S",
    "active": false,
    "unitCount": 1,
    "severity": 0,
    "lat": 47.539434,
    "long": -122.3219,
    "neighborhood": "Georgetown",
    "neighborhoodGroup": "Greater Duwamish",
    "units": "E27"
  },
  {
    "id_str": "F210100863",
    "created_at": "9/12/2021 9:58:55 AM",
    "timestamp": 1631465935000,
    "description": "Aid Response",
    "address": "415 10th Ave",
    "active": false,
    "unitCount": 1,
    "severity": 0,
    "lat": 47.605346,
    "long": -122.319413,
    "neighborhood": "First Hill",
    "neighborhoodGroup": "East",
    "units": "A10"
  },
  {
    "id_str": "F210100861",
    "created_at": "9/12/2021 9:56:15 AM",
    "timestamp": 1631465775000,
    "description": "Illegal Burn",
    "address": "9000 8th Ave Sw",
    "active": false,
    "unitCount": 1,
    "severity": 0,
    "lat": 47.5228,
    "long": -122.345453,
    "neighborhood": "Highland Park",
    "neighborhoodGroup": "Delridge Neighborhoods",
    "units": "E11"
  },
  {
    "id_str": "F210100859",
    "created_at": "9/12/2021 9:50:15 AM",
    "timestamp": 1631465415000,
    "description": "Aid Response",
    "address": "1200 University St",
    "active": false,
    "unitCount": 1,
    "severity": 0,
    "lat": 47.611943,
    "long": -122.325987,
    "neighborhood": "First Hill",
    "neighborhoodGroup": "East",
    "units": "A25"
  },
  {
    "id_str": "F210100858",
    "created_at": "9/12/2021 9:47:10 AM",
    "timestamp": 1631465230000,
    "description": "Aid Response",
    "address": "QUEEN ANNE DR / RAYE ST",
    "active": false,
    "unitCount": 1,
    "severity": 0,
    "lat": 47.64324,
    "long": -122.356888,
    "neighborhood": "Queen Anne",
    "neighborhoodGroup": "Magnolia/Queen Anne",
    "units": "E8"
  },
  {
    "id_str": "F210100857",
    "created_at": "9/12/2021 9:45:56 AM",
    "timestamp": 1631465156000,
    "description": "Aid Response",
    "address": "9220 2ND AVE SW",
    "active": false,
    "unitCount": 1,
    "severity": 0,
    "lat": 47.520903,
    "long": -122.335815,
    "units": "E26"
  },
  {
    "id_str": "F210100856",
    "created_at": "9/12/2021 9:39:02 AM",
    "timestamp": 1631464742000,
    "description": "Medic Response",
    "address": "1922 9th Ave",
    "active": false,
    "unitCount": 2,
    "severity": 0,
    "lat": 47.615781,
    "long": -122.334715,
    "neighborhood": "Cascade/Eastlake",
    "neighborhoodGroup": "Lake Union",
    "units": "E2 M10"
  },
  {
    "id_str": "F210100853",
    "created_at": "9/12/2021 9:19:06 AM",
    "timestamp": 1631463546000,
    "description": "Encampment Fire",
    "address": "104 14th Ave E",
    "active": false,
    "unitCount": 1,
    "severity": 0,
    "lat": 47.618824,
    "long": -122.3143,
    "neighborhood": "Capitol Hill",
    "neighborhoodGroup": "East",
    "units": "E25"
  },
  {
    "id_str": "F210100850",
    "created_at": "9/12/2021 9:12:04 AM",
    "timestamp": 1631463124000,
    "description": "Aid Response",
    "address": "3033 California Ave Sw",
    "active": false,
    "unitCount": 1,
    "severity": 0,
    "lat": 47.576766,
    "long": -122.386721,
    "neighborhood": "West Seattle Junction/Genesee Hill",
    "neighborhoodGroup": "Southwest",
    "units": "E32"
  },
  {
    "id_str": "F210100849",
    "created_at": "9/12/2021 9:10:43 AM",
    "timestamp": 1631463043000,
    "description": "Medic Response",
    "address": "801 4th Ave N",
    "active": false,
    "unitCount": 2,
    "severity": 0,
    "lat": 47.626286,
    "long": -122.348863,
    "neighborhood": "Queen Anne",
    "neighborhoodGroup": "Magnolia/Queen Anne",
    "units": "L6 M1"
  },
  {
    "id_str": "F210100848",
    "created_at": "9/12/2021 8:58:29 AM",
    "timestamp": 1631462309000,
    "description": "Aid Response",
    "address": "2000 Airport Way S",
    "active": false,
    "unitCount": 1,
    "severity": 0,
    "lat": 47.585559,
    "long": -122.321394,
    "neighborhood": "Duwamish/SODO",
    "neighborhoodGroup": "Greater Duwamish",
    "units": "A14"
  },
  {
    "id_str": "F210100847",
    "created_at": "9/12/2021 8:57:23 AM",
    "timestamp": 1631462243000,
    "description": "Illegal Burn",
    "address": "304 Bell St",
    "active": false,
    "unitCount": 1,
    "severity": 0,
    "lat": 47.614732,
    "long": -122.344759,
    "neighborhood": "Cascade/Eastlake",
    "neighborhoodGroup": "Lake Union",
    "units": "E2"
  },
  {
    "id_str": "F210100846",
    "created_at": "9/12/2021 8:56:27 AM",
    "timestamp": 1631462187000,
    "description": "Aid Response",
    "address": "202 W Boston St",
    "active": false,
    "unitCount": 1,
    "severity": 0,
    "lat": 47.638383,
    "long": -122.359619,
    "neighborhood": "Queen Anne",
    "neighborhoodGroup": "Magnolia/Queen Anne",
    "units": "E8"
  },
  {
    "id_str": "F210100843",
    "created_at": "9/12/2021 8:48:42 AM",
    "timestamp": 1631461722000,
    "description": "Aid Response",
    "address": "1156 Alki Ave Sw",
    "active": false,
    "unitCount": 1,
    "severity": 0,
    "lat": 47.595118,
    "long": -122.386989,
    "neighborhood": "Alki/Admiral",
    "neighborhoodGroup": "Southwest",
    "units": "E29"
  },
  {
    "id_str": "F210100842",
    "created_at": "9/12/2021 8:48:12 AM",
    "timestamp": 1631461692000,
    "description": "Medic Response, 7 per Rule",
    "address": "8816 5th Ave Ne",
    "active": false,
    "unitCount": 4,
    "severity": 0,
    "lat": 47.692361,
    "long": -122.323023,
    "neighborhood": "Northgate/Maple Leaf",
    "neighborhoodGroup": "North",
    "units": "E16 E17 E31 M17"
  },
  {
    "id_str": "F210100840",
    "created_at": "9/12/2021 8:39:30 AM",
    "timestamp": 1631461170000,
    "description": "Rubbish Fire",
    "address": "3rd Ave / Battery St",
    "active": false,
    "unitCount": 1,
    "severity": 0,
    "lat": 47.615473,
    "long": -122.346094,
    "neighborhood": "Cascade/Eastlake",
    "neighborhoodGroup": "Lake Union",
    "units": "E2"
  },
  {
    "id_str": "F210100839",
    "created_at": "9/12/2021 8:37:18 AM",
    "timestamp": 1631461038000,
    "description": "Aid Response",
    "address": "Alaskan Way / Columbia St",
    "active": false,
    "unitCount": 1,
    "severity": 0,
    "lat": 47.602348,
    "long": -122.337148,
    "neighborhood": "Downtown Commercial Core",
    "neighborhoodGroup": "Downtown",
    "units": "E5"
  },
  {
    "id_str": "F210100837",
    "created_at": "9/12/2021 8:19:22 AM",
    "timestamp": 1631459962000,
    "description": "AFA4 - Auto Alarm 2 + 1 + 1",
    "address": "1800 S Jackson St",
    "active": false,
    "unitCount": 4,
    "severity": 0,
    "lat": 47.599239,
    "long": -122.308968,
    "neighborhood": "Judkins Park",
    "neighborhoodGroup": "Central",
    "units": "B2 E10 E25 L3"
  },
  {
    "id_str": "F210100836",
    "created_at": "9/12/2021 8:09:36 AM",
    "timestamp": 1631459376000,
    "description": "Aid Response",
    "address": "1105 E Fir St",
    "active": false,
    "unitCount": 1,
    "severity": 0,
    "lat": 47.602688,
    "long": -122.318034,
    "neighborhood": "First Hill",
    "neighborhoodGroup": "East",
    "units": "A5"
  },
  {
    "id_str": "F210100835",
    "created_at": "9/12/2021 8:04:46 AM",
    "timestamp": 1631459086000,
    "description": "Automatic Fire Alarm Resd",
    "address": "2524 36th Ave W",
    "active": false,
    "unitCount": 1,
    "severity": 0,
    "lat": 47.642062,
    "long": -122.403895,
    "neighborhood": "Magnolia",
    "neighborhoodGroup": "Magnolia/Queen Anne",
    "units": "E41"
  },
  {
    "id_str": "F210100834",
    "created_at": "9/12/2021 8:02:43 AM",
    "timestamp": 1631458963000,
    "description": "Aid Response",
    "address": "1126 M L King Jr Way",
    "active": false,
    "unitCount": 1,
    "severity": 0,
    "lat": 47.611729,
    "long": -122.296223,
    "neighborhood": "Central Area/Squire Park",
    "neighborhoodGroup": "Central",
    "units": "E6"
  },
  {
    "id_str": "F210100833",
    "created_at": "9/12/2021 7:38:18 AM",
    "timestamp": 1631457498000,
    "description": "Aid Response",
    "address": "605 1st Ave",
    "active": false,
    "unitCount": 1,
    "severity": 0,
    "lat": 47.601757,
    "long": -122.334179,
    "neighborhood": "Downtown Commercial Core",
    "neighborhoodGroup": "Downtown",
    "units": "A10"
  },
  {
    "id_str": "F210100831",
    "created_at": "9/12/2021 7:27:42 AM",
    "timestamp": 1631456862000,
    "description": "Aid Response",
    "address": "24th Ave Nw / Nw 59th St",
    "active": false,
    "unitCount": 3,
    "severity": 0,
    "lat": 47.671645,
    "long": -122.387587,
    "neighborhood": "Sunset Hill/Loyal Heights",
    "neighborhoodGroup": "Ballard",
    "units": "E18 L8 M18"
  },
  {
    "id_str": "F210100829",
    "created_at": "9/12/2021 7:24:39 AM",
    "timestamp": 1631456679000,
    "description": "Aid Response",
    "address": "13000 Linden Ave N",
    "active": false,
    "unitCount": 1,
    "severity": 0,
    "lat": 47.723218,
    "long": -122.348195,
    "neighborhood": "Broadview/Bitter Lake",
    "neighborhoodGroup": "Northwest",
    "units": "E24"
  },
  {
    "id_str": "F210100827",
    "created_at": "9/12/2021 7:15:03 AM",
    "timestamp": 1631456103000,
    "description": "Aid Response",
    "address": "2024 3rd Ave",
    "active": false,
    "unitCount": 1,
    "severity": 0,
    "lat": 47.612578,
    "long": -122.341197,
    "neighborhood": "Cascade/Eastlake",
    "neighborhoodGroup": "Lake Union",
    "units": "E2"
  },
  {
    "id_str": "F210100826",
    "created_at": "9/12/2021 7:14:07 AM",
    "timestamp": 1631456047000,
    "description": "Aid Response",
    "address": "6532 Phinney Ave N",
    "active": false,
    "unitCount": 1,
    "severity": 0,
    "lat": 47.676558,
    "long": -122.354356,
    "neighborhood": "Greenwood/Phinney Ridge",
    "neighborhoodGroup": "Northwest",
    "units": "E21"
  },
  {
    "id_str": "F210100825",
    "created_at": "9/12/2021 7:08:34 AM",
    "timestamp": 1631455714000,
    "description": "Low Acuity Response",
    "address": "8511 15th Ave Ne",
    "active": false,
    "unitCount": 1,
    "severity": 0,
    "lat": 47.690434,
    "long": -122.31223,
    "neighborhood": "Northgate/Maple Leaf",
    "neighborhoodGroup": "North",
    "units": "E16"
  },
  {
    "id_str": "F210100822",
    "created_at": "9/12/2021 6:55:41 AM",
    "timestamp": 1631454941000,
    "description": "MVI - Motor Vehicle Incident",
    "address": "Rainier Ave S / Letitia Ave S",
    "active": false,
    "unitCount": 1,
    "severity": 0,
    "lat": 47.569771,
    "long": -122.290699,
    "neighborhood": "Columbia City",
    "neighborhoodGroup": "Southeast",
    "units": "E13"
  },
  {
    "id_str": "F210100821",
    "created_at": "9/12/2021 6:54:25 AM",
    "timestamp": 1631454865000,
    "description": "MVI - Motor Vehicle Incident",
    "address": "Renton Ave S / 57th Ave S",
    "active": false,
    "unitCount": 1,
    "severity": 0,
    "lat": 47.511881,
    "long": -122.262064,
    "neighborhood": "Rainier Beach",
    "neighborhoodGroup": "Southeast",
    "units": "E28"
  },
  {
    "id_str": "F210100820",
    "created_at": "9/12/2021 6:45:21 AM",
    "timestamp": 1631454321000,
    "description": "Aid Response",
    "address": "1100 Broadway",
    "active": false,
    "unitCount": 1,
    "severity": 0,
    "lat": 47.611259,
    "long": -122.32076,
    "neighborhood": "Capitol Hill",
    "neighborhoodGroup": "East",
    "units": "A25"
  },
  {
    "id_str": "F210100818",
    "created_at": "9/12/2021 6:44:19 AM",
    "timestamp": 1631454259000,
    "description": "Aid Response",
    "address": "3304 27th Ave S",
    "active": false,
    "unitCount": 1,
    "severity": 0,
    "lat": 47.57389,
    "long": -122.297723,
    "neighborhood": "North Beacon Hill/Jefferson Park",
    "neighborhoodGroup": "Greater Duwamish",
    "units": "E30"
  },
  {
    "id_str": "F210100817",
    "created_at": "9/12/2021 6:30:09 AM",
    "timestamp": 1631453409000,
    "description": "Medic Response",
    "address": "8124 Rainier Ave S",
    "active": false,
    "unitCount": 2,
    "severity": 0,
    "lat": 47.53025,
    "long": -122.269989,
    "neighborhood": "Rainier Beach",
    "neighborhoodGroup": "Southeast",
    "units": "E33 M28"
  },
  {
    "id_str": "F210100815",
    "created_at": "9/12/2021 6:11:38 AM",
    "timestamp": 1631452298000,
    "description": "1RED 1 Unit",
    "address": "924 16th Ave",
    "active": false,
    "unitCount": 1,
    "severity": 0,
    "lat": 47.610508,
    "long": -122.311487,
    "neighborhood": "Central Area/Squire Park",
    "neighborhoodGroup": "Central",
    "units": "E25"
  },
  {
    "id_str": "F210100814",
    "created_at": "9/12/2021 6:08:47 AM",
    "timestamp": 1631452127000,
    "description": "Auto Fire Alarm",
    "address": "1200 Western Ave",
    "active": false,
    "unitCount": 2,
    "severity": 0,
    "lat": 47.605657,
    "long": -122.338654,
    "neighborhood": "Downtown Commercial Core",
    "neighborhoodGroup": "Downtown",
    "units": "E5 L1"
  },
  {
    "id_str": "F210100812",
    "created_at": "9/12/2021 5:50:34 AM",
    "timestamp": 1631451034000,
    "description": "1RED 1 Unit",
    "address": "801 Alaskan Way",
    "active": false,
    "unitCount": 1,
    "severity": 0,
    "lat": 47.602348,
    "long": -122.337148,
    "neighborhood": "Downtown Commercial Core",
    "neighborhoodGroup": "Downtown",
    "units": "E5"
  },
  {
    "id_str": "F210100811",
    "created_at": "9/12/2021 5:46:38 AM",
    "timestamp": 1631450798000,
    "description": "Aid Response",
    "address": "223 W Galer St",
    "active": false,
    "unitCount": 1,
    "severity": 0,
    "lat": 47.632321,
    "long": -122.359809,
    "neighborhood": "Queen Anne",
    "neighborhoodGroup": "Magnolia/Queen Anne",
    "units": "L6"
  },
  {
    "id_str": "F210100810",
    "created_at": "9/12/2021 5:43:59 AM",
    "timestamp": 1631450639000,
    "description": "Medic Response",
    "address": "7020 Rainier Ave S",
    "active": false,
    "unitCount": 2,
    "severity": 0,
    "lat": 47.539621,
    "long": -122.270898,
    "neighborhood": "Seward Park",
    "neighborhoodGroup": "Southeast",
    "units": "L12 M28"
  },
  {
    "id_str": "F210100808",
    "created_at": "9/12/2021 5:38:48 AM",
    "timestamp": 1631450328000,
    "description": "Medic Response",
    "address": "9455 27th Ave Sw",
    "active": false,
    "unitCount": 2,
    "severity": 0,
    "lat": 47.518178,
    "long": -122.367277,
    "neighborhood": "Roxhill/Westwood",
    "neighborhoodGroup": "Delridge Neighborhoods",
    "units": "E37 M26"
  },
  {
    "id_str": "F210100807",
    "created_at": "9/12/2021 5:21:16 AM",
    "timestamp": 1631449276000,
    "description": "Aid Response",
    "address": "24th Ave S / S Main St",
    "active": false,
    "unitCount": 1,
    "severity": 0,
    "lat": 47.60032,
    "long": -122.301119,
    "neighborhood": "Madrona/Leschi",
    "neighborhoodGroup": "Central",
    "units": "E6"
  },
  {
    "id_str": "F210100805",
    "created_at": "9/12/2021 5:18:38 AM",
    "timestamp": 1631449118000,
    "description": "Medic Response",
    "address": "4760 32nd Ave S",
    "active": false,
    "unitCount": 2,
    "severity": 0,
    "lat": 47.55988,
    "long": -122.291492,
    "neighborhood": "Columbia City",
    "neighborhoodGroup": "Southeast",
    "units": "E28 M10"
  },
  {
    "id_str": "F210100804",
    "created_at": "9/12/2021 5:05:31 AM",
    "timestamp": 1631448331000,
    "description": "Medic Response",
    "address": "4803 S Henderson St",
    "active": false,
    "unitCount": 2,
    "severity": 0,
    "lat": 47.52331,
    "long": -122.272812,
    "neighborhood": "Rainier Beach",
    "neighborhoodGroup": "Southeast",
    "units": "E33 M28"
  },
  {
    "id_str": "F210100802",
    "created_at": "9/12/2021 4:47:29 AM",
    "timestamp": 1631447249000,
    "description": "Automatic Fire Alarm Resd",
    "address": "2611 Sw Nevada St",
    "active": false,
    "unitCount": 1,
    "severity": 0,
    "lat": 47.565449,
    "long": -122.365606,
    "neighborhood": "North Delridge",
    "neighborhoodGroup": "Delridge Neighborhoods",
    "units": "E36"
  },
  {
    "id_str": "F210100801",
    "created_at": "9/12/2021 4:33:27 AM",
    "timestamp": 1631446407000,
    "description": "Unk Odor",
    "address": "724 N 104th St",
    "active": false,
    "unitCount": 1,
    "severity": 0,
    "lat": 47.704342,
    "long": -122.349743,
    "neighborhood": "Licton Springs",
    "neighborhoodGroup": "Northwest",
    "units": "E35"
  },
  {
    "id_str": "F210100800",
    "created_at": "9/12/2021 4:24:28 AM",
    "timestamp": 1631445868000,
    "description": "Encampment Medic",
    "address": "13055 1st Ave Ne",
    "active": false,
    "unitCount": 2,
    "severity": 0,
    "lat": 47.723496,
    "long": -122.328914,
    "neighborhood": "Haller Lake",
    "neighborhoodGroup": "Northwest",
    "units": "E24 M17"
  },
  {
    "id_str": "F210100799",
    "created_at": "9/12/2021 3:59:00 AM",
    "timestamp": 1631444340000,
    "description": "Aid Response",
    "address": "810 Virginia St",
    "active": false,
    "unitCount": 1,
    "severity": 0,
    "lat": 47.615789,
    "long": -122.336507,
    "neighborhood": "Cascade/Eastlake",
    "neighborhoodGroup": "Lake Union",
    "units": "E2"
  },
  {
    "id_str": "F210100798",
    "created_at": "9/12/2021 3:48:01 AM",
    "timestamp": 1631443681000,
    "description": "Medic Response",
    "address": "4708 S Bond St",
    "active": false,
    "unitCount": 2,
    "severity": 0,
    "lat": 47.514284,
    "long": -122.273491,
    "neighborhood": "South Beacon Hill/NewHolly",
    "neighborhoodGroup": "Greater Duwamish",
    "units": "E33 M28"
  },
  {
    "id_str": "F210100797",
    "created_at": "9/12/2021 3:46:28 AM",
    "timestamp": 1631443588000,
    "description": "Fire in Building",
    "address": "604 E Howell St",
    "active": false,
    "unitCount": 19,
    "severity": 2,
    "lat": 47.617746,
    "long": -122.324462,
    "neighborhood": "Capitol Hill",
    "neighborhoodGroup": "East",
    "units": "A25 AIR10 B2 B6 DEP1 E10 E2 E22 E25 E5 L1 L10 L4 M1 M44 MAR5 REHAB1 SAFT2 STAF10"
  },
  {
    "id_str": "F210100796",
    "created_at": "9/12/2021 3:43:29 AM",
    "timestamp": 1631443409000,
    "description": "Aid Response",
    "address": "12507 Greenwood Ave N",
    "active": false,
    "unitCount": 2,
    "severity": 0,
    "lat": 47.719656,
    "long": -122.355539,
    "neighborhood": "Broadview/Bitter Lake",
    "neighborhoodGroup": "Northwest",
    "units": "A25 E24"
  },
  {
    "id_str": "F210100791",
    "created_at": "9/12/2021 3:09:10 AM",
    "timestamp": 1631441350000,
    "description": "Aid Response",
    "address": "109 Occidental Ave S",
    "active": false,
    "unitCount": 1,
    "severity": 0,
    "lat": 47.601644,
    "long": -122.332874,
    "neighborhood": "Pioneer Square/International District",
    "neighborhoodGroup": "Downtown",
    "units": "E10"
  },
  {
    "id_str": "F210100790",
    "created_at": "9/12/2021 2:58:48 AM",
    "timestamp": 1631440728000,
    "description": "Aid Response",
    "address": "401 S Jackson St",
    "active": false,
    "unitCount": 1,
    "severity": 0,
    "lat": 47.599197,
    "long": -122.328955,
    "neighborhood": "Pioneer Square/International District",
    "neighborhoodGroup": "Downtown",
    "units": "A10"
  },
  {
    "id_str": "F210100787",
    "created_at": "9/12/2021 2:51:08 AM",
    "timestamp": 1631440268000,
    "description": "MVI - Motor Vehicle Incident",
    "address": "Pike St / Minor Ave",
    "active": false,
    "unitCount": 1,
    "severity": 0,
    "lat": 47.61393,
    "long": -122.327805,
    "neighborhood": "Capitol Hill",
    "neighborhoodGroup": "East",
    "units": "E25"
  },
  {
    "id_str": "F210100784",
    "created_at": "9/12/2021 2:31:50 AM",
    "timestamp": 1631439110000,
    "description": "Aid Response",
    "address": "4611 Sw Lander St",
    "active": false,
    "unitCount": 1,
    "severity": 0,
    "lat": 47.579345,
    "long": -122.390814,
    "neighborhood": "West Seattle Junction/Genesee Hill",
    "neighborhoodGroup": "Southwest",
    "units": "E29"
  },
  {
    "id_str": "F210100783",
    "created_at": "9/12/2021 2:30:11 AM",
    "timestamp": 1631439011000,
    "description": "Medic Response",
    "address": "6940 M L King Jr Way S",
    "active": false,
    "unitCount": 2,
    "severity": 0,
    "lat": 47.540318,
    "long": -122.282693,
    "neighborhood": "South Beacon Hill/NewHolly",
    "neighborhoodGroup": "Greater Duwamish",
    "units": "E28 M28"
  },
  {
    "id_str": "F210100781",
    "created_at": "9/12/2021 2:28:25 AM",
    "timestamp": 1631438905000,
    "description": "Aid Response",
    "address": "435 Westlake Ave N",
    "active": false,
    "unitCount": 1,
    "severity": 0,
    "lat": 47.622446,
    "long": -122.338453,
    "neighborhood": "Cascade/Eastlake",
    "neighborhoodGroup": "Lake Union",
    "units": "L4"
  },
  {
    "id_str": "F210100780",
    "created_at": "9/12/2021 2:26:50 AM",
    "timestamp": 1631438810000,
    "description": "Aid Response",
    "address": "1411 4th Ave",
    "active": false,
    "unitCount": 1,
    "severity": 0,
    "lat": 47.609322,
    "long": -122.335868,
    "neighborhood": "Downtown Commercial Core",
    "neighborhoodGroup": "Downtown",
    "units": "A10"
  },
  {
    "id_str": "F210100779",
    "created_at": "9/12/2021 2:24:38 AM",
    "timestamp": 1631438678000,
    "description": "Aid Response",
    "address": "116 Fairview Ave N",
    "active": false,
    "unitCount": 1,
    "severity": 0,
    "lat": 47.618693,
    "long": -122.334256,
    "neighborhood": "Cascade/Eastlake",
    "neighborhoodGroup": "Lake Union",
    "units": "E2"
  },
  {
    "id_str": "F210100778",
    "created_at": "9/12/2021 2:19:56 AM",
    "timestamp": 1631438396000,
    "description": "Encampment Medic",
    "address": "Linden Ave N / N 130th St",
    "active": false,
    "unitCount": 2,
    "severity": 0,
    "lat": 47.723218,
    "long": -122.348195,
    "neighborhood": "Broadview/Bitter Lake",
    "neighborhoodGroup": "Northwest",
    "units": "E39 M31"
  },
  {
    "id_str": "F210100777",
    "created_at": "9/12/2021 2:02:50 AM",
    "timestamp": 1631437370000,
    "description": "Aid Response",
    "address": "3rd Ave Nw / Nw 110th St",
    "active": false,
    "unitCount": 1,
    "severity": 0,
    "lat": 47.708743,
    "long": -122.360816,
    "neighborhood": "North Beach/Blue Ridge",
    "neighborhoodGroup": "Ballard",
    "units": "E24"
  },
  {
    "id_str": "F210100775",
    "created_at": "9/12/2021 1:48:27 AM",
    "timestamp": 1631436507000,
    "description": "Unk Odor",
    "address": "3756 W Commodore Way",
    "active": false,
    "unitCount": 1,
    "severity": 0,
    "lat": 47.666184,
    "long": -122.408427,
    "neighborhood": "Magnolia",
    "neighborhoodGroup": "Magnolia/Queen Anne",
    "units": "E41"
  },
  {
    "id_str": "F210100773",
    "created_at": "9/12/2021 1:38:48 AM",
    "timestamp": 1631435928000,
    "description": "Aid Response",
    "address": "1001 E Pike St",
    "active": false,
    "unitCount": 1,
    "severity": 0,
    "lat": 47.614085,
    "long": -122.319434,
    "neighborhood": "Capitol Hill",
    "neighborhoodGroup": "East",
    "units": "A25"
  },
  {
    "id_str": "F210100772",
    "created_at": "9/12/2021 1:33:13 AM",
    "timestamp": 1631435593000,
    "description": "Marine Service Response",
    "address": "Wb Sr520 At Mid Span",
    "active": false,
    "unitCount": 4,
    "severity": 0,
    "lat": 47.640457,
    "long": -122.259104,
    "units": "E5 FIREBOAT FRB5 PTRL4"
  },
  {
    "id_str": "F210100768",
    "created_at": "9/12/2021 1:18:39 AM",
    "timestamp": 1631434719000,
    "description": "Aid Response",
    "address": "2762 4th Ave S",
    "active": false,
    "unitCount": 1,
    "severity": 0,
    "lat": 47.579157,
    "long": -122.329057,
    "neighborhood": "Duwamish/SODO",
    "neighborhoodGroup": "Greater Duwamish",
    "units": "A14"
  },
  {
    "id_str": "F210100767",
    "created_at": "9/12/2021 1:16:56 AM",
    "timestamp": 1631434616000,
    "description": "Aid Response",
    "address": "2306 12th Ave E",
    "active": false,
    "unitCount": 1,
    "severity": 0,
    "lat": 47.63969,
    "long": -122.316981,
    "neighborhood": "Montlake/Portage Bay",
    "neighborhoodGroup": "Northeast",
    "units": "E22"
  },
  {
    "id_str": "F210100766",
    "created_at": "9/12/2021 12:56:34 AM",
    "timestamp": 1631433394000,
    "description": "Auto Fire Alarm",
    "address": "1431 Minor Ave",
    "active": false,
    "unitCount": 2,
    "severity": 0,
    "lat": 47.613247,
    "long": -122.327187,
    "neighborhood": "Capitol Hill",
    "neighborhoodGroup": "East",
    "units": "E25 L10"
  },
  {
    "id_str": "F210100764",
    "created_at": "9/12/2021 12:47:43 AM",
    "timestamp": 1631432863000,
    "description": "Aid Response",
    "address": "400 Spring St",
    "active": false,
    "unitCount": 1,
    "severity": 0,
    "lat": 47.606801,
    "long": -122.333562,
    "neighborhood": "Downtown Commercial Core",
    "neighborhoodGroup": "Downtown",
    "units": "A10"
  },
  {
    "id_str": "F210100763",
    "created_at": "9/12/2021 12:46:59 AM",
    "timestamp": 1631432819000,
    "description": "Aid Response",
    "address": "4703 Beacon Ave S",
    "active": false,
    "unitCount": 2,
    "severity": 0,
    "lat": 47.561026,
    "long": -122.305064,
    "neighborhood": "North Beacon Hill/Jefferson Park",
    "neighborhoodGroup": "Greater Duwamish",
    "units": "B5 E13"
  },
  {
    "id_str": "F210100761",
    "created_at": "9/12/2021 12:38:42 AM",
    "timestamp": 1631432322000,
    "description": "Aid Response",
    "address": "2026 Nw Market St",
    "active": false,
    "unitCount": 1,
    "severity": 0,
    "lat": 47.668677,
    "long": -122.383193,
    "neighborhood": "Ballard",
    "neighborhoodGroup": "Ballard",
    "units": "E18"
  },
  {
    "id_str": "F210100758",
    "created_at": "9/12/2021 12:31:01 AM",
    "timestamp": 1631431861000,
    "description": "Aid Response",
    "address": "N 36th St / Phinney Ave N",
    "active": false,
    "unitCount": 1,
    "severity": 0,
    "lat": 47.652246,
    "long": -122.354475,
    "neighborhood": "Fremont",
    "neighborhoodGroup": "Lake Union",
    "units": "E9"
  },
  {
    "id_str": "F210100756",
    "created_at": "9/12/2021 12:28:02 AM",
    "timestamp": 1631431682000,
    "description": "Aid Response",
    "address": "2021 36th Ave W",
    "active": false,
    "unitCount": 2,
    "severity": 0,
    "lat": 47.636614,
    "long": -122.403725,
    "neighborhood": "Magnolia",
    "neighborhoodGroup": "Magnolia/Queen Anne",
    "units": "E41 M18"
  },
  {
    "id_str": "F210100759",
    "created_at": "9/12/2021 12:26:18 AM",
    "timestamp": 1631431578000,
    "description": "Aid Response",
    "address": "820 Nw 95th St",
    "active": false,
    "unitCount": 1,
    "severity": 0,
    "lat": 47.697867,
    "long": -122.367016,
    "neighborhood": "Greenwood/Phinney Ridge",
    "neighborhoodGroup": "Northwest",
    "units": "E35"
  },
  {
    "id_str": "F210100755",
    "created_at": "9/12/2021 12:21:48 AM",
    "timestamp": 1631431308000,
    "description": "Medic Response",
    "address": "7500 Seward Park Ave S",
    "active": false,
    "unitCount": 2,
    "severity": 0,
    "lat": 47.535387,
    "long": -122.267284,
    "neighborhood": "Seward Park",
    "neighborhoodGroup": "Southeast",
    "units": "E28 M28"
  },
  {
    "id_str": "F210100754",
    "created_at": "9/12/2021 12:02:07 AM",
    "timestamp": 1631430127000,
    "description": "Aid Response",
    "address": "216 Union St",
    "active": false,
    "unitCount": 1,
    "severity": 0,
    "lat": 47.608368,
    "long": -122.337814,
    "neighborhood": "Downtown Commercial Core",
    "neighborhoodGroup": "Downtown",
    "units": "A10"
  },
  {
    "id_str": "F210100753",
    "created_at": "9/11/2021 11:52:32 PM",
    "timestamp": 1631429552000,
    "description": "Hang-Up, Aid",
    "address": "Evanston Ave N / N 34th St",
    "active": false,
    "unitCount": 1,
    "severity": 0,
    "lat": 47.649823,
    "long": -122.351303,
    "neighborhood": "Fremont",
    "neighborhoodGroup": "Lake Union",
    "units": "E9"
  },
  {
    "id_str": "F210100747",
    "created_at": "9/11/2021 11:38:14 PM",
    "timestamp": 1631428694000,
    "description": "1RED 1 Unit",
    "address": "1011 Valley St",
    "active": false,
    "unitCount": 3,
    "severity": 0,
    "lat": 47.625789,
    "long": -122.336985,
    "neighborhood": "Cascade/Eastlake",
    "neighborhoodGroup": "Lake Union",
    "units": "E2 E25 MAR5"
  },
  {
    "id_str": "F210100744",
    "created_at": "9/11/2021 11:16:39 PM",
    "timestamp": 1631427399000,
    "description": "Auto Fire Alarm",
    "address": "1501 2nd Ave",
    "active": false,
    "unitCount": 2,
    "severity": 0,
    "lat": 47.609285,
    "long": -122.338904,
    "neighborhood": "Downtown Commercial Core",
    "neighborhoodGroup": "Downtown",
    "units": "E5 L4"
  },
  {
    "id_str": "F210100743",
    "created_at": "9/11/2021 11:07:06 PM",
    "timestamp": 1631426826000,
    "description": "Medic Response",
    "address": "810 Virginia St",
    "active": false,
    "unitCount": 2,
    "severity": 0,
    "lat": 47.615789,
    "long": -122.336507,
    "neighborhood": "Cascade/Eastlake",
    "neighborhoodGroup": "Lake Union",
    "units": "E2 M10"
  },
  {
    "id_str": "F210100742",
    "created_at": "9/11/2021 11:02:33 PM",
    "timestamp": 1631426553000,
    "description": "Aid Response",
    "address": "S Royal Brougham Way / 5th Ave S",
    "active": false,
    "unitCount": 1,
    "severity": 0,
    "lat": 47.592394,
    "long": -122.327395,
    "neighborhood": "Duwamish/SODO",
    "neighborhoodGroup": "Greater Duwamish",
    "units": "E10"
  },
  {
    "id_str": "F210100741",
    "created_at": "9/11/2021 11:01:18 PM",
    "timestamp": 1631426478000,
    "description": "Aid Response",
    "address": "503 S Royal Brougham Way",
    "active": false,
    "unitCount": 1,
    "severity": 0,
    "lat": 47.592399,
    "long": -122.327256,
    "neighborhood": "Duwamish/SODO",
    "neighborhoodGroup": "Greater Duwamish",
    "units": "R1"
  },
  {
    "id_str": "F210100740",
    "created_at": "9/11/2021 10:55:34 PM",
    "timestamp": 1631426134000,
    "description": "Aid Response",
    "address": "1st Ave S / S King St",
    "active": false,
    "unitCount": 1,
    "severity": 0,
    "lat": 47.598292,
    "long": -122.334191,
    "neighborhood": "Duwamish/SODO",
    "neighborhoodGroup": "Greater Duwamish",
    "units": "L1"
  },
  {
    "id_str": "F210100739",
    "created_at": "9/11/2021 10:50:57 PM",
    "timestamp": 1631425857000,
    "description": "Aid Response",
    "address": "4745 37th Ave Sw",
    "active": false,
    "unitCount": 1,
    "severity": 0,
    "lat": 47.560241,
    "long": -122.378788,
    "neighborhood": "West Seattle Junction/Genesee Hill",
    "neighborhoodGroup": "Southwest",
    "units": "E32"
  },
  {
    "id_str": "F210100738",
    "created_at": "9/11/2021 10:50:09 PM",
    "timestamp": 1631425809000,
    "description": "Aid Response",
    "address": "318 2nd Ave Et S",
    "active": false,
    "unitCount": 1,
    "severity": 0,
    "lat": 47.600194,
    "long": -122.330541,
    "neighborhood": "Pioneer Square/International District",
    "neighborhoodGroup": "Downtown",
    "units": "A10"
  },
  {
    "id_str": "F210100737",
    "created_at": "9/11/2021 10:39:55 PM",
    "timestamp": 1631425195000,
    "description": "Activated CO Detector",
    "address": "12509 Densmore Ave N",
    "active": false,
    "unitCount": 1,
    "severity": 0,
    "lat": 47.719636,
    "long": -122.338584,
    "neighborhood": "Haller Lake",
    "neighborhoodGroup": "Northwest",
    "units": "L5"
  },
  {
    "id_str": "F210100736",
    "created_at": "9/11/2021 10:29:22 PM",
    "timestamp": 1631424562000,
    "description": "Aid Response",
    "address": "4th Ave S / S Holgate St",
    "active": false,
    "unitCount": 1,
    "severity": 0,
    "lat": 47.58617,
    "long": -122.329062,
    "neighborhood": "Duwamish/SODO",
    "neighborhoodGroup": "Greater Duwamish",
    "units": "A14"
  },
  {
    "id_str": "F210100735",
    "created_at": "9/11/2021 10:28:51 PM",
    "timestamp": 1631424531000,
    "description": "Aid Response",
    "address": "1919 Post Al",
    "active": false,
    "unitCount": 1,
    "severity": 0,
    "lat": 47.610092,
    "long": -122.341969,
    "neighborhood": "Belltown",
    "neighborhoodGroup": "Downtown",
    "units": "E5"
  },
  {
    "id_str": "F210100734",
    "created_at": "9/11/2021 10:25:16 PM",
    "timestamp": 1631424316000,
    "description": "Brush Fire",
    "address": "29th Ave / E Howell St",
    "active": false,
    "unitCount": 1,
    "severity": 0,
    "lat": 47.617615,
    "long": -122.294837,
    "neighborhood": "Central Area/Squire Park",
    "neighborhoodGroup": "Central",
    "units": "E34"
  },
  {
    "id_str": "F210100733",
    "created_at": "9/11/2021 10:12:03 PM",
    "timestamp": 1631423523000,
    "description": "Illegal Burn",
    "address": "1902 2nd Ave",
    "active": false,
    "unitCount": 1,
    "severity": 0,
    "lat": 47.610972,
    "long": -122.340465,
    "neighborhood": "Belltown",
    "neighborhoodGroup": "Downtown",
    "units": "E2"
  },
  {
    "id_str": "F210100732",
    "created_at": "9/11/2021 10:10:53 PM",
    "timestamp": 1631423453000,
    "description": "Aid Response",
    "address": "503 W Crockett St",
    "active": false,
    "unitCount": 1,
    "severity": 0,
    "lat": 47.63776,
    "long": -122.363661,
    "neighborhood": "Queen Anne",
    "neighborhoodGroup": "Magnolia/Queen Anne",
    "units": "L6"
  },
  {
    "id_str": "F210100729",
    "created_at": "9/11/2021 10:03:51 PM",
    "timestamp": 1631423031000,
    "description": "Aid Response",
    "address": "500 5th Ave",
    "active": false,
    "unitCount": 1,
    "severity": 0,
    "lat": 47.602985,
    "long": -122.328535,
    "neighborhood": "First Hill",
    "neighborhoodGroup": "East",
    "units": "E10"
  },
  {
    "id_str": "F210100728",
    "created_at": "9/11/2021 9:52:04 PM",
    "timestamp": 1631422324000,
    "description": "Aid Response",
    "address": "1301 1st Ave",
    "active": false,
    "unitCount": 1,
    "severity": 0,
    "lat": 47.606835,
    "long": -122.338197,
    "neighborhood": "Downtown Commercial Core",
    "neighborhoodGroup": "Downtown",
    "units": "E5"
  },
  {
    "id_str": "F210100727",
    "created_at": "9/11/2021 9:51:37 PM",
    "timestamp": 1631422297000,
    "description": "Dumpster Fire",
    "address": "2817 E Arthur Pl",
    "active": false,
    "unitCount": 1,
    "severity": 0,
    "lat": 47.622964,
    "long": -122.295987,
    "neighborhood": "Central Area/Squire Park",
    "neighborhoodGroup": "Central",
    "units": "E34"
  },
  {
    "id_str": "F210100726",
    "created_at": "9/11/2021 9:50:13 PM",
    "timestamp": 1631422213000,
    "description": "Aid Response",
    "address": "109 Occidental Ave S",
    "active": false,
    "unitCount": 1,
    "severity": 0,
    "lat": 47.601644,
    "long": -122.332874,
    "neighborhood": "Pioneer Square/International District",
    "neighborhoodGroup": "Downtown",
    "units": "A10"
  },
  {
    "id_str": "F210100724",
    "created_at": "9/11/2021 9:48:29 PM",
    "timestamp": 1631422109000,
    "description": "Medic Response, 6 per Rule",
    "address": "Aurora Ave N / N 76th St",
    "active": false,
    "unitCount": 3,
    "severity": 0,
    "lat": 47.684038,
    "long": -122.344488,
    "neighborhood": "Green Lake",
    "neighborhoodGroup": "Northwest",
    "units": "E16 E21 M31"
  },
  {
    "id_str": "F210100722",
    "created_at": "9/11/2021 9:44:29 PM",
    "timestamp": 1631421869000,
    "description": "Aid Response",
    "address": "2627 S Dawson St",
    "active": false,
    "unitCount": 1,
    "severity": 0,
    "lat": 47.556089,
    "long": -122.298882,
    "neighborhood": "Beacon Hill",
    "neighborhoodGroup": "Greater Duwamish",
    "units": "E13"
  },
  {
    "id_str": "F210100721",
    "created_at": "9/11/2021 9:39:57 PM",
    "timestamp": 1631421597000,
    "description": "Aid Response",
    "address": "7016 15th Ave Nw",
    "active": false,
    "unitCount": 1,
    "severity": 0,
    "lat": 47.679622,
    "long": -122.37677,
    "neighborhood": "Whittier Heights",
    "neighborhoodGroup": "Ballard",
    "units": "L8"
  },
  {
    "id_str": "F210100717",
    "created_at": "9/11/2021 9:28:27 PM",
    "timestamp": 1631420907000,
    "description": "Medic Response",
    "address": "3021 Sw Bradford St",
    "active": false,
    "unitCount": 2,
    "severity": 0,
    "lat": 47.569237,
    "long": -122.371429,
    "neighborhood": "North Delridge",
    "neighborhoodGroup": "Delridge Neighborhoods",
    "units": "E36 M1"
  },
  {
    "id_str": "F210100716",
    "created_at": "9/11/2021 9:25:19 PM",
    "timestamp": 1631420719000,
    "description": "Brush Fire",
    "address": "3015 E Madison St",
    "active": false,
    "unitCount": 1,
    "severity": 0,
    "lat": 47.625251,
    "long": -122.293571,
    "neighborhood": "Central Area/Squire Park",
    "neighborhoodGroup": "Central",
    "units": "E34"
  },
  {
    "id_str": "F210100715",
    "created_at": "9/11/2021 9:25:01 PM",
    "timestamp": 1631420701000,
    "description": "Aid Response",
    "address": "6022 18th Ave Sw",
    "active": false,
    "unitCount": 2,
    "severity": 0,
    "lat": 47.54793,
    "long": -122.357108,
    "neighborhood": "Riverview",
    "neighborhoodGroup": "Delridge Neighborhoods",
    "units": "E11 M32"
  },
  {
    "id_str": "F210100714",
    "created_at": "9/11/2021 9:16:38 PM",
    "timestamp": 1631420198000,
    "description": "Investigate Out Of Service",
    "address": "2629 Sw Andover St",
    "active": false,
    "unitCount": 1,
    "severity": 0,
    "lat": 47.568343,
    "long": -122.365804,
    "neighborhood": "North Delridge",
    "neighborhoodGroup": "Delridge Neighborhoods",
    "units": "E36"
  },
  {
    "id_str": "F210100713",
    "created_at": "9/11/2021 9:10:57 PM",
    "timestamp": 1631419857000,
    "description": "Medic Response",
    "address": "2900 3rd Ave W",
    "active": false,
    "unitCount": 2,
    "severity": 0,
    "lat": 47.645803,
    "long": -122.360896,
    "neighborhood": "Queen Anne",
    "neighborhoodGroup": "Magnolia/Queen Anne",
    "units": "E9 M18"
  },
  {
    "id_str": "F210100712",
    "created_at": "9/11/2021 9:09:38 PM",
    "timestamp": 1631419778000,
    "description": "Aid Response",
    "address": "6951 62nd Ave Ne",
    "active": false,
    "unitCount": 1,
    "severity": 0,
    "lat": 47.6789,
    "long": -122.262228,
    "neighborhood": "Laurelhurst/Sand Point",
    "neighborhoodGroup": "Northeast",
    "units": "E38"
  },
  {
    "id_str": "F210100707",
    "created_at": "9/11/2021 8:56:16 PM",
    "timestamp": 1631418976000,
    "description": "Aid Response",
    "address": "10345 Meridian Ave N",
    "active": false,
    "unitCount": 1,
    "severity": 0,
    "lat": 47.703624,
    "long": -122.333909,
    "neighborhood": "Northgate/Maple Leaf",
    "neighborhoodGroup": "North",
    "units": "E24"
  },
  {
    "id_str": "F210100706",
    "created_at": "9/11/2021 8:50:54 PM",
    "timestamp": 1631418654000,
    "description": "MVI - Motor Vehicle Incident",
    "address": "Rainier Ave S / S Myrtle St",
    "active": false,
    "unitCount": 1,
    "severity": 0,
    "lat": 47.538907,
    "long": -122.270726,
    "neighborhood": "Seward Park",
    "neighborhoodGroup": "Southeast",
    "units": "E28"
  },
  {
    "id_str": "F210100705",
    "created_at": "9/11/2021 8:44:59 PM",
    "timestamp": 1631418299000,
    "description": "Aid Response",
    "address": "9th Ave / Stewart St",
    "active": false,
    "unitCount": 1,
    "severity": 0,
    "lat": 47.615616,
    "long": -122.334436,
    "neighborhood": "Cascade/Eastlake",
    "neighborhoodGroup": "Lake Union",
    "units": "E2"
  },
  {
    "id_str": "F210100704",
    "created_at": "9/11/2021 8:43:19 PM",
    "timestamp": 1631418199000,
    "description": "Aid Response",
    "address": "W Smith St / 28th Ave W",
    "active": false,
    "unitCount": 1,
    "severity": 0,
    "lat": 47.641158,
    "long": -122.392979,
    "neighborhood": "Interbay",
    "neighborhoodGroup": "Magnolia/Queen Anne",
    "units": "E41"
  },
  {
    "id_str": "F210100703",
    "created_at": "9/11/2021 8:41:01 PM",
    "timestamp": 1631418061000,
    "description": "Medic Response",
    "address": "1039 6th Ave S",
    "active": false,
    "unitCount": 2,
    "severity": 0,
    "lat": 47.593751,
    "long": -122.325968,
    "neighborhood": "Duwamish/SODO",
    "neighborhoodGroup": "Greater Duwamish",
    "units": "E10 M10"
  },
  {
    "id_str": "F210100701",
    "created_at": "9/11/2021 8:39:20 PM",
    "timestamp": 1631417960000,
    "description": "Aid Response",
    "address": "510 Minor Ave N",
    "active": false,
    "unitCount": 1,
    "severity": 0,
    "lat": 47.623222,
    "long": -122.333001,
    "neighborhood": "Cascade/Eastlake",
    "neighborhoodGroup": "Lake Union",
    "units": "E5"
  },
  {
    "id_str": "F210100700",
    "created_at": "9/11/2021 8:20:41 PM",
    "timestamp": 1631416841000,
    "description": "Aid Response",
    "address": "11540 Pinehurst Way Ne",
    "active": false,
    "unitCount": 1,
    "severity": 0,
    "lat": 47.712546,
    "long": -122.314732,
    "neighborhood": "Haller Lake",
    "neighborhoodGroup": "Northwest",
    "units": "L5"
  },
  {
    "id_str": "F210100699",
    "created_at": "9/11/2021 8:19:06 PM",
    "timestamp": 1631416746000,
    "description": "Brush Fire",
    "address": "S Spokane St / 5th Ave S",
    "active": false,
    "unitCount": 1,
    "severity": 0,
    "lat": 47.571675,
    "long": -122.327471,
    "neighborhood": "Duwamish/SODO",
    "neighborhoodGroup": "Greater Duwamish",
    "units": "E13"
  },
  {
    "id_str": "F210100697",
    "created_at": "9/11/2021 8:16:33 PM",
    "timestamp": 1631416593000,
    "description": "Rubbish Fire",
    "address": "8th Ave S / S Southern St",
    "active": false,
    "unitCount": 1,
    "severity": 0,
    "lat": 47.529814,
    "long": -122.32286,
    "neighborhood": "South Park",
    "neighborhoodGroup": "Greater Duwamish",
    "units": "E11"
  },
  {
    "id_str": "F210100696",
    "created_at": "9/11/2021 8:14:52 PM",
    "timestamp": 1631416492000,
    "description": "Auto Fire Alarm",
    "address": "9201 Rainier Ave S",
    "active": false,
    "unitCount": 2,
    "severity": 0,
    "lat": 47.52101,
    "long": -122.269997,
    "neighborhood": "Rainier Beach",
    "neighborhoodGroup": "Southeast",
    "units": "E33 L12"
  },
  {
    "id_str": "F210100693",
    "created_at": "9/11/2021 8:11:15 PM",
    "timestamp": 1631416275000,
    "description": "MVI - Motor Vehicle Incident",
    "address": "34th Ave Nw / Nw 54th St",
    "active": false,
    "unitCount": 10,
    "severity": 2,
    "lat": 47.667597,
    "long": -122.40065,
    "neighborhood": "Sunset Hill/Loyal Heights",
    "neighborhoodGroup": "Ballard",
    "units": "A14 B4 B6 E18 E20 L8 M18 M44 R1 SAFT2"
  },
  {
    "id_str": "F210100692",
    "created_at": "9/11/2021 8:10:05 PM",
    "timestamp": 1631416205000,
    "description": "Aid Response",
    "address": "400 Pine St",
    "active": false,
    "unitCount": 1,
    "severity": 0,
    "lat": 47.611207,
    "long": -122.337592,
    "neighborhood": "Downtown Commercial Core",
    "neighborhoodGroup": "Downtown",
    "units": "E5"
  },
  {
    "id_str": "F210100691",
    "created_at": "9/11/2021 8:09:40 PM",
    "timestamp": 1631416180000,
    "description": "Medic Response",
    "address": "3rd Ave / Columbia St",
    "active": false,
    "unitCount": 3,
    "severity": 0,
    "lat": 47.604197,
    "long": -122.332714,
    "neighborhood": "Downtown Commercial Core",
    "neighborhoodGroup": "Downtown",
    "units": "A10 E10 M1"
  },
  {
    "id_str": "F210100690",
    "created_at": "9/11/2021 8:08:10 PM",
    "timestamp": 1631416090000,
    "description": "Medic Response",
    "address": "12313 38th Ave Ne",
    "active": false,
    "unitCount": 2,
    "severity": 0,
    "lat": 47.71746,
    "long": -122.287305,
    "neighborhood": "Cedar Park/Meadowbrook",
    "neighborhoodGroup": "North",
    "units": "E39 M17"
  },
  {
    "id_str": "F210100689",
    "created_at": "9/11/2021 8:06:03 PM",
    "timestamp": 1631415963000,
    "description": "Medic Response",
    "address": "9223 37th Ave Sw",
    "active": false,
    "unitCount": 2,
    "severity": 0,
    "lat": 47.520979,
    "long": -122.379443,
    "neighborhood": "Fauntleroy/Seaview",
    "neighborhoodGroup": "Southwest",
    "units": "E37 M32"
  },
  {
    "id_str": "F210100687",
    "created_at": "9/11/2021 8:04:20 PM",
    "timestamp": 1631415860000,
    "description": "Illegal Burn",
    "address": "S Norfolk St / Waters Ave S",
    "active": false,
    "unitCount": 1,
    "severity": 0,
    "lat": 47.513676,
    "long": -122.254206,
    "neighborhood": "Rainier Beach",
    "neighborhoodGroup": "Southeast",
    "units": "E33"
  },
  {
    "id_str": "F210100686",
    "created_at": "9/11/2021 8:01:46 PM",
    "timestamp": 1631415706000,
    "description": "Aid Response",
    "address": "1932 2nd Ave",
    "active": false,
    "unitCount": 1,
    "severity": 0,
    "lat": 47.611207,
    "long": -122.340864,
    "neighborhood": "Belltown",
    "neighborhoodGroup": "Downtown",
    "units": "A10"
  },
  {
    "id_str": "F210100684",
    "created_at": "9/11/2021 7:51:32 PM",
    "timestamp": 1631415092000,
    "description": "Automatic Fire Alarm Resd",
    "address": "1330 Lakeside Ave S",
    "active": false,
    "unitCount": 1,
    "severity": 0,
    "lat": 47.591516,
    "long": -122.28718,
    "neighborhood": "Madrona/Leschi",
    "neighborhoodGroup": "Central",
    "units": "L3"
  },
  {
    "id_str": "F210100683",
    "created_at": "9/11/2021 7:51:02 PM",
    "timestamp": 1631415062000,
    "description": "Aid Response",
    "address": "1401 2nd Ave",
    "active": false,
    "unitCount": 1,
    "severity": 0,
    "lat": 47.608292,
    "long": -122.337995,
    "neighborhood": "Downtown Commercial Core",
    "neighborhoodGroup": "Downtown",
    "units": "A10"
  },
  {
    "id_str": "F210100680",
    "created_at": "9/11/2021 7:46:28 PM",
    "timestamp": 1631414788000,
    "description": "Aid Response",
    "address": "5968 Rainier Ave S",
    "active": false,
    "unitCount": 1,
    "severity": 0,
    "lat": 47.548785,
    "long": -122.276963,
    "neighborhood": "Columbia City",
    "neighborhoodGroup": "Southeast",
    "units": "E28"
  },
  {
    "id_str": "F210100677",
    "created_at": "9/11/2021 7:37:46 PM",
    "timestamp": 1631414266000,
    "description": "Aid Response",
    "address": "8th Ave S / S Portland St",
    "active": false,
    "unitCount": 1,
    "severity": 0,
    "lat": 47.533378,
    "long": -122.3228,
    "neighborhood": "South Park",
    "neighborhoodGroup": "Greater Duwamish",
    "units": "E26"
  },
  {
    "id_str": "F210100678",
    "created_at": "9/11/2021 7:37:31 PM",
    "timestamp": 1631414251000,
    "description": "Encampment Fire",
    "address": "609 Yesler Way",
    "active": false,
    "unitCount": 1,
    "severity": 0,
    "lat": 47.601709,
    "long": -122.326189,
    "neighborhood": "Pioneer Square/International District",
    "neighborhoodGroup": "Downtown",
    "units": "E6"
  },
  {
    "id_str": "F210100676",
    "created_at": "9/11/2021 7:36:25 PM",
    "timestamp": 1631414185000,
    "description": "Investigate Out Of Service",
    "address": "325 9th Ave",
    "active": false,
    "unitCount": 1,
    "severity": 0,
    "lat": 47.603588,
    "long": -122.322949,
    "neighborhood": "First Hill",
    "neighborhoodGroup": "East",
    "units": "L1"
  },
  {
    "id_str": "F210100674",
    "created_at": "9/11/2021 7:33:51 PM",
    "timestamp": 1631414031000,
    "description": "Medic Response",
    "address": "3201 S Austin St",
    "active": false,
    "unitCount": 2,
    "severity": 0,
    "lat": 47.534439,
    "long": -122.290771,
    "neighborhood": "South Beacon Hill/NewHolly",
    "neighborhoodGroup": "Greater Duwamish",
    "units": "E27 M28"
  },
  {
    "id_str": "F210100673",
    "created_at": "9/11/2021 7:33:31 PM",
    "timestamp": 1631414011000,
    "description": "Aid Response",
    "address": "3425 25th Ave W",
    "active": false,
    "unitCount": 1,
    "severity": 0,
    "lat": 47.650619,
    "long": -122.388541,
    "neighborhood": "Interbay",
    "neighborhoodGroup": "Magnolia/Queen Anne",
    "units": "E20"
  },
  {
    "id_str": "F210100672",
    "created_at": "9/11/2021 7:32:09 PM",
    "timestamp": 1631413929000,
    "description": "Aid Response",
    "address": "2207 1st Ave",
    "active": false,
    "unitCount": 2,
    "severity": 0,
    "lat": 47.612653,
    "long": -122.345293,
    "neighborhood": "Belltown",
    "neighborhoodGroup": "Downtown",
    "units": "A10 E10"
  },
  {
    "id_str": "F210100671",
    "created_at": "9/11/2021 7:32:03 PM",
    "timestamp": 1631413923000,
    "description": "Aid Response",
    "address": "807 Nw 62nd St",
    "active": false,
    "unitCount": 1,
    "severity": 0,
    "lat": 47.673807,
    "long": -122.366271,
    "neighborhood": "Whittier Heights",
    "neighborhoodGroup": "Ballard",
    "units": "E18"
  },
  {
    "id_str": "F210100670",
    "created_at": "9/11/2021 7:30:53 PM",
    "timestamp": 1631413853000,
    "description": "Aid Response",
    "address": "Mercer St / Fairview Ave N",
    "active": false,
    "unitCount": 1,
    "severity": 0,
    "lat": 47.624265,
    "long": -122.334285,
    "neighborhood": "Cascade/Eastlake",
    "neighborhoodGroup": "Lake Union",
    "units": "L4"
  },
  {
    "id_str": "F210100667",
    "created_at": "9/11/2021 7:28:30 PM",
    "timestamp": 1631413710000,
    "description": "Aid Response",
    "address": "211 W Kinnear Pl",
    "active": false,
    "unitCount": 1,
    "severity": 0,
    "lat": 47.627729,
    "long": -122.359431,
    "neighborhood": "Queen Anne",
    "neighborhoodGroup": "Magnolia/Queen Anne",
    "units": "L6"
  },
  {
    "id_str": "F210100666",
    "created_at": "9/11/2021 7:27:24 PM",
    "timestamp": 1631413644000,
    "description": "Aid Response",
    "address": "2030 3rd Ave",
    "active": false,
    "unitCount": 1,
    "severity": 0,
    "lat": 47.612626,
    "long": -122.341277,
    "neighborhood": "Cascade/Eastlake",
    "neighborhoodGroup": "Lake Union",
    "units": "E2"
  },
  {
    "id_str": "F210100663",
    "created_at": "9/11/2021 7:18:12 PM",
    "timestamp": 1631413092000,
    "description": "Aid Response",
    "address": "1200 Western Ave",
    "active": false,
    "unitCount": 1,
    "severity": 0,
    "lat": 47.605657,
    "long": -122.338654,
    "neighborhood": "Downtown Commercial Core",
    "neighborhoodGroup": "Downtown",
    "units": "E5"
  },
  {
    "id_str": "F210100662",
    "created_at": "9/11/2021 7:15:07 PM",
    "timestamp": 1631412907000,
    "description": "Aid Response",
    "address": "204 3rd Ave S",
    "active": false,
    "unitCount": 1,
    "severity": 0,
    "lat": 47.600843,
    "long": -122.330271,
    "neighborhood": "Pioneer Square/International District",
    "neighborhoodGroup": "Downtown",
    "units": "A10"
  },
  {
    "id_str": "F210100661",
    "created_at": "9/11/2021 7:13:59 PM",
    "timestamp": 1631412839000,
    "description": "Aid Response",
    "address": "450 Ne 100th St",
    "active": false,
    "unitCount": 1,
    "severity": 0,
    "lat": 47.701329,
    "long": -122.323684,
    "neighborhood": "Northgate/Maple Leaf",
    "neighborhoodGroup": "North",
    "units": "E16"
  },
  {
    "id_str": "F210100660",
    "created_at": "9/11/2021 7:06:42 PM",
    "timestamp": 1631412402000,
    "description": "Low Acuity Response",
    "address": "4250 34th Ave W",
    "active": false,
    "unitCount": 1,
    "severity": 0,
    "lat": 47.658494,
    "long": -122.400891,
    "neighborhood": "Magnolia",
    "neighborhoodGroup": "Magnolia/Queen Anne",
    "units": "E41"
  },
  {
    "id_str": "F210100659",
    "created_at": "9/11/2021 7:05:26 PM",
    "timestamp": 1631412326000,
    "description": "MVI - Motor Vehicle Incident",
    "address": "950 N 85th St",
    "active": false,
    "unitCount": 1,
    "severity": 0,
    "lat": 47.690569,
    "long": -122.346529,
    "neighborhood": "Licton Springs",
    "neighborhoodGroup": "Northwest",
    "units": "E21"
  },
  {
    "id_str": "F210100658",
    "created_at": "9/11/2021 7:02:12 PM",
    "timestamp": 1631412132000,
    "description": "Aid Response",
    "address": "900 University St",
    "active": false,
    "unitCount": 2,
    "severity": 0,
    "lat": 47.61055,
    "long": -122.329318,
    "neighborhood": "First Hill",
    "neighborhoodGroup": "East",
    "units": "E25 L10"
  },
  {
    "id_str": "F210100657",
    "created_at": "9/11/2021 7:01:47 PM",
    "timestamp": 1631412107000,
    "description": "Aid Response",
    "address": "4700 Sw Admiral Way",
    "active": false,
    "unitCount": 1,
    "severity": 0,
    "lat": 47.581214,
    "long": -122.391903,
    "neighborhood": "West Seattle Junction/Genesee Hill",
    "neighborhoodGroup": "Southwest",
    "units": "E29"
  },
  {
    "id_str": "F210100656",
    "created_at": "9/11/2021 6:59:56 PM",
    "timestamp": 1631411996000,
    "description": "Aid Response",
    "address": "2519 1st Ave",
    "active": false,
    "unitCount": 1,
    "severity": 0,
    "lat": 47.614798,
    "long": -122.348918,
    "neighborhood": "Belltown",
    "neighborhoodGroup": "Downtown",
    "units": "E2"
  },
  {
    "id_str": "F210100652",
    "created_at": "9/11/2021 6:48:05 PM",
    "timestamp": 1631411285000,
    "description": "Electrical Problem",
    "address": "159 Ward St",
    "active": false,
    "unitCount": 1,
    "severity": 0,
    "lat": 47.627987,
    "long": -122.353853,
    "neighborhood": "Queen Anne",
    "neighborhoodGroup": "Magnolia/Queen Anne",
    "units": "L6"
  },
  {
    "id_str": "F210100650",
    "created_at": "9/11/2021 6:40:42 PM",
    "timestamp": 1631410842000,
    "description": "Aid Response",
    "address": "6548 15th Ave Ne",
    "active": false,
    "unitCount": 1,
    "severity": 0,
    "lat": 47.67613,
    "long": -122.311937,
    "neighborhood": "Ravenna/Bryant",
    "neighborhoodGroup": "Northeast",
    "units": "E16"
  },
  {
    "id_str": "F210100651",
    "created_at": "9/11/2021 6:40:40 PM",
    "timestamp": 1631410840000,
    "description": "Investigate Out Of Service",
    "address": "2638 E Ward St",
    "active": false,
    "unitCount": 1,
    "severity": 0,
    "lat": 47.627403,
    "long": -122.298273,
    "neighborhood": "Miller Park",
    "neighborhoodGroup": "East",
    "units": "E34"
  },
  {
    "id_str": "F210100648",
    "created_at": "9/11/2021 6:38:23 PM",
    "timestamp": 1631410703000,
    "description": "Automatic Fire Alarm Resd",
    "address": "8048 23rd Ave Nw",
    "active": false,
    "unitCount": 1,
    "severity": 0,
    "lat": 47.687118,
    "long": -122.385401,
    "neighborhood": "Sunset Hill/Loyal Heights",
    "neighborhoodGroup": "Ballard",
    "units": "E35"
  },
  {
    "id_str": "F210100647",
    "created_at": "9/11/2021 6:36:38 PM",
    "timestamp": 1631410598000,
    "description": "Aid Response",
    "address": "415 10th Ave",
    "active": false,
    "unitCount": 2,
    "severity": 0,
    "lat": 47.605346,
    "long": -122.319413,
    "neighborhood": "First Hill",
    "neighborhoodGroup": "East",
    "units": "A10 E10"
  },
  {
    "id_str": "F210100646",
    "created_at": "9/11/2021 6:34:30 PM",
    "timestamp": 1631410470000,
    "description": "Auto Fire Alarm",
    "address": "209 13th Ave E",
    "active": false,
    "unitCount": 3,
    "severity": 0,
    "lat": 47.620041,
    "long": -122.315621,
    "neighborhood": "Capitol Hill",
    "neighborhoodGroup": "East",
    "units": "E25 E34 L10"
  },
  {
    "id_str": "F210100645",
    "created_at": "9/11/2021 6:31:43 PM",
    "timestamp": 1631410303000,
    "description": "Aid Response",
    "address": "4146 2nd Ave Nw",
    "active": false,
    "unitCount": 1,
    "severity": 0,
    "lat": 47.656937,
    "long": -122.358611,
    "neighborhood": "Fremont",
    "neighborhoodGroup": "Lake Union",
    "units": "E9"
  },
  {
    "id_str": "F210100643",
    "created_at": "9/11/2021 6:18:20 PM",
    "timestamp": 1631409500000,
    "description": "Aid Response",
    "address": "711 Cherry St",
    "active": false,
    "unitCount": 3,
    "severity": 0,
    "lat": 47.605392,
    "long": -122.327499,
    "neighborhood": "First Hill",
    "neighborhoodGroup": "East",
    "units": "E10 L1 M28"
  },
  {
    "id_str": "F210100641",
    "created_at": "9/11/2021 6:16:04 PM",
    "timestamp": 1631409364000,
    "description": "Rescue Elevator",
    "address": "301 Pike St",
    "active": false,
    "unitCount": 1,
    "severity": 0,
    "lat": 47.609755,
    "long": -122.337782,
    "neighborhood": "Downtown Commercial Core",
    "neighborhoodGroup": "Downtown",
    "units": "L4"
  },
  {
    "id_str": "F210100640",
    "created_at": "9/11/2021 6:15:04 PM",
    "timestamp": 1631409304000,
    "description": "Medic Response",
    "address": "1416 19TH AVE",
    "active": false,
    "unitCount": 2,
    "severity": 0,
    "lat": 47.631836,
    "long": -122.307232,
    "neighborhood": "Miller Park",
    "neighborhoodGroup": "East",
    "units": "E25 M10"
  },
  {
    "id_str": "F210100639",
    "created_at": "9/11/2021 6:10:38 PM",
    "timestamp": 1631409038000,
    "description": "Aid Response",
    "address": "11522 7th Ave Ne",
    "active": false,
    "unitCount": 1,
    "severity": 0,
    "lat": 47.712453,
    "long": -122.322019,
    "neighborhood": "Haller Lake",
    "neighborhoodGroup": "Northwest",
    "units": "L5"
  },
  {
    "id_str": "F210100638",
    "created_at": "9/11/2021 6:03:55 PM",
    "timestamp": 1631408635000,
    "description": "Aid Response",
    "address": "11737 5th Ave Ne",
    "active": false,
    "unitCount": 1,
    "severity": 0,
    "lat": 47.714265,
    "long": -122.32344,
    "neighborhood": "Haller Lake",
    "neighborhoodGroup": "Northwest",
    "units": "E39"
  },
  {
    "id_str": "F210100634",
    "created_at": "9/11/2021 5:54:08 PM",
    "timestamp": 1631408048000,
    "description": "1RED 1 Unit",
    "address": "S Holgate St / 4th Ave S",
    "active": false,
    "unitCount": 1,
    "severity": 0,
    "lat": 47.58617,
    "long": -122.329062,
    "neighborhood": "Duwamish/SODO",
    "neighborhoodGroup": "Greater Duwamish",
    "units": "E13"
  },
  {
    "id_str": "F210100633",
    "created_at": "9/11/2021 5:50:43 PM",
    "timestamp": 1631407843000,
    "description": "Medic Response",
    "address": "7524 35th Ave Sw",
    "active": false,
    "unitCount": 2,
    "severity": 0,
    "lat": 47.535284,
    "long": -122.376607,
    "neighborhood": "Roxhill/Westwood",
    "neighborhoodGroup": "Delridge Neighborhoods",
    "units": "E37 M32"
  },
  {
    "id_str": "F210100632",
    "created_at": "9/11/2021 5:42:38 PM",
    "timestamp": 1631407358000,
    "description": "Low Acuity Response",
    "address": "323 BELLEVUE AVE E",
    "active": false,
    "unitCount": 1,
    "severity": 0,
    "lat": 47.621096,
    "long": -122.324019,
    "neighborhood": "Capitol Hill",
    "neighborhoodGroup": "East",
    "units": "L10"
  },
  {
    "id_str": "F210100631",
    "created_at": "9/11/2021 5:42:10 PM",
    "timestamp": 1631407330000,
    "description": "Medic Response",
    "address": "1225 1st Ave",
    "active": false,
    "unitCount": 2,
    "severity": 0,
    "lat": 47.606297,
    "long": -122.337704,
    "neighborhood": "Downtown Commercial Core",
    "neighborhoodGroup": "Downtown",
    "units": "A10 M1"
  },
  {
    "id_str": "F210100630",
    "created_at": "9/11/2021 5:31:52 PM",
    "timestamp": 1631406712000,
    "description": "Auto Fire Alarm",
    "address": "2215 1st Ave",
    "active": false,
    "unitCount": 2,
    "severity": 0,
    "lat": 47.612716,
    "long": -122.345399,
    "neighborhood": "Belltown",
    "neighborhoodGroup": "Downtown",
    "units": "E5 L1"
  },
  {
    "id_str": "F210100629",
    "created_at": "9/11/2021 5:30:49 PM",
    "timestamp": 1631406649000,
    "description": "Aid Response",
    "address": "Dexter Ave N / Mercer St",
    "active": false,
    "unitCount": 2,
    "severity": 0,
    "lat": 47.624465,
    "long": -122.342354,
    "neighborhood": "Cascade/Eastlake",
    "neighborhoodGroup": "Lake Union",
    "units": "L4 M10"
  },
  {
    "id_str": "F210100628",
    "created_at": "9/11/2021 5:30:46 PM",
    "timestamp": 1631406646000,
    "description": "Aid Response",
    "address": "111 CEDAR ST",
    "active": false,
    "unitCount": 1,
    "severity": 0,
    "lat": 47.615877,
    "long": -122.35052,
    "neighborhood": "Belltown",
    "neighborhoodGroup": "Downtown",
    "units": "E2"
  },
  {
    "id_str": "F210100627",
    "created_at": "9/11/2021 5:29:09 PM",
    "timestamp": 1631406549000,
    "description": "Auto Fire Alarm",
    "address": "525 14th Ave E",
    "active": false,
    "unitCount": 2,
    "severity": 0,
    "lat": 47.623391,
    "long": -122.314649,
    "neighborhood": "Capitol Hill",
    "neighborhoodGroup": "East",
    "units": "E34 L10"
  },
  {
    "id_str": "F210100626",
    "created_at": "9/11/2021 5:26:04 PM",
    "timestamp": 1631406364000,
    "description": "Aid Response",
    "address": "724 Pine St",
    "active": false,
    "unitCount": 1,
    "severity": 0,
    "lat": 47.612715,
    "long": -122.333987,
    "neighborhood": "First Hill",
    "neighborhoodGroup": "East",
    "units": "E25"
  },
  {
    "id_str": "F210100624",
    "created_at": "9/11/2021 5:21:02 PM",
    "timestamp": 1631406062000,
    "description": "Aid Response",
    "address": "5311 Phinney Ave N",
    "active": false,
    "unitCount": 1,
    "severity": 0,
    "lat": 47.667143,
    "long": -122.35442,
    "neighborhood": "Greenwood/Phinney Ridge",
    "neighborhoodGroup": "Northwest",
    "units": "E21"
  },
  {
    "id_str": "F210100623",
    "created_at": "9/11/2021 5:12:30 PM",
    "timestamp": 1631405550000,
    "description": "Aid Response",
    "address": "Nw Canoe Pl / 21st Ave Nw",
    "active": false,
    "unitCount": 1,
    "severity": 0,
    "lat": 47.679953,
    "long": -122.383227,
    "neighborhood": "Sunset Hill/Loyal Heights",
    "neighborhoodGroup": "Ballard",
    "units": "E18"
  }
]