[
  {
    "id_str": "F210008501",
    "created_at": "1/26/2021 3:58:01 PM",
    "timestamp": 1611705481000,
    "description": "Aid Response",
    "address": "919 Stewart St",
    "active": false,
    "unitCount": 1,
    "severity": 0,
    "lat": 47.615745,
    "long": -122.334269,
    "neighborhood": "Cascade/Eastlake",
    "neighborhoodGroup": "Lake Union",
    "units": "E2"
  },
  {
    "id_str": "F210008500",
    "created_at": "1/26/2021 3:57:59 PM",
    "timestamp": 1611705479000,
    "description": "Medic Response",
    "address": "9612 54th Ave S",
    "active": false,
    "unitCount": 2,
    "severity": 0,
    "lat": 47.516657,
    "long": -122.265399,
    "neighborhood": "Rainier Beach",
    "neighborhoodGroup": "Southeast",
    "units": "E33 M28"
  },
  {
    "id_str": "F210008499",
    "created_at": "1/26/2021 3:48:34 PM",
    "timestamp": 1611704914000,
    "description": "Low Acuity Response",
    "address": "1410 E John St",
    "active": false,
    "unitCount": 1,
    "severity": 0,
    "lat": 47.61996,
    "long": -122.313736,
    "neighborhood": "Capitol Hill",
    "neighborhoodGroup": "East",
    "units": "E25"
  },
  {
    "id_str": "F210008498",
    "created_at": "1/26/2021 3:46:21 PM",
    "timestamp": 1611704781000,
    "description": "Aid Response",
    "address": "1100 Minor Av",
    "active": false,
    "unitCount": 1,
    "severity": 0,
    "lat": 47.610516,
    "long": -122.324681,
    "neighborhood": "First Hill",
    "neighborhoodGroup": "East",
    "units": "A25"
  },
  {
    "id_str": "F210008497",
    "created_at": "1/26/2021 3:44:50 PM",
    "timestamp": 1611704690000,
    "description": "Aid Response",
    "address": "805 4th Av N",
    "active": false,
    "unitCount": 1,
    "severity": 0,
    "lat": 47.626322,
    "long": -122.348863,
    "neighborhood": "Queen Anne",
    "neighborhoodGroup": "Magnolia/Queen Anne",
    "units": "A2"
  },
  {
    "id_str": "F210008496",
    "created_at": "1/26/2021 3:44:15 PM",
    "timestamp": 1611704655000,
    "description": "Aid Response",
    "address": "10200 1st Av Ne",
    "active": false,
    "unitCount": 2,
    "severity": 0,
    "lat": 47.702577,
    "long": -122.328518,
    "neighborhood": "Northgate/Maple Leaf",
    "neighborhoodGroup": "North",
    "units": "A31 E16"
  },
  {
    "id_str": "F210008495",
    "created_at": "1/26/2021 3:42:00 PM",
    "timestamp": 1611704520000,
    "description": "Aid Response",
    "address": "915 Nw 45th St",
    "active": false,
    "unitCount": 2,
    "severity": 0,
    "lat": 47.661467,
    "long": -122.368768,
    "neighborhood": "Ballard",
    "neighborhoodGroup": "Ballard",
    "units": "E9 L8"
  },
  {
    "id_str": "F210008494",
    "created_at": "1/26/2021 3:40:08 PM",
    "timestamp": 1611704408000,
    "description": "Aid Response",
    "address": "601 N 62nd St",
    "active": false,
    "unitCount": 1,
    "severity": 0,
    "lat": 47.673877,
    "long": -122.351391,
    "neighborhood": "Greenwood/Phinney Ridge",
    "neighborhoodGroup": "Northwest",
    "units": "E21"
  },
  {
    "id_str": "F210008493",
    "created_at": "1/26/2021 3:36:44 PM",
    "timestamp": 1611704204000,
    "description": "Natural Gas Leak",
    "address": "143 Madrona Pl E",
    "active": false,
    "unitCount": 3,
    "severity": 0,
    "lat": 47.619025,
    "long": -122.285239,
    "neighborhood": "Madrona/Leschi",
    "neighborhoodGroup": "Central",
    "units": "B2 E34 L3"
  },
  {
    "id_str": "F210008491",
    "created_at": "1/26/2021 3:33:06 PM",
    "timestamp": 1611703986000,
    "description": "Aid Response",
    "address": "N 56th St / Keystone Pl N",
    "active": false,
    "unitCount": 1,
    "severity": 0,
    "lat": 47.66868,
    "long": -122.332989,
    "neighborhood": "Green Lake",
    "neighborhoodGroup": "Northwest",
    "units": "E31"
  },
  {
    "id_str": "F210008490",
    "created_at": "1/26/2021 3:28:33 PM",
    "timestamp": 1611703713000,
    "description": "Aid Response",
    "address": "7013 17th Ave Nw",
    "active": false,
    "unitCount": 1,
    "severity": 0,
    "lat": 47.679596,
    "long": -122.378916,
    "neighborhood": "Whittier Heights",
    "neighborhoodGroup": "Ballard",
    "units": "E18"
  },
  {
    "id_str": "F210008489",
    "created_at": "1/26/2021 3:27:19 PM",
    "timestamp": 1611703639000,
    "description": "Auto Fire Alarm",
    "address": "225 Cedar St",
    "active": false,
    "unitCount": 2,
    "severity": 0,
    "lat": 47.616636,
    "long": -122.349538,
    "neighborhood": "Belltown",
    "neighborhoodGroup": "Downtown",
    "units": "E2 L4"
  },
  {
    "id_str": "F210008488",
    "created_at": "1/26/2021 3:26:25 PM",
    "timestamp": 1611703585000,
    "description": "Aid Response",
    "address": "N 55th St / Phinney Ave N",
    "active": false,
    "unitCount": 1,
    "severity": 0,
    "lat": 47.668431,
    "long": -122.35441,
    "neighborhood": "Greenwood/Phinney Ridge",
    "neighborhoodGroup": "Northwest",
    "units": "E21"
  },
  {
    "id_str": "F210008487",
    "created_at": "1/26/2021 3:26:05 PM",
    "timestamp": 1611703565000,
    "description": "Aid Response",
    "address": "131 10th Ave E",
    "active": false,
    "unitCount": 1,
    "severity": 0,
    "lat": 47.619107,
    "long": -122.319527,
    "neighborhood": "Capitol Hill",
    "neighborhoodGroup": "East",
    "units": "E25"
  },
  {
    "id_str": "F210008484",
    "created_at": "1/26/2021 3:23:42 PM",
    "timestamp": 1611703422000,
    "description": "Aid Response",
    "address": "1820 N 45th St",
    "active": false,
    "unitCount": 1,
    "severity": 0,
    "lat": 47.661386,
    "long": -122.336045,
    "neighborhood": "Wallingford",
    "neighborhoodGroup": "Lake Union",
    "units": "E17"
  },
  {
    "id_str": "F210008483",
    "created_at": "1/26/2021 3:18:42 PM",
    "timestamp": 1611703122000,
    "description": "Aid Response",
    "address": "14200 Linden Av N",
    "active": false,
    "unitCount": 1,
    "severity": 0,
    "lat": 47.731677,
    "long": -122.347772,
    "neighborhood": "Broadview/Bitter Lake",
    "neighborhoodGroup": "Northwest",
    "units": "E24"
  },
  {
    "id_str": "F210008482",
    "created_at": "1/26/2021 3:14:48 PM",
    "timestamp": 1611702888000,
    "description": "Medic Response",
    "address": "4831 35th Av Sw",
    "active": false,
    "unitCount": 2,
    "severity": 0,
    "lat": 47.558988,
    "long": -122.376234,
    "neighborhood": "West Seattle Junction/Genesee Hill",
    "neighborhoodGroup": "Southwest",
    "units": "E32 M32"
  },
  {
    "id_str": "F210008481",
    "created_at": "1/26/2021 3:12:07 PM",
    "timestamp": 1611702727000,
    "description": "Aid Response",
    "address": "Lake Washington Blvd S / S Ferdinand St",
    "active": false,
    "unitCount": 1,
    "severity": 0,
    "lat": 47.558279,
    "long": -122.263298,
    "neighborhood": "Seward Park",
    "neighborhoodGroup": "Southeast",
    "units": "L12"
  },
  {
    "id_str": "F210008480",
    "created_at": "1/26/2021 3:11:16 PM",
    "timestamp": 1611702676000,
    "description": "Aid Response",
    "address": "1100 Minor Av",
    "active": false,
    "unitCount": 1,
    "severity": 0,
    "lat": 47.610516,
    "long": -122.324681,
    "neighborhood": "First Hill",
    "neighborhoodGroup": "East",
    "units": "A25"
  },
  {
    "id_str": "F210008479",
    "created_at": "1/26/2021 3:09:05 PM",
    "timestamp": 1611702545000,
    "description": "Aid Response",
    "address": "1100 12TH AVE S",
    "active": false,
    "unitCount": 1,
    "severity": 0,
    "lat": 47.592687,
    "long": -122.317281,
    "neighborhood": "Duwamish/SODO",
    "neighborhoodGroup": "Greater Duwamish",
    "units": "A5"
  },
  {
    "id_str": "F210008478",
    "created_at": "1/26/2021 3:08:15 PM",
    "timestamp": 1611702495000,
    "description": "Low Acuity Response",
    "address": "2024 3rd Av",
    "active": false,
    "unitCount": 3,
    "severity": 0,
    "lat": 47.612578,
    "long": -122.341197,
    "neighborhood": "Cascade/Eastlake",
    "neighborhoodGroup": "Lake Union",
    "units": "A4 E5 H1"
  },
  {
    "id_str": "F210008477",
    "created_at": "1/26/2021 3:02:01 PM",
    "timestamp": 1611702121000,
    "description": "Aid Response",
    "address": "1115 Nw Market St",
    "active": false,
    "unitCount": 1,
    "severity": 0,
    "lat": 47.668662,
    "long": -122.370893,
    "neighborhood": "Ballard",
    "neighborhoodGroup": "Ballard",
    "units": "E18"
  },
  {
    "id_str": "F210008476",
    "created_at": "1/26/2021 3:00:13 PM",
    "timestamp": 1611702013000,
    "description": "Aid Response",
    "address": "751 N 135th St",
    "active": false,
    "unitCount": 1,
    "severity": 0,
    "lat": 47.726805,
    "long": -122.347791,
    "neighborhood": "Broadview/Bitter Lake",
    "neighborhoodGroup": "Northwest",
    "units": "A31"
  },
  {
    "id_str": "F210008473",
    "created_at": "1/26/2021 2:56:16 PM",
    "timestamp": 1611701776000,
    "description": "MVI - Motor Vehicle Incident",
    "address": "Ne 133rd St / Lake City Way Ne",
    "active": false,
    "unitCount": 1,
    "severity": 0,
    "lat": 47.724704,
    "long": -122.292567,
    "neighborhood": "Cedar Park/Meadowbrook",
    "neighborhoodGroup": "North",
    "units": "E39"
  },
  {
    "id_str": "F210008472",
    "created_at": "1/26/2021 2:55:30 PM",
    "timestamp": 1611701730000,
    "description": "Aid Response",
    "address": "3805 S Angeline St",
    "active": false,
    "unitCount": 1,
    "severity": 0,
    "lat": 47.559459,
    "long": -122.284252,
    "neighborhood": "Columbia City",
    "neighborhoodGroup": "Southeast",
    "units": "E28"
  },
  {
    "id_str": "F210008471",
    "created_at": "1/26/2021 2:49:07 PM",
    "timestamp": 1611701347000,
    "description": "Low Acuity Response",
    "address": "525 14th Av E",
    "active": false,
    "unitCount": 2,
    "severity": 0,
    "lat": 47.623391,
    "long": -122.314649,
    "neighborhood": "Capitol Hill",
    "neighborhoodGroup": "East",
    "units": "A2 H1"
  },
  {
    "id_str": "F210008470",
    "created_at": "1/26/2021 2:43:31 PM",
    "timestamp": 1611701011000,
    "description": "Rescue Elevator",
    "address": "1105 E Fir St",
    "active": false,
    "unitCount": 1,
    "severity": 0,
    "lat": 47.602688,
    "long": -122.318034,
    "neighborhood": "First Hill",
    "neighborhoodGroup": "East",
    "units": "L1"
  },
  {
    "id_str": "F210008468",
    "created_at": "1/26/2021 2:23:23 PM",
    "timestamp": 1611699803000,
    "description": "Aid Response",
    "address": "1600 7th Av",
    "active": false,
    "unitCount": 1,
    "severity": 0,
    "lat": 47.6126,
    "long": -122.334262,
    "neighborhood": "First Hill",
    "neighborhoodGroup": "East",
    "units": "A4"
  },
  {
    "id_str": "F210008467",
    "created_at": "1/26/2021 2:20:49 PM",
    "timestamp": 1611699649000,
    "description": "Aid Response",
    "address": "1200 University St",
    "active": false,
    "unitCount": 1,
    "severity": 0,
    "lat": 47.611943,
    "long": -122.325987,
    "neighborhood": "First Hill",
    "neighborhoodGroup": "East",
    "units": "A10"
  },
  {
    "id_str": "F210008466",
    "created_at": "1/26/2021 2:20:15 PM",
    "timestamp": 1611699615000,
    "description": "Medic Response",
    "address": "14th Ave Nw / Nw 46th St",
    "active": false,
    "unitCount": 2,
    "severity": 0,
    "lat": 47.662202,
    "long": -122.373595,
    "neighborhood": "Ballard",
    "neighborhoodGroup": "Ballard",
    "units": "L8 M31"
  },
  {
    "id_str": "F210008465",
    "created_at": "1/26/2021 2:19:44 PM",
    "timestamp": 1611699584000,
    "description": "MVI - Motor Vehicle Incident",
    "address": "Rainier Ave S / S Henderson St",
    "active": false,
    "unitCount": 1,
    "severity": 0,
    "lat": 47.523307,
    "long": -122.269986,
    "neighborhood": "Rainier Beach",
    "neighborhoodGroup": "Southeast",
    "units": "E33"
  },
  {
    "id_str": "F210008464",
    "created_at": "1/26/2021 2:17:54 PM",
    "timestamp": 1611699474000,
    "description": "Low Acuity Response",
    "address": "401 Broadway",
    "active": false,
    "unitCount": 1,
    "severity": 0,
    "lat": 47.605225,
    "long": -122.32075,
    "neighborhood": "First Hill",
    "neighborhoodGroup": "East",
    "units": "A25"
  },
  {
    "id_str": "F210008462",
    "created_at": "1/26/2021 2:14:29 PM",
    "timestamp": 1611699269000,
    "description": "Aid Response",
    "address": "1911 22nd Av S",
    "active": false,
    "unitCount": 1,
    "severity": 0,
    "lat": 47.586234,
    "long": -122.304237,
    "neighborhood": "North Beacon Hill/Jefferson Park",
    "neighborhoodGroup": "Greater Duwamish",
    "units": "E30"
  },
  {
    "id_str": "F210008461",
    "created_at": "1/26/2021 2:08:12 PM",
    "timestamp": 1611698892000,
    "description": "Aid Response",
    "address": "5968 Rainier Av S",
    "active": false,
    "unitCount": 1,
    "severity": 0,
    "lat": 47.548785,
    "long": -122.276963,
    "neighborhood": "Columbia City",
    "neighborhoodGroup": "Southeast",
    "units": "E28"
  },
  {
    "id_str": "F210008460",
    "created_at": "1/26/2021 2:03:05 PM",
    "timestamp": 1611698585000,
    "description": "Medic Response",
    "address": "5700 24th Av Nw",
    "active": false,
    "unitCount": 2,
    "severity": 0,
    "lat": 47.670187,
    "long": -122.387587,
    "neighborhood": "Sunset Hill/Loyal Heights",
    "neighborhoodGroup": "Ballard",
    "units": "E18 M18"
  },
  {
    "id_str": "F210008459",
    "created_at": "1/26/2021 2:02:44 PM",
    "timestamp": 1611698564000,
    "description": "Aid Response",
    "address": "220 S River St",
    "active": false,
    "unitCount": 1,
    "severity": 0,
    "lat": 47.543589,
    "long": -122.331677,
    "neighborhood": "Georgetown",
    "neighborhoodGroup": "Greater Duwamish",
    "units": "E27"
  },
  {
    "id_str": "F210008456",
    "created_at": "1/26/2021 1:50:55 PM",
    "timestamp": 1611697855000,
    "description": "Medic Response",
    "address": "1426 N Northgate Way",
    "active": false,
    "unitCount": 2,
    "severity": 0,
    "lat": 47.705045,
    "long": -122.340287,
    "neighborhood": "Licton Springs",
    "neighborhoodGroup": "Northwest",
    "units": "A31 M31"
  },
  {
    "id_str": "F210008455",
    "created_at": "1/26/2021 1:49:19 PM",
    "timestamp": 1611697759000,
    "description": "Low Acuity Response",
    "address": "1300 University St",
    "active": false,
    "unitCount": 1,
    "severity": 0,
    "lat": 47.612408,
    "long": -122.324876,
    "neighborhood": "Capitol Hill",
    "neighborhoodGroup": "East",
    "units": "A25"
  },
  {
    "id_str": "F210008447",
    "created_at": "1/26/2021 1:17:24 PM",
    "timestamp": 1611695844000,
    "description": "MVI - Motor Vehicle Incident",
    "address": "Nb I5 At Albro",
    "active": false,
    "unitCount": 3,
    "severity": 0,
    "lat": 47.542027,
    "long": -122.303649,
    "neighborhood": "South Beacon Hill/NewHolly",
    "neighborhoodGroup": "Greater Duwamish",
    "units": "A14 E28 E33"
  },
  {
    "id_str": "F210008446",
    "created_at": "1/26/2021 1:17:06 PM",
    "timestamp": 1611695826000,
    "description": "Aid Response",
    "address": "2721 4th Av",
    "active": false,
    "unitCount": 1,
    "severity": 0,
    "lat": 47.617908,
    "long": -122.34823,
    "neighborhood": "Cascade/Eastlake",
    "neighborhoodGroup": "Lake Union",
    "units": "A2"
  },
  {
    "id_str": "F210008445",
    "created_at": "1/26/2021 1:16:36 PM",
    "timestamp": 1611695796000,
    "description": "Auto Fire Alarm",
    "address": "109 Eastlake Av E",
    "active": false,
    "unitCount": 2,
    "severity": 0,
    "lat": 47.61864,
    "long": -122.329128,
    "neighborhood": "Cascade/Eastlake",
    "neighborhoodGroup": "Lake Union",
    "units": "E25 L10"
  },
  {
    "id_str": "F210008444",
    "created_at": "1/26/2021 1:14:38 PM",
    "timestamp": 1611695678000,
    "description": "Activated CO Detector",
    "address": "1418 Nw 50th St",
    "active": false,
    "unitCount": 1,
    "severity": 0,
    "lat": 47.665047,
    "long": -122.374048,
    "neighborhood": "Ballard",
    "neighborhoodGroup": "Ballard",
    "units": "L8"
  },
  {
    "id_str": "F210008443",
    "created_at": "1/26/2021 1:11:45 PM",
    "timestamp": 1611695505000,
    "description": "Aid Response",
    "address": "2020 S Jackson St",
    "active": false,
    "unitCount": 1,
    "severity": 0,
    "lat": 47.599261,
    "long": -122.305258,
    "neighborhood": "Judkins Park",
    "neighborhoodGroup": "Central",
    "units": "E6"
  },
  {
    "id_str": "F210008442",
    "created_at": "1/26/2021 1:02:10 PM",
    "timestamp": 1611694930000,
    "description": "Medic Response",
    "address": "7510 26th Ave Ne",
    "active": false,
    "unitCount": 2,
    "severity": 0,
    "lat": 47.683131,
    "long": -122.299689,
    "neighborhood": "Ravenna/Bryant",
    "neighborhoodGroup": "Northeast",
    "units": "E16 M17"
  },
  {
    "id_str": "F210008441",
    "created_at": "1/26/2021 12:51:56 PM",
    "timestamp": 1611694316000,
    "description": "Aid Response Yellow",
    "address": "1425 E Prospect St",
    "active": false,
    "unitCount": 2,
    "severity": 0,
    "lat": 47.628413,
    "long": -122.314053,
    "neighborhood": "North Capitol Hill",
    "neighborhoodGroup": "East",
    "units": "A25 E25"
  },
  {
    "id_str": "F210008440",
    "created_at": "1/26/2021 12:43:37 PM",
    "timestamp": 1611693817000,
    "description": "Low Acuity Response",
    "address": "4014 Ne 123rd St",
    "active": false,
    "unitCount": 1,
    "severity": 0,
    "lat": 47.71736,
    "long": -122.2851,
    "neighborhood": "Cedar Park/Meadowbrook",
    "neighborhoodGroup": "North",
    "units": "A31"
  },
  {
    "id_str": "F210008439",
    "created_at": "1/26/2021 12:42:03 PM",
    "timestamp": 1611693723000,
    "description": "Medic Response",
    "address": "805 4th Av N",
    "active": false,
    "unitCount": 3,
    "severity": 0,
    "lat": 47.626322,
    "long": -122.348863,
    "neighborhood": "Queen Anne",
    "neighborhoodGroup": "Magnolia/Queen Anne",
    "units": "A2 A4 M1"
  },
  {
    "id_str": "F210008434",
    "created_at": "1/26/2021 12:31:11 PM",
    "timestamp": 1611693071000,
    "description": "Aid Response",
    "address": "12740 33rd Av Ne",
    "active": false,
    "unitCount": 1,
    "severity": 0,
    "lat": 47.720938,
    "long": -122.292513,
    "neighborhood": "Cedar Park/Meadowbrook",
    "neighborhoodGroup": "North",
    "units": "E39"
  },
  {
    "id_str": "F210008433",
    "created_at": "1/26/2021 12:27:58 PM",
    "timestamp": 1611692878000,
    "description": "Aid Response",
    "address": "1523 E Madison St",
    "active": false,
    "unitCount": 1,
    "severity": 0,
    "lat": 47.614627,
    "long": -122.312463,
    "neighborhood": "Central Area/Squire Park",
    "neighborhoodGroup": "Central",
    "units": "A25"
  },
  {
    "id_str": "F210008430",
    "created_at": "1/26/2021 12:23:34 PM",
    "timestamp": 1611692614000,
    "description": "Auto Fire Alarm",
    "address": "4202 6th Av S",
    "active": false,
    "unitCount": 4,
    "severity": 0,
    "lat": 47.566489,
    "long": -122.32673,
    "neighborhood": "Duwamish/SODO",
    "neighborhoodGroup": "Greater Duwamish",
    "units": "E10 E30 L10 L4"
  },
  {
    "id_str": "F210008429",
    "created_at": "1/26/2021 12:23:13 PM",
    "timestamp": 1611692593000,
    "description": "Fire in Building",
    "address": "11 S Nevada St",
    "active": false,
    "unitCount": 21,
    "severity": 2,
    "lat": 47.565776,
    "long": -122.344009,
    "neighborhood": "Duwamish/SODO",
    "neighborhoodGroup": "Greater Duwamish",
    "units": "A14 AIR10 B5 B7 DEP1 E10 E2 E27 E32 E36 E5 L10 L11 L3 M1 M44 MAR5 R1 REHAB1 SAFT2 STAF10"
  },
  {
    "id_str": "F210008425",
    "created_at": "1/26/2021 11:53:28 AM",
    "timestamp": 1611690808000,
    "description": "Aid Response",
    "address": "1139 Nw Market St",
    "active": false,
    "unitCount": 1,
    "severity": 0,
    "lat": 47.668662,
    "long": -122.371121,
    "neighborhood": "Ballard",
    "neighborhoodGroup": "Ballard",
    "units": "E18"
  },
  {
    "id_str": "F210008424",
    "created_at": "1/26/2021 11:50:07 AM",
    "timestamp": 1611690607000,
    "description": "Medic Response",
    "address": "2580 29th Av S",
    "active": false,
    "unitCount": 2,
    "severity": 0,
    "lat": 47.579817,
    "long": -122.295179,
    "neighborhood": "Mt. Baker/North Rainier",
    "neighborhoodGroup": "Southeast",
    "units": "E13 M28"
  },
  {
    "id_str": "F210008423",
    "created_at": "1/26/2021 11:31:53 AM",
    "timestamp": 1611689513000,
    "description": "Aid Response",
    "address": "5126 S Kenyon St",
    "active": false,
    "unitCount": 1,
    "severity": 0,
    "lat": 47.531583,
    "long": -122.269342,
    "neighborhood": "Rainier Beach",
    "neighborhoodGroup": "Southeast",
    "units": "E33"
  },
  {
    "id_str": "F210008422",
    "created_at": "1/26/2021 11:31:10 AM",
    "timestamp": 1611689470000,
    "description": "Aid Response",
    "address": "1411 S Concord St",
    "active": false,
    "unitCount": 1,
    "severity": 0,
    "lat": 47.523892,
    "long": -122.314927,
    "neighborhood": "South Park",
    "neighborhoodGroup": "Greater Duwamish",
    "units": "E11"
  },
  {
    "id_str": "F210008419",
    "created_at": "1/26/2021 11:22:51 AM",
    "timestamp": 1611688971000,
    "description": "Aid Response",
    "address": "2459 S Edmunds St",
    "active": false,
    "unitCount": 1,
    "severity": 0,
    "lat": 47.559505,
    "long": -122.301443,
    "neighborhood": "Beacon Hill",
    "neighborhoodGroup": "Greater Duwamish",
    "units": "E27"
  },
  {
    "id_str": "F210008418",
    "created_at": "1/26/2021 11:19:56 AM",
    "timestamp": 1611688796000,
    "description": "Aid Response Yellow",
    "address": "1039 6th Av S",
    "active": false,
    "unitCount": 1,
    "severity": 0,
    "lat": 47.593751,
    "long": -122.325968,
    "neighborhood": "Duwamish/SODO",
    "neighborhoodGroup": "Greater Duwamish",
    "units": "H1"
  },
  {
    "id_str": "F210008416",
    "created_at": "1/26/2021 11:02:41 AM",
    "timestamp": 1611687761000,
    "description": "Aid Response",
    "address": "5132 S Roxbury St",
    "active": false,
    "unitCount": 1,
    "severity": 0,
    "lat": 47.516845,
    "long": -122.268905,
    "neighborhood": "Rainier Beach",
    "neighborhoodGroup": "Southeast",
    "units": "E33"
  },
  {
    "id_str": "F210008414",
    "created_at": "1/26/2021 10:59:23 AM",
    "timestamp": 1611687563000,
    "description": "Auto Fire Alarm",
    "address": "400 23rd Av",
    "active": false,
    "unitCount": 2,
    "severity": 0,
    "lat": 47.605147,
    "long": -122.30279,
    "neighborhood": "Central Area/Squire Park",
    "neighborhoodGroup": "Central",
    "units": "E6 L10"
  },
  {
    "id_str": "F210008412",
    "created_at": "1/26/2021 10:35:07 AM",
    "timestamp": 1611686107000,
    "description": "Automatic Fire Alarm False",
    "address": "901 Pine St",
    "active": false,
    "unitCount": 2,
    "severity": 0,
    "lat": 47.613533,
    "long": -122.332031,
    "neighborhood": "First Hill",
    "neighborhoodGroup": "East",
    "units": "E2 L4"
  },
  {
    "id_str": "F210008410",
    "created_at": "1/26/2021 10:32:25 AM",
    "timestamp": 1611685945000,
    "description": "Aid Response",
    "address": "Linden Ave N / N 72nd St",
    "active": false,
    "unitCount": 1,
    "severity": 0,
    "lat": 47.681049,
    "long": -122.347034,
    "neighborhood": "Greenwood/Phinney Ridge",
    "neighborhoodGroup": "Northwest",
    "units": "E21"
  },
  {
    "id_str": "F210008409",
    "created_at": "1/26/2021 10:32:07 AM",
    "timestamp": 1611685927000,
    "description": "Medic Response",
    "address": "3rd Ave / Yesler Way",
    "active": false,
    "unitCount": 3,
    "severity": 0,
    "lat": 47.601716,
    "long": -122.330265,
    "neighborhood": "Downtown Commercial Core",
    "neighborhoodGroup": "Downtown",
    "units": "A10 A5 M10"
  },
  {
    "id_str": "F210008408",
    "created_at": "1/26/2021 10:31:24 AM",
    "timestamp": 1611685884000,
    "description": "Medic Response",
    "address": "1126 M L King Jr Way",
    "active": false,
    "unitCount": 2,
    "severity": 0,
    "lat": 47.611729,
    "long": -122.296223,
    "neighborhood": "Central Area/Squire Park",
    "neighborhoodGroup": "Central",
    "units": "L3 M1"
  },
  {
    "id_str": "F210008407",
    "created_at": "1/26/2021 10:30:48 AM",
    "timestamp": 1611685848000,
    "description": "Aid Response",
    "address": "5928 High Point Dr Sw",
    "active": false,
    "unitCount": 1,
    "severity": 0,
    "lat": 47.549798,
    "long": -122.369656,
    "neighborhood": "High Point",
    "neighborhoodGroup": "Delridge Neighborhoods",
    "units": "E37"
  },
  {
    "id_str": "F210008406",
    "created_at": "1/26/2021 10:29:29 AM",
    "timestamp": 1611685769000,
    "description": "Low Acuity Response",
    "address": "747 N 135th St",
    "active": false,
    "unitCount": 1,
    "severity": 0,
    "lat": 47.726803,
    "long": -122.347793,
    "neighborhood": "Broadview/Bitter Lake",
    "neighborhoodGroup": "Northwest",
    "units": "E24"
  },
  {
    "id_str": "F210008404",
    "created_at": "1/26/2021 10:12:52 AM",
    "timestamp": 1611684772000,
    "description": "Aid Response",
    "address": "501 Rainier Ave S",
    "active": false,
    "unitCount": 1,
    "severity": 0,
    "lat": 47.598322,
    "long": -122.3134,
    "neighborhood": "Judkins Park",
    "neighborhoodGroup": "Central",
    "units": "A5"
  },
  {
    "id_str": "F210008402",
    "created_at": "1/26/2021 10:01:48 AM",
    "timestamp": 1611684108000,
    "description": "Low Acuity Response",
    "address": "1753 Nw 56th St",
    "active": false,
    "unitCount": 1,
    "severity": 0,
    "lat": 47.669446,
    "long": -122.37945,
    "neighborhood": "Ballard",
    "neighborhoodGroup": "Ballard",
    "units": "E18"
  },
  {
    "id_str": "F210008401",
    "created_at": "1/26/2021 9:44:32 AM",
    "timestamp": 1611683072000,
    "description": "Aid Response",
    "address": "Sw Avalon Way / Sw Bradford St",
    "active": false,
    "unitCount": 1,
    "severity": 0,
    "lat": 47.569241,
    "long": -122.370728,
    "neighborhood": "North Delridge",
    "neighborhoodGroup": "Delridge Neighborhoods",
    "units": "E36"
  },
  {
    "id_str": "F210008400",
    "created_at": "1/26/2021 9:44:27 AM",
    "timestamp": 1611683067000,
    "description": "Aid Response",
    "address": "4400 Stone Way N",
    "active": false,
    "unitCount": 1,
    "severity": 0,
    "lat": 47.65996,
    "long": -122.342217,
    "neighborhood": "Wallingford",
    "neighborhoodGroup": "Lake Union",
    "units": "E9"
  },
  {
    "id_str": "F210008398",
    "created_at": "1/26/2021 9:40:22 AM",
    "timestamp": 1611682822000,
    "description": "Alarm Bell",
    "address": "5602 15th Av Ne",
    "active": false,
    "unitCount": 2,
    "severity": 0,
    "lat": 47.669459,
    "long": -122.311887,
    "neighborhood": "University District",
    "neighborhoodGroup": "Northeast",
    "units": "E31 L9"
  },
  {
    "id_str": "F210008397",
    "created_at": "1/26/2021 9:34:55 AM",
    "timestamp": 1611682495000,
    "description": "Aid Response",
    "address": "501 Rainier Ave S",
    "active": false,
    "unitCount": 3,
    "severity": 0,
    "lat": 47.598322,
    "long": -122.3134,
    "neighborhood": "Judkins Park",
    "neighborhoodGroup": "Central",
    "units": "A10 A5 E10"
  },
  {
    "id_str": "F210008395",
    "created_at": "1/26/2021 9:33:53 AM",
    "timestamp": 1611682433000,
    "description": "Low Acuity Response",
    "address": "525 25th Av S",
    "active": false,
    "unitCount": 2,
    "severity": 0,
    "lat": 47.597929,
    "long": -122.299923,
    "neighborhood": "Madrona/Leschi",
    "neighborhoodGroup": "Central",
    "units": "E30 L3"
  },
  {
    "id_str": "F210008396",
    "created_at": "1/26/2021 9:33:39 AM",
    "timestamp": 1611682419000,
    "description": "Low Acuity Response",
    "address": "301 2nd Av S",
    "active": false,
    "unitCount": 1,
    "severity": 0,
    "lat": 47.600032,
    "long": -122.331573,
    "neighborhood": "Pioneer Square/International District",
    "neighborhoodGroup": "Downtown",
    "units": "H1"
  },
  {
    "id_str": "F210008393",
    "created_at": "1/26/2021 9:27:01 AM",
    "timestamp": 1611682021000,
    "description": "Aid Response",
    "address": "12th Ave S / S Jackson St",
    "active": false,
    "unitCount": 1,
    "severity": 0,
    "lat": 47.599187,
    "long": -122.317225,
    "neighborhood": "Pioneer Square/International District",
    "neighborhoodGroup": "Downtown",
    "units": "E6"
  },
  {
    "id_str": "F210008391",
    "created_at": "1/26/2021 9:20:28 AM",
    "timestamp": 1611681628000,
    "description": "Auto Fire Alarm",
    "address": "3815 5th Av Ne",
    "active": false,
    "unitCount": 4,
    "severity": 0,
    "lat": 47.654467,
    "long": -122.323524,
    "neighborhood": "Wallingford",
    "neighborhoodGroup": "Lake Union",
    "units": "E17 FB3 FIREBOAT L9"
  },
  {
    "id_str": "F210008389",
    "created_at": "1/26/2021 9:11:33 AM",
    "timestamp": 1611681093000,
    "description": "Aid Response Yellow",
    "address": "5619 16th Ave Ne",
    "active": false,
    "unitCount": 1,
    "severity": 0,
    "lat": 47.669609,
    "long": -122.310753,
    "neighborhood": "University District",
    "neighborhoodGroup": "Northeast",
    "units": "E31"
  },
  {
    "id_str": "F210008388",
    "created_at": "1/26/2021 9:07:14 AM",
    "timestamp": 1611680834000,
    "description": "Medic Response",
    "address": "9727 45th Ave Sw",
    "active": false,
    "unitCount": 3,
    "severity": 0,
    "lat": 47.516733,
    "long": -122.390032,
    "neighborhood": "Arbor Heights",
    "neighborhoodGroup": "Southwest",
    "units": "E37 M26 M32"
  },
  {
    "id_str": "F210008387",
    "created_at": "1/26/2021 9:04:55 AM",
    "timestamp": 1611680695000,
    "description": "Aid Response",
    "address": "670 S Jackson St",
    "active": false,
    "unitCount": 1,
    "severity": 0,
    "lat": 47.59919,
    "long": -122.324511,
    "neighborhood": "Pioneer Square/International District",
    "neighborhoodGroup": "Downtown",
    "units": "A5"
  },
  {
    "id_str": "F210008386",
    "created_at": "1/26/2021 9:03:36 AM",
    "timestamp": 1611680616000,
    "description": "Aid Response",
    "address": "1700 Airport Way S",
    "active": false,
    "unitCount": 1,
    "severity": 0,
    "lat": 47.588225,
    "long": -122.321391,
    "neighborhood": "Duwamish/SODO",
    "neighborhoodGroup": "Greater Duwamish",
    "units": "A10"
  },
  {
    "id_str": "F210008384",
    "created_at": "1/26/2021 8:49:49 AM",
    "timestamp": 1611679789000,
    "description": "Auto Fire Alarm",
    "address": "2720 E Madison St",
    "active": false,
    "unitCount": 2,
    "severity": 0,
    "lat": 47.623153,
    "long": -122.296667,
    "neighborhood": "Central Area/Squire Park",
    "neighborhoodGroup": "Central",
    "units": "E34 L10"
  },
  {
    "id_str": "F210008383",
    "created_at": "1/26/2021 8:46:34 AM",
    "timestamp": 1611679594000,
    "description": "Aid Response",
    "address": "2121 26th Av S",
    "active": false,
    "unitCount": 1,
    "severity": 0,
    "lat": 47.584234,
    "long": -122.299024,
    "neighborhood": "Mt. Baker/North Rainier",
    "neighborhoodGroup": "Southeast",
    "units": "E30"
  },
  {
    "id_str": "F210008382",
    "created_at": "1/26/2021 8:39:38 AM",
    "timestamp": 1611679178000,
    "description": "Aid Response",
    "address": "9107 Fauntleroy Way Sw",
    "active": false,
    "unitCount": 1,
    "severity": 0,
    "lat": 47.522822,
    "long": -122.392914,
    "neighborhood": "Fauntleroy/Seaview",
    "neighborhoodGroup": "Southwest",
    "units": "E37"
  },
  {
    "id_str": "F210008380",
    "created_at": "1/26/2021 8:35:37 AM",
    "timestamp": 1611678937000,
    "description": "1RED 1 Unit",
    "address": "13323 Lake City Way Ne",
    "active": false,
    "unitCount": 1,
    "severity": 0,
    "lat": 47.724897,
    "long": -122.29252,
    "neighborhood": "Cedar Park/Meadowbrook",
    "neighborhoodGroup": "North",
    "units": "L5"
  },
  {
    "id_str": "F210008379",
    "created_at": "1/26/2021 8:30:26 AM",
    "timestamp": 1611678626000,
    "description": "Aid Response",
    "address": "3116 W Crockett St",
    "active": false,
    "unitCount": 1,
    "severity": 0,
    "lat": 47.637738,
    "long": -122.397026,
    "neighborhood": "Magnolia",
    "neighborhoodGroup": "Magnolia/Queen Anne",
    "units": "E41"
  },
  {
    "id_str": "F210008378",
    "created_at": "1/26/2021 8:28:39 AM",
    "timestamp": 1611678519000,
    "description": "1RED 1 Unit",
    "address": "12531 28th Av Ne",
    "active": false,
    "unitCount": 3,
    "severity": 0,
    "lat": 47.719542,
    "long": -122.297705,
    "neighborhood": "Olympic Hills/Victory Heights",
    "neighborhoodGroup": "North",
    "units": "E39 E40 L5"
  },
  {
    "id_str": "F210008377",
    "created_at": "1/26/2021 8:26:11 AM",
    "timestamp": 1611678371000,
    "description": "Auto Fire Alarm",
    "address": "1025 S King St",
    "active": false,
    "unitCount": 2,
    "severity": 0,
    "lat": 47.598347,
    "long": -122.319339,
    "neighborhood": "Pioneer Square/International District",
    "neighborhoodGroup": "Downtown",
    "units": "E10 L1"
  },
  {
    "id_str": "F210008375",
    "created_at": "1/26/2021 8:12:22 AM",
    "timestamp": 1611677542000,
    "description": "Aid Response",
    "address": "12739 Lake City Way Ne",
    "active": false,
    "unitCount": 1,
    "severity": 0,
    "lat": 47.721319,
    "long": -122.294026,
    "neighborhood": "Cedar Park/Meadowbrook",
    "neighborhoodGroup": "North",
    "units": "E39"
  },
  {
    "id_str": "F210008372",
    "created_at": "1/26/2021 7:53:05 AM",
    "timestamp": 1611676385000,
    "description": "Aid Response",
    "address": "1700 Airport Way S",
    "active": false,
    "unitCount": 1,
    "severity": 0,
    "lat": 47.588225,
    "long": -122.321391,
    "neighborhood": "Duwamish/SODO",
    "neighborhoodGroup": "Greater Duwamish",
    "units": "A5"
  },
  {
    "id_str": "F210008371",
    "created_at": "1/26/2021 7:49:43 AM",
    "timestamp": 1611676183000,
    "description": "Medic Response",
    "address": "23rd Ave S / S Jackson St",
    "active": false,
    "unitCount": 2,
    "severity": 0,
    "lat": 47.599281,
    "long": -122.302233,
    "neighborhood": "Madrona/Leschi",
    "neighborhoodGroup": "Central",
    "units": "E6 M1"
  },
  {
    "id_str": "F210008370",
    "created_at": "1/26/2021 7:39:15 AM",
    "timestamp": 1611675555000,
    "description": "Aid Response",
    "address": "14th Ave E / E Prospect St",
    "active": false,
    "unitCount": 1,
    "severity": 0,
    "lat": 47.628417,
    "long": -122.314569,
    "neighborhood": "North Capitol Hill",
    "neighborhoodGroup": "East",
    "units": "A25"
  },
  {
    "id_str": "F210008368",
    "created_at": "1/26/2021 7:34:13 AM",
    "timestamp": 1611675253000,
    "description": "Aid Response",
    "address": "11030 5th Av Ne",
    "active": false,
    "unitCount": 1,
    "severity": 0,
    "lat": 47.709488,
    "long": -122.323301,
    "neighborhood": "Northgate/Maple Leaf",
    "neighborhoodGroup": "North",
    "units": "E39"
  },
  {
    "id_str": "F210008367",
    "created_at": "1/26/2021 7:31:13 AM",
    "timestamp": 1611675073000,
    "description": "Low Acuity Response",
    "address": "223 Yesler Way",
    "active": false,
    "unitCount": 1,
    "severity": 0,
    "lat": 47.601718,
    "long": -122.331581,
    "neighborhood": "Downtown Commercial Core",
    "neighborhoodGroup": "Downtown",
    "units": "A10"
  },
  {
    "id_str": "F210008366",
    "created_at": "1/26/2021 7:28:01 AM",
    "timestamp": 1611674881000,
    "description": "Medic Response",
    "address": "1403 W Howe St",
    "active": false,
    "unitCount": 2,
    "severity": 0,
    "lat": 47.635953,
    "long": -122.375013,
    "neighborhood": "Interbay",
    "neighborhoodGroup": "Magnolia/Queen Anne",
    "units": "E20 M18"
  },
  {
    "id_str": "F210008361",
    "created_at": "1/26/2021 7:02:15 AM",
    "timestamp": 1611673335000,
    "description": "Aid Response",
    "address": "819 Virginia St",
    "active": false,
    "unitCount": 1,
    "severity": 0,
    "lat": 47.61585,
    "long": -122.336428,
    "neighborhood": "Cascade/Eastlake",
    "neighborhoodGroup": "Lake Union",
    "units": "A2"
  },
  {
    "id_str": "F210008359",
    "created_at": "1/26/2021 6:58:58 AM",
    "timestamp": 1611673138000,
    "description": "Aid Response",
    "address": "2424 24th Ave W",
    "active": false,
    "unitCount": 1,
    "severity": 0,
    "lat": 47.640612,
    "long": -122.387651,
    "neighborhood": "Interbay",
    "neighborhoodGroup": "Magnolia/Queen Anne",
    "units": "E41"
  },
  {
    "id_str": "F210008357",
    "created_at": "1/26/2021 6:32:42 AM",
    "timestamp": 1611671562000,
    "description": "Medic Response, 7 per Rule",
    "address": "808 Fir St",
    "active": false,
    "unitCount": 3,
    "severity": 0,
    "lat": 47.602699,
    "long": -122.322029,
    "neighborhood": "First Hill",
    "neighborhoodGroup": "East",
    "units": "A5 E10 M10"
  },
  {
    "id_str": "F210008355",
    "created_at": "1/26/2021 6:24:28 AM",
    "timestamp": 1611671068000,
    "description": "Medic Response",
    "address": "120 6th Av S",
    "active": false,
    "unitCount": 2,
    "severity": 0,
    "lat": 47.601539,
    "long": -122.326352,
    "neighborhood": "Pioneer Square/International District",
    "neighborhoodGroup": "Downtown",
    "units": "A10 M1"
  },
  {
    "id_str": "F210008352",
    "created_at": "1/26/2021 6:20:00 AM",
    "timestamp": 1611670800000,
    "description": "Aid Response",
    "address": "3638 Courtland Pl S",
    "active": false,
    "unitCount": 1,
    "severity": 0,
    "lat": 47.571234,
    "long": -122.287193,
    "neighborhood": "Columbia City",
    "neighborhoodGroup": "Southeast",
    "units": "E30"
  },
  {
    "id_str": "F210008351",
    "created_at": "1/26/2021 6:15:28 AM",
    "timestamp": 1611670528000,
    "description": "1RED 1 Unit",
    "address": "Ne 65th St / 8th Ave Ne",
    "active": false,
    "unitCount": 1,
    "severity": 0,
    "lat": 47.675852,
    "long": -122.320053,
    "neighborhood": "Green Lake",
    "neighborhoodGroup": "Northwest",
    "units": "E16"
  },
  {
    "id_str": "F210008350",
    "created_at": "1/26/2021 6:14:37 AM",
    "timestamp": 1611670477000,
    "description": "Aid Response",
    "address": "1321 E John St",
    "active": false,
    "unitCount": 1,
    "severity": 0,
    "lat": 47.619948,
    "long": -122.31534,
    "neighborhood": "Capitol Hill",
    "neighborhoodGroup": "East",
    "units": "A25"
  },
  {
    "id_str": "F210008348",
    "created_at": "1/26/2021 6:03:03 AM",
    "timestamp": 1611669783000,
    "description": "Water Job Minor",
    "address": "1128 N 77th St",
    "active": false,
    "unitCount": 1,
    "severity": 0,
    "lat": 47.684767,
    "long": -122.34411,
    "neighborhood": "Green Lake",
    "neighborhoodGroup": "Northwest",
    "units": "L9"
  },
  {
    "id_str": "F210008344",
    "created_at": "1/26/2021 5:47:07 AM",
    "timestamp": 1611668827000,
    "description": "Aid Response",
    "address": "412 31st Ave",
    "active": false,
    "unitCount": 1,
    "severity": 0,
    "lat": 47.605284,
    "long": -122.292631,
    "neighborhood": "Central Area/Squire Park",
    "neighborhoodGroup": "Central",
    "units": "E6"
  },
  {
    "id_str": "F210008342",
    "created_at": "1/26/2021 5:37:37 AM",
    "timestamp": 1611668257000,
    "description": "Aid Response",
    "address": "3514 Ne 57th St",
    "active": false,
    "unitCount": 1,
    "severity": 0,
    "lat": 47.670321,
    "long": -122.290054,
    "neighborhood": "Ravenna/Bryant",
    "neighborhoodGroup": "Northeast",
    "units": "E38"
  },
  {
    "id_str": "F210008343",
    "created_at": "1/26/2021 5:37:36 AM",
    "timestamp": 1611668256000,
    "description": "Aid Response",
    "address": "2215 1st Av",
    "active": false,
    "unitCount": 1,
    "severity": 0,
    "lat": 47.612716,
    "long": -122.345399,
    "neighborhood": "Belltown",
    "neighborhoodGroup": "Downtown",
    "units": "A2"
  },
  {
    "id_str": "F210008339",
    "created_at": "1/26/2021 5:08:10 AM",
    "timestamp": 1611666490000,
    "description": "AFA4 - Auto Alarm 2 + 1 + 1",
    "address": "1964 4th Av S",
    "active": false,
    "unitCount": 4,
    "severity": 0,
    "lat": 47.585699,
    "long": -122.32906,
    "neighborhood": "Duwamish/SODO",
    "neighborhoodGroup": "Greater Duwamish",
    "units": "B5 E10 E5 R1"
  },
  {
    "id_str": "F210008331",
    "created_at": "1/26/2021 4:15:37 AM",
    "timestamp": 1611663337000,
    "description": "Medic Response",
    "address": "11045 8th Av Ne",
    "active": false,
    "unitCount": 2,
    "severity": 0,
    "lat": 47.708899,
    "long": -122.320568,
    "neighborhood": "Northgate/Maple Leaf",
    "neighborhoodGroup": "North",
    "units": "E39 M17"
  },
  {
    "id_str": "F210008330",
    "created_at": "1/26/2021 4:09:42 AM",
    "timestamp": 1611662982000,
    "description": "Aid Response",
    "address": "2014 2nd Av",
    "active": false,
    "unitCount": 1,
    "severity": 0,
    "lat": 47.611835,
    "long": -122.341925,
    "neighborhood": "Belltown",
    "neighborhoodGroup": "Downtown",
    "units": "A2"
  },
  {
    "id_str": "F210008326",
    "created_at": "1/26/2021 3:43:17 AM",
    "timestamp": 1611661397000,
    "description": "Aid Response",
    "address": "507 Ne Northgate Way",
    "active": false,
    "unitCount": 1,
    "severity": 0,
    "lat": 47.708594,
    "long": -122.323211,
    "neighborhood": "Northgate/Maple Leaf",
    "neighborhoodGroup": "North",
    "units": "E39"
  },
  {
    "id_str": "F210008325",
    "created_at": "1/26/2021 3:40:19 AM",
    "timestamp": 1611661219000,
    "description": "Medic Response, 7 per Rule",
    "address": "9009 Fremont Ave N",
    "active": false,
    "unitCount": 3,
    "severity": 0,
    "lat": 47.694292,
    "long": -122.349956,
    "neighborhood": "Licton Springs",
    "neighborhoodGroup": "Northwest",
    "units": "E21 E35 M31"
  },
  {
    "id_str": "F210008324",
    "created_at": "1/26/2021 3:31:03 AM",
    "timestamp": 1611660663000,
    "description": "Low Acuity Response",
    "address": "12509 Greenwood Av N",
    "active": false,
    "unitCount": 1,
    "severity": 0,
    "lat": 47.719674,
    "long": -122.355539,
    "neighborhood": "Broadview/Bitter Lake",
    "neighborhoodGroup": "Northwest",
    "units": "E24"
  },
  {
    "id_str": "F210008322",
    "created_at": "1/26/2021 3:23:49 AM",
    "timestamp": 1611660229000,
    "description": "Water Job Minor",
    "address": "6546 34th Ave Sw",
    "active": false,
    "unitCount": 1,
    "severity": 0,
    "lat": 47.544252,
    "long": -122.375102,
    "neighborhood": "High Point",
    "neighborhoodGroup": "Delridge Neighborhoods",
    "units": "L13"
  },
  {
    "id_str": "F210008320",
    "created_at": "1/26/2021 3:11:54 AM",
    "timestamp": 1611659514000,
    "description": "Aid Response",
    "address": "2046 Nw 57th St",
    "active": false,
    "unitCount": 1,
    "severity": 0,
    "lat": 47.670181,
    "long": -122.382727,
    "neighborhood": "Ballard",
    "neighborhoodGroup": "Ballard",
    "units": "E18"
  },
  {
    "id_str": "F210008319",
    "created_at": "1/26/2021 3:08:08 AM",
    "timestamp": 1611659288000,
    "description": "Rubbish Fire",
    "address": "Ne 125th St / Lake City Way Ne",
    "active": false,
    "unitCount": 1,
    "severity": 0,
    "lat": 47.719279,
    "long": -122.295233,
    "neighborhood": "Cedar Park/Meadowbrook",
    "neighborhoodGroup": "North",
    "units": "E39"
  },
  {
    "id_str": "F210008316",
    "created_at": "1/26/2021 2:58:28 AM",
    "timestamp": 1611658708000,
    "description": "Low Acuity Response",
    "address": "2025 Fairview Av E",
    "active": false,
    "unitCount": 1,
    "severity": 0,
    "lat": 47.636894,
    "long": -122.329179,
    "neighborhood": "Cascade/Eastlake",
    "neighborhoodGroup": "Lake Union",
    "units": "E22"
  },
  {
    "id_str": "F210008315",
    "created_at": "1/26/2021 2:52:29 AM",
    "timestamp": 1611658349000,
    "description": "Auto Fire Alarm",
    "address": "2615 E Cherry St",
    "active": false,
    "unitCount": 2,
    "severity": 0,
    "lat": 47.608,
    "long": -122.298096,
    "neighborhood": "Central Area/Squire Park",
    "neighborhoodGroup": "Central",
    "units": "E6 L3"
  },
  {
    "id_str": "F210008313",
    "created_at": "1/26/2021 2:42:08 AM",
    "timestamp": 1611657728000,
    "description": "Aid Response",
    "address": "415 10th Av",
    "active": false,
    "unitCount": 1,
    "severity": 0,
    "lat": 47.605346,
    "long": -122.319413,
    "neighborhood": "First Hill",
    "neighborhoodGroup": "East",
    "units": "A25"
  },
  {
    "id_str": "F210008312",
    "created_at": "1/26/2021 2:39:57 AM",
    "timestamp": 1611657597000,
    "description": "Aid Response",
    "address": "4547 19th Av Ne",
    "active": false,
    "unitCount": 1,
    "severity": 0,
    "lat": 47.661675,
    "long": -122.307239,
    "neighborhood": "University District",
    "neighborhoodGroup": "Northeast",
    "units": "E17"
  },
  {
    "id_str": "F210008307",
    "created_at": "1/26/2021 2:20:53 AM",
    "timestamp": 1611656453000,
    "description": "Illegal Burn",
    "address": "S Barton St / Renton Ave S",
    "active": false,
    "unitCount": 1,
    "severity": 0,
    "lat": 47.521103,
    "long": -122.275273,
    "neighborhood": "South Beacon Hill/NewHolly",
    "neighborhoodGroup": "Greater Duwamish",
    "units": "E28"
  },
  {
    "id_str": "F210008306",
    "created_at": "1/26/2021 2:19:40 AM",
    "timestamp": 1611656380000,
    "description": "MVI - Motor Vehicle Incident",
    "address": "Carkeek Dr S / 39th Ave S",
    "active": false,
    "unitCount": 1,
    "severity": 0,
    "lat": 47.517328,
    "long": -122.283633,
    "neighborhood": "South Beacon Hill/NewHolly",
    "neighborhoodGroup": "Greater Duwamish",
    "units": "E33"
  },
  {
    "id_str": "F210008305",
    "created_at": "1/26/2021 2:14:35 AM",
    "timestamp": 1611656075000,
    "description": "Aid Response",
    "address": "9200 2nd Av Sw",
    "active": false,
    "unitCount": 1,
    "severity": 0,
    "lat": 47.521244,
    "long": -122.336301,
    "neighborhood": "Highland Park",
    "neighborhoodGroup": "Delridge Neighborhoods",
    "units": "E26"
  },
  {
    "id_str": "F210008304",
    "created_at": "1/26/2021 2:06:56 AM",
    "timestamp": 1611655616000,
    "description": "Aid Response",
    "address": "5300 24th Av Ne",
    "active": false,
    "unitCount": 1,
    "severity": 0,
    "lat": 47.66707,
    "long": -122.301946,
    "neighborhood": "Ravenna/Bryant",
    "neighborhoodGroup": "Northeast",
    "units": "E38"
  },
  {
    "id_str": "F210008300",
    "created_at": "1/26/2021 1:52:54 AM",
    "timestamp": 1611654774000,
    "description": "Auto Fire Alarm",
    "address": "1405 24th Ave",
    "active": false,
    "unitCount": 2,
    "severity": 0,
    "lat": 47.612995,
    "long": -122.301416,
    "neighborhood": "Central Area/Squire Park",
    "neighborhoodGroup": "Central",
    "units": "E6 L10"
  },
  {
    "id_str": "F210008299",
    "created_at": "1/26/2021 1:51:39 AM",
    "timestamp": 1611654699000,
    "description": "Aid Response",
    "address": "10200 1st Av Ne",
    "active": false,
    "unitCount": 1,
    "severity": 0,
    "lat": 47.702577,
    "long": -122.328518,
    "neighborhood": "Northgate/Maple Leaf",
    "neighborhoodGroup": "North",
    "units": "E16"
  },
  {
    "id_str": "F210008297",
    "created_at": "1/26/2021 1:48:34 AM",
    "timestamp": 1611654514000,
    "description": "1RED 1 Unit",
    "address": "Federal Ave E / E Republican St",
    "active": false,
    "unitCount": 1,
    "severity": 0,
    "lat": 47.623122,
    "long": -122.318856,
    "neighborhood": "Capitol Hill",
    "neighborhoodGroup": "East",
    "units": "E25"
  },
  {
    "id_str": "F210008296",
    "created_at": "1/26/2021 1:46:11 AM",
    "timestamp": 1611654371000,
    "description": "Aid Response",
    "address": "2530 14th Av S",
    "active": false,
    "unitCount": 1,
    "severity": 0,
    "lat": 47.580786,
    "long": -122.314714,
    "neighborhood": "North Beacon Hill/Jefferson Park",
    "neighborhoodGroup": "Greater Duwamish",
    "units": "A14"
  },
  {
    "id_str": "F210008294",
    "created_at": "1/26/2021 1:36:28 AM",
    "timestamp": 1611653788000,
    "description": "Aid Response",
    "address": "Nw 100th Pl / 7th Ave Nw",
    "active": false,
    "unitCount": 1,
    "severity": 0,
    "lat": 47.702503,
    "long": -122.363849,
    "neighborhood": "North Beach/Blue Ridge",
    "neighborhoodGroup": "Ballard",
    "units": "E35"
  },
  {
    "id_str": "F210008293",
    "created_at": "1/26/2021 1:26:23 AM",
    "timestamp": 1611653183000,
    "description": "Aid Response",
    "address": "3418 Beacon Ave S",
    "active": false,
    "unitCount": 1,
    "severity": 0,
    "lat": 47.572985,
    "long": -122.308576,
    "neighborhood": "North Beacon Hill/Jefferson Park",
    "neighborhoodGroup": "Greater Duwamish",
    "units": "E13"
  },
  {
    "id_str": "F210008292",
    "created_at": "1/26/2021 1:24:05 AM",
    "timestamp": 1611653045000,
    "description": "Aid Response",
    "address": "2700 Beacon Av S",
    "active": false,
    "unitCount": 2,
    "severity": 0,
    "lat": 47.579471,
    "long": -122.312377,
    "neighborhood": "North Beacon Hill/Jefferson Park",
    "neighborhoodGroup": "Greater Duwamish",
    "units": "E13 E30"
  },
  {
    "id_str": "F210008291",
    "created_at": "1/26/2021 1:22:02 AM",
    "timestamp": 1611652922000,
    "description": "Medic Response",
    "address": "7615 M L King Jr Way S",
    "active": false,
    "unitCount": 2,
    "severity": 0,
    "lat": 47.533819,
    "long": -122.280826,
    "neighborhood": "South Beacon Hill/NewHolly",
    "neighborhoodGroup": "Greater Duwamish",
    "units": "E28 M28"
  },
  {
    "id_str": "F210008288",
    "created_at": "1/26/2021 1:04:18 AM",
    "timestamp": 1611651858000,
    "description": "Activated CO Detector",
    "address": "931 19th Ave E",
    "active": false,
    "unitCount": 1,
    "severity": 0,
    "lat": 47.627127,
    "long": -122.307293,
    "neighborhood": "Miller Park",
    "neighborhoodGroup": "East",
    "units": "L10"
  },
  {
    "id_str": "F210008287",
    "created_at": "1/26/2021 12:52:15 AM",
    "timestamp": 1611651135000,
    "description": "Medic Response",
    "address": "123 Blaine St",
    "active": false,
    "unitCount": 2,
    "severity": 0,
    "lat": 47.634865,
    "long": -122.355065,
    "neighborhood": "Queen Anne",
    "neighborhoodGroup": "Magnolia/Queen Anne",
    "units": "E8 M10"
  },
  {
    "id_str": "F210008286",
    "created_at": "1/26/2021 12:51:31 AM",
    "timestamp": 1611651091000,
    "description": "Aid Response",
    "address": "423 Terry Av",
    "active": false,
    "unitCount": 1,
    "severity": 0,
    "lat": 47.604751,
    "long": -122.322483,
    "neighborhood": "First Hill",
    "neighborhoodGroup": "East",
    "units": "A5"
  },
  {
    "id_str": "F210008285",
    "created_at": "1/26/2021 12:50:12 AM",
    "timestamp": 1611651012000,
    "description": "Aid Response",
    "address": "430 Minor Av N",
    "active": false,
    "unitCount": 1,
    "severity": 0,
    "lat": 47.622312,
    "long": -122.332995,
    "neighborhood": "Cascade/Eastlake",
    "neighborhoodGroup": "Lake Union",
    "units": "A2"
  },
  {
    "id_str": "F210008284",
    "created_at": "1/26/2021 12:47:11 AM",
    "timestamp": 1611650831000,
    "description": "Aid Response",
    "address": "1910 E Galer St",
    "active": false,
    "unitCount": 1,
    "severity": 0,
    "lat": 47.632309,
    "long": -122.307825,
    "neighborhood": "Montlake/Portage Bay",
    "neighborhoodGroup": "Northeast",
    "units": "A25"
  },
  {
    "id_str": "F210008282",
    "created_at": "1/26/2021 12:34:42 AM",
    "timestamp": 1611650082000,
    "description": "Aid Response",
    "address": "1st Ave / Cherry St",
    "active": false,
    "unitCount": 1,
    "severity": 0,
    "lat": 47.602555,
    "long": -122.334281,
    "neighborhood": "Downtown Commercial Core",
    "neighborhoodGroup": "Downtown",
    "units": "A10"
  },
  {
    "id_str": "F210008281",
    "created_at": "1/26/2021 12:30:47 AM",
    "timestamp": 1611649847000,
    "description": "Scenes Of Violence 7",
    "address": "E Roanoke St / Boylston Ave E",
    "active": false,
    "unitCount": 5,
    "severity": 1,
    "lat": 47.643186,
    "long": -122.323416,
    "neighborhood": "Montlake/Portage Bay",
    "neighborhoodGroup": "Northeast",
    "units": "B6 E22 E31 M17 M44"
  },
  {
    "id_str": "F210008279",
    "created_at": "1/26/2021 12:27:38 AM",
    "timestamp": 1611649658000,
    "description": "Investigate Out Of Service",
    "address": "9850 62nd Ave S",
    "active": false,
    "unitCount": 1,
    "severity": 0,
    "lat": 47.512926,
    "long": -122.255861,
    "neighborhood": "Rainier Beach",
    "neighborhoodGroup": "Southeast",
    "units": "E33"
  },
  {
    "id_str": "F210008276",
    "created_at": "1/26/2021 12:10:54 AM",
    "timestamp": 1611648654000,
    "description": "Medic Response",
    "address": "900 University St",
    "active": false,
    "unitCount": 2,
    "severity": 0,
    "lat": 47.61055,
    "long": -122.329318,
    "neighborhood": "First Hill",
    "neighborhoodGroup": "East",
    "units": "A5 M1"
  },
  {
    "id_str": "F210008271",
    "created_at": "1/25/2021 11:50:24 PM",
    "timestamp": 1611647424000,
    "description": "Low Acuity Response",
    "address": "9200 2nd Av Sw",
    "active": false,
    "unitCount": 1,
    "severity": 0,
    "lat": 47.521244,
    "long": -122.336301,
    "neighborhood": "Highland Park",
    "neighborhoodGroup": "Delridge Neighborhoods",
    "units": "E26"
  },
  {
    "id_str": "F210008272",
    "created_at": "1/25/2021 11:50:15 PM",
    "timestamp": 1611647415000,
    "description": "Aid Response",
    "address": "James St / Terry Ave",
    "active": false,
    "unitCount": 1,
    "severity": 0,
    "lat": 47.606018,
    "long": -122.323641,
    "neighborhood": "First Hill",
    "neighborhoodGroup": "East",
    "units": "A10"
  },
  {
    "id_str": "F210008270",
    "created_at": "1/25/2021 11:48:38 PM",
    "timestamp": 1611647318000,
    "description": "Aid Response",
    "address": "120 14th Av",
    "active": false,
    "unitCount": 1,
    "severity": 0,
    "lat": 47.60208,
    "long": -122.314177,
    "neighborhood": "First Hill",
    "neighborhoodGroup": "East",
    "units": "A25"
  },
  {
    "id_str": "F210008269",
    "created_at": "1/25/2021 11:48:31 PM",
    "timestamp": 1611647311000,
    "description": "Rescue Elevator",
    "address": "504 5th Av S",
    "active": false,
    "unitCount": 1,
    "severity": 0,
    "lat": 47.598322,
    "long": -122.327671,
    "neighborhood": "Pioneer Square/International District",
    "neighborhoodGroup": "Downtown",
    "units": "L1"
  },
  {
    "id_str": "F210008268",
    "created_at": "1/25/2021 11:47:07 PM",
    "timestamp": 1611647227000,
    "description": "Aid Response",
    "address": "10507 Aurora Av N",
    "active": false,
    "unitCount": 1,
    "severity": 0,
    "lat": 47.705096,
    "long": -122.344695,
    "neighborhood": "Licton Springs",
    "neighborhoodGroup": "Northwest",
    "units": "E21"
  },
  {
    "id_str": "F210008266",
    "created_at": "1/25/2021 11:41:29 PM",
    "timestamp": 1611646889000,
    "description": "Aid Response",
    "address": "4751 19th Av Ne",
    "active": false,
    "unitCount": 1,
    "severity": 0,
    "lat": 47.663355,
    "long": -122.307213,
    "neighborhood": "University District",
    "neighborhoodGroup": "Northeast",
    "units": "E17"
  },
  {
    "id_str": "F210008265",
    "created_at": "1/25/2021 11:39:51 PM",
    "timestamp": 1611646791000,
    "description": "Activated CO Detector",
    "address": "2205 E Newton St",
    "active": false,
    "unitCount": 1,
    "severity": 0,
    "lat": 47.638296,
    "long": -122.30395,
    "neighborhood": "Montlake/Portage Bay",
    "neighborhoodGroup": "Northeast",
    "units": "L10"
  },
  {
    "id_str": "F210008255",
    "created_at": "1/25/2021 11:30:47 PM",
    "timestamp": 1611646247000,
    "description": "Medic Response",
    "address": "13300 STONE AV N",
    "active": false,
    "unitCount": 2,
    "severity": 0,
    "lat": 47.725515,
    "long": -122.3423,
    "neighborhood": "Haller Lake",
    "neighborhoodGroup": "Northwest",
    "units": "E24 M31"
  },
  {
    "id_str": "F210008254",
    "created_at": "1/25/2021 11:30:32 PM",
    "timestamp": 1611646232000,
    "description": "Aid Response",
    "address": "5270 Rainier Av S",
    "active": false,
    "unitCount": 1,
    "severity": 0,
    "lat": 47.554937,
    "long": -122.282393,
    "neighborhood": "Columbia City",
    "neighborhoodGroup": "Southeast",
    "units": "E28"
  },
  {
    "id_str": "F210008252",
    "created_at": "1/25/2021 11:29:44 PM",
    "timestamp": 1611646184000,
    "description": "1RED 1 Unit",
    "address": "1900 S Main St",
    "active": false,
    "unitCount": 1,
    "severity": 0,
    "lat": 47.599999,
    "long": -122.307661,
    "neighborhood": "Judkins Park",
    "neighborhoodGroup": "Central",
    "units": "E6"
  },
  {
    "id_str": "F210008251",
    "created_at": "1/25/2021 11:28:28 PM",
    "timestamp": 1611646108000,
    "description": "Low Acuity Response",
    "address": "9200 2nd Av Sw",
    "active": false,
    "unitCount": 1,
    "severity": 0,
    "lat": 47.521244,
    "long": -122.336301,
    "neighborhood": "Highland Park",
    "neighborhoodGroup": "Delridge Neighborhoods",
    "units": "E26"
  },
  {
    "id_str": "F210008250",
    "created_at": "1/25/2021 11:27:41 PM",
    "timestamp": 1611646061000,
    "description": "Auto Fire Alarm",
    "address": "1476 Elliott Av W",
    "active": false,
    "unitCount": 2,
    "severity": 0,
    "lat": 47.631879,
    "long": -122.375178,
    "neighborhood": "Interbay",
    "neighborhoodGroup": "Magnolia/Queen Anne",
    "units": "E41 L4"
  },
  {
    "id_str": "F210008246",
    "created_at": "1/25/2021 11:11:10 PM",
    "timestamp": 1611645070000,
    "description": "Auto Fire Alarm",
    "address": "1550 N 115th St",
    "active": false,
    "unitCount": 2,
    "severity": 0,
    "lat": 47.712305,
    "long": -122.339596,
    "neighborhood": "Haller Lake",
    "neighborhoodGroup": "Northwest",
    "units": "E16 L5"
  },
  {
    "id_str": "F210008245",
    "created_at": "1/25/2021 11:10:05 PM",
    "timestamp": 1611645005000,
    "description": "Aid Response",
    "address": "710 Cherry St",
    "active": false,
    "unitCount": 1,
    "severity": 0,
    "lat": 47.605387,
    "long": -122.327511,
    "neighborhood": "First Hill",
    "neighborhoodGroup": "East",
    "units": "A5"
  },
  {
    "id_str": "F210008244",
    "created_at": "1/25/2021 11:08:45 PM",
    "timestamp": 1611644925000,
    "description": "Aid Response",
    "address": "5316 2nd Ave Nw",
    "active": false,
    "unitCount": 1,
    "severity": 0,
    "lat": 47.667368,
    "long": -122.359276,
    "neighborhood": "Fremont",
    "neighborhoodGroup": "Lake Union",
    "units": "E18"
  },
  {
    "id_str": "F210008243",
    "created_at": "1/25/2021 10:59:11 PM",
    "timestamp": 1611644351000,
    "description": "Aid Response",
    "address": "2024 3rd Av",
    "active": false,
    "unitCount": 1,
    "severity": 0,
    "lat": 47.612578,
    "long": -122.341197,
    "neighborhood": "Cascade/Eastlake",
    "neighborhoodGroup": "Lake Union",
    "units": "A2"
  },
  {
    "id_str": "F210008241",
    "created_at": "1/25/2021 10:57:42 PM",
    "timestamp": 1611644262000,
    "description": "Aid Response",
    "address": "4835 California Av Sw",
    "active": false,
    "unitCount": 2,
    "severity": 0,
    "lat": 47.559002,
    "long": -122.386839,
    "neighborhood": "West Seattle Junction/Genesee Hill",
    "neighborhoodGroup": "Southwest",
    "units": "E32 M32"
  },
  {
    "id_str": "F210008240",
    "created_at": "1/25/2021 10:54:19 PM",
    "timestamp": 1611644059000,
    "description": "Aid Response",
    "address": "20th Ave S / S Main St",
    "active": false,
    "unitCount": 1,
    "severity": 0,
    "lat": 47.599997,
    "long": -122.306355,
    "neighborhood": "Judkins Park",
    "neighborhoodGroup": "Central",
    "units": "E6"
  },
  {
    "id_str": "F210008238",
    "created_at": "1/25/2021 10:49:03 PM",
    "timestamp": 1611643743000,
    "description": "Medic Response",
    "address": "11045 Greenwood Av N",
    "active": false,
    "unitCount": 2,
    "severity": 0,
    "lat": 47.709117,
    "long": -122.355484,
    "neighborhood": "North Beach/Blue Ridge",
    "neighborhoodGroup": "Ballard",
    "units": "E35 M31"
  },
  {
    "id_str": "F210008233",
    "created_at": "1/25/2021 10:43:41 PM",
    "timestamp": 1611643421000,
    "description": "Activated CO Detector",
    "address": "4754 19th Ave Ne",
    "active": false,
    "unitCount": 1,
    "severity": 0,
    "lat": 47.663373,
    "long": -122.307213,
    "neighborhood": "University District",
    "neighborhoodGroup": "Northeast",
    "units": "L9"
  },
  {
    "id_str": "F210008232",
    "created_at": "1/25/2021 10:41:26 PM",
    "timestamp": 1611643286000,
    "description": "4RED - 2 + 1 + 1",
    "address": "2208 15th Av W",
    "active": false,
    "unitCount": 5,
    "severity": 1,
    "lat": 47.638695,
    "long": -122.376149,
    "neighborhood": "Interbay",
    "neighborhoodGroup": "Magnolia/Queen Anne",
    "units": "B4 E20 E41 L6 L8"
  },
  {
    "id_str": "F210008230",
    "created_at": "1/25/2021 10:37:12 PM",
    "timestamp": 1611643032000,
    "description": "MVI - Motor Vehicle Incident",
    "address": "CORLISS AVE N / N NORTHGATE WAY",
    "active": false,
    "unitCount": 2,
    "severity": 0,
    "lat": 47.708646,
    "long": -122.331314,
    "neighborhood": "Northgate/Maple Leaf",
    "neighborhoodGroup": "North",
    "units": "E24 E9"
  },
  {
    "id_str": "F210008229",
    "created_at": "1/25/2021 10:36:02 PM",
    "timestamp": 1611642962000,
    "description": "Low Acuity Response",
    "address": "9543 Greenwood Av N",
    "active": false,
    "unitCount": 1,
    "severity": 0,
    "lat": 47.698223,
    "long": -122.355381,
    "neighborhood": "Greenwood/Phinney Ridge",
    "neighborhoodGroup": "Northwest",
    "units": "E21"
  },
  {
    "id_str": "F210008225",
    "created_at": "1/25/2021 10:11:34 PM",
    "timestamp": 1611641494000,
    "description": "Low Acuity Response",
    "address": "607 3rd Av",
    "active": false,
    "unitCount": 1,
    "severity": 0,
    "lat": 47.602813,
    "long": -122.331449,
    "neighborhood": "Downtown Commercial Core",
    "neighborhoodGroup": "Downtown",
    "units": "A10"
  },
  {
    "id_str": "F210008224",
    "created_at": "1/25/2021 10:11:12 PM",
    "timestamp": 1611641472000,
    "description": "Aid Response",
    "address": "501 Rainier Ave S",
    "active": false,
    "unitCount": 1,
    "severity": 0,
    "lat": 47.598322,
    "long": -122.3134,
    "neighborhood": "Judkins Park",
    "neighborhoodGroup": "Central",
    "units": "E6"
  },
  {
    "id_str": "F210008222",
    "created_at": "1/25/2021 10:07:51 PM",
    "timestamp": 1611641271000,
    "description": "Unk Odor",
    "address": "15th Ave Sw / Sw Cambridge St",
    "active": false,
    "unitCount": 1,
    "severity": 0,
    "lat": 47.519193,
    "long": -122.354,
    "neighborhood": "Highland Park",
    "neighborhoodGroup": "Delridge Neighborhoods",
    "units": "E11"
  },
  {
    "id_str": "F210008220",
    "created_at": "1/25/2021 9:57:39 PM",
    "timestamp": 1611640659000,
    "description": "Aid Response",
    "address": "4209 Sunnyside Ave N",
    "active": false,
    "unitCount": 1,
    "severity": 0,
    "lat": 47.65804,
    "long": -122.330209,
    "neighborhood": "Wallingford",
    "neighborhoodGroup": "Lake Union",
    "units": "E31"
  },
  {
    "id_str": "F210008218",
    "created_at": "1/25/2021 9:50:54 PM",
    "timestamp": 1611640254000,
    "description": "Aid Response",
    "address": "10th Ave S / S King St",
    "active": false,
    "unitCount": 1,
    "severity": 0,
    "lat": 47.598348,
    "long": -122.319644,
    "neighborhood": "Pioneer Square/International District",
    "neighborhoodGroup": "Downtown",
    "units": "A5"
  },
  {
    "id_str": "F210008217",
    "created_at": "1/25/2021 9:48:20 PM",
    "timestamp": 1611640100000,
    "description": "Natural Gas Odor",
    "address": "1233 6th Av S",
    "active": false,
    "unitCount": 1,
    "severity": 0,
    "lat": 47.592117,
    "long": -122.325968,
    "neighborhood": "Duwamish/SODO",
    "neighborhoodGroup": "Greater Duwamish",
    "units": "L1"
  },
  {
    "id_str": "F210008216",
    "created_at": "1/25/2021 9:44:17 PM",
    "timestamp": 1611639857000,
    "description": "Aid Response",
    "address": "3032 60th Av Sw",
    "active": false,
    "unitCount": 1,
    "severity": 0,
    "lat": 47.577427,
    "long": -122.409392,
    "neighborhood": "Alki/Admiral",
    "neighborhoodGroup": "Southwest",
    "units": "E29"
  },
  {
    "id_str": "F210008214",
    "created_at": "1/25/2021 9:34:53 PM",
    "timestamp": 1611639293000,
    "description": "Fire in Building",
    "address": "925 Cherry St",
    "active": false,
    "unitCount": 20,
    "severity": 2,
    "lat": 47.606387,
    "long": -122.32512,
    "neighborhood": "First Hill",
    "neighborhoodGroup": "East",
    "units": "A10 AIR10 B2 B5 DEP1 E10 E13 E25 E5 E6 L1 L10 L3 L4 M10 M44 MAR5 REHAB1 SAFT2 STAF10"
  },
  {
    "id_str": "F210008213",
    "created_at": "1/25/2021 9:31:33 PM",
    "timestamp": 1611639093000,
    "description": "MVI - Motor Vehicle Incident",
    "address": "3004 Ne 140th St",
    "active": false,
    "unitCount": 1,
    "severity": 0,
    "lat": 47.730151,
    "long": -122.296455,
    "neighborhood": "Cedar Park/Meadowbrook",
    "neighborhoodGroup": "North",
    "units": "E39"
  },
  {
    "id_str": "F210008210",
    "created_at": "1/25/2021 9:28:43 PM",
    "timestamp": 1611638923000,
    "description": "Aid Response",
    "address": "3rd Ave S / S Main St",
    "active": false,
    "unitCount": 1,
    "severity": 0,
    "lat": 47.599991,
    "long": -122.330342,
    "neighborhood": "Pioneer Square/International District",
    "neighborhoodGroup": "Downtown",
    "units": "A5"
  },
  {
    "id_str": "F210008207",
    "created_at": "1/25/2021 9:22:53 PM",
    "timestamp": 1611638573000,
    "description": "Aid Response",
    "address": "Pine St / 3rd Ave",
    "active": false,
    "unitCount": 1,
    "severity": 0,
    "lat": 47.610743,
    "long": -122.338702,
    "neighborhood": "Downtown Commercial Core",
    "neighborhoodGroup": "Downtown",
    "units": "A2"
  },
  {
    "id_str": "F210008206",
    "created_at": "1/25/2021 9:19:20 PM",
    "timestamp": 1611638360000,
    "description": "Medic Response",
    "address": "4919 Phinney Av N",
    "active": false,
    "unitCount": 2,
    "severity": 0,
    "lat": 47.664437,
    "long": -122.353964,
    "neighborhood": "Fremont",
    "neighborhoodGroup": "Lake Union",
    "units": "E9 M18"
  },
  {
    "id_str": "F210008205",
    "created_at": "1/25/2021 9:17:32 PM",
    "timestamp": 1611638252000,
    "description": "Aid Response",
    "address": "22nd Ave W / W Ruffner St",
    "active": false,
    "unitCount": 1,
    "severity": 0,
    "lat": 47.652153,
    "long": -122.384678,
    "neighborhood": "Interbay",
    "neighborhoodGroup": "Magnolia/Queen Anne",
    "units": "E20"
  },
  {
    "id_str": "F210008204",
    "created_at": "1/25/2021 9:15:24 PM",
    "timestamp": 1611638124000,
    "description": "Aid Response",
    "address": "Rainier Ave S / S Bayview St",
    "active": false,
    "unitCount": 1,
    "severity": 0,
    "lat": 47.580994,
    "long": -122.300167,
    "neighborhood": "Mt. Baker/North Rainier",
    "neighborhoodGroup": "Southeast",
    "units": "E30"
  },
  {
    "id_str": "F210008203",
    "created_at": "1/25/2021 9:11:59 PM",
    "timestamp": 1611637919000,
    "description": "Aid Response",
    "address": "4835 California Av Sw",
    "active": false,
    "unitCount": 1,
    "severity": 0,
    "lat": 47.559002,
    "long": -122.386839,
    "neighborhood": "West Seattle Junction/Genesee Hill",
    "neighborhoodGroup": "Southwest",
    "units": "E32"
  },
  {
    "id_str": "F210008200",
    "created_at": "1/25/2021 9:06:25 PM",
    "timestamp": 1611637585000,
    "description": "Activated CO Detector",
    "address": "2736 Sw Holden St",
    "active": false,
    "unitCount": 1,
    "severity": 0,
    "lat": 47.53371,
    "long": -122.367837,
    "neighborhood": "High Point",
    "neighborhoodGroup": "Delridge Neighborhoods",
    "units": "L13"
  },
  {
    "id_str": "F210008199",
    "created_at": "1/25/2021 9:04:41 PM",
    "timestamp": 1611637481000,
    "description": "Illegal Burn",
    "address": "7261 West Green Lake Dr N",
    "active": false,
    "unitCount": 1,
    "severity": 0,
    "lat": 47.681856,
    "long": -122.34286,
    "neighborhood": "Green Lake",
    "neighborhoodGroup": "Northwest",
    "units": "E21"
  },
  {
    "id_str": "F210008198",
    "created_at": "1/25/2021 9:04:33 PM",
    "timestamp": 1611637473000,
    "description": "Aid Response",
    "address": "5th Ave S / S Brandon St",
    "active": false,
    "unitCount": 1,
    "severity": 0,
    "lat": 47.554133,
    "long": -122.328366,
    "neighborhood": "Georgetown",
    "neighborhoodGroup": "Greater Duwamish",
    "units": "A14"
  },
  {
    "id_str": "F210008197",
    "created_at": "1/25/2021 8:57:50 PM",
    "timestamp": 1611637070000,
    "description": "Aid Response",
    "address": "4545 42nd Av Sw",
    "active": false,
    "unitCount": 1,
    "severity": 0,
    "lat": 47.562472,
    "long": -122.385455,
    "neighborhood": "West Seattle Junction/Genesee Hill",
    "neighborhoodGroup": "Southwest",
    "units": "L11"
  },
  {
    "id_str": "F210008195",
    "created_at": "1/25/2021 8:47:24 PM",
    "timestamp": 1611636444000,
    "description": "Aid Response",
    "address": "3541 SW 100TH ST",
    "active": false,
    "unitCount": 1,
    "severity": 0,
    "lat": 47.513727,
    "long": -122.376928,
    "neighborhood": "Arbor Heights",
    "neighborhoodGroup": "Southwest",
    "units": "E37"
  },
  {
    "id_str": "F210008193",
    "created_at": "1/25/2021 8:44:26 PM",
    "timestamp": 1611636266000,
    "description": "Illegal Burn",
    "address": "N 125th St / Densmore Ave N",
    "active": false,
    "unitCount": 1,
    "severity": 0,
    "lat": 47.719571,
    "long": -122.338618,
    "neighborhood": "Haller Lake",
    "neighborhoodGroup": "Northwest",
    "units": "E24"
  },
  {
    "id_str": "F210008190",
    "created_at": "1/25/2021 8:39:32 PM",
    "timestamp": 1611635972000,
    "description": "Aid Response",
    "address": "418 Highland Dr",
    "active": false,
    "unitCount": 1,
    "severity": 0,
    "lat": 47.629745,
    "long": -122.348595,
    "neighborhood": "Queen Anne",
    "neighborhoodGroup": "Magnolia/Queen Anne",
    "units": "E8"
  },
  {
    "id_str": "F210008189",
    "created_at": "1/25/2021 8:36:33 PM",
    "timestamp": 1611635793000,
    "description": "Automatic Fire Alarm Resd",
    "address": "1141 37th Ave E",
    "active": false,
    "unitCount": 1,
    "severity": 0,
    "lat": 47.629061,
    "long": -122.28548,
    "neighborhood": "Madison Park",
    "neighborhoodGroup": "East",
    "units": "E25"
  },
  {
    "id_str": "F210008188",
    "created_at": "1/25/2021 8:28:03 PM",
    "timestamp": 1611635283000,
    "description": "Aid Response",
    "address": "937 N 96th St",
    "active": false,
    "unitCount": 1,
    "severity": 0,
    "lat": 47.698721,
    "long": -122.34681,
    "neighborhood": "Licton Springs",
    "neighborhoodGroup": "Northwest",
    "units": "E21"
  },
  {
    "id_str": "F210008186",
    "created_at": "1/25/2021 8:22:27 PM",
    "timestamp": 1611634947000,
    "description": "Aid Response",
    "address": "1454 E Harrison St",
    "active": false,
    "unitCount": 1,
    "severity": 0,
    "lat": 47.621951,
    "long": -122.313565,
    "neighborhood": "Capitol Hill",
    "neighborhoodGroup": "East",
    "units": "A25"
  },
  {
    "id_str": "F210008184",
    "created_at": "1/25/2021 8:14:26 PM",
    "timestamp": 1611634466000,
    "description": "Auto Fire Alarm",
    "address": "937 N 96th St",
    "active": false,
    "unitCount": 2,
    "severity": 0,
    "lat": 47.698721,
    "long": -122.34681,
    "neighborhood": "Licton Springs",
    "neighborhoodGroup": "Northwest",
    "units": "E21 L9"
  },
  {
    "id_str": "F210008183",
    "created_at": "1/25/2021 8:12:29 PM",
    "timestamp": 1611634349000,
    "description": "1RED 1 Unit",
    "address": "Union St / 3rd Ave",
    "active": false,
    "unitCount": 1,
    "severity": 0,
    "lat": 47.608756,
    "long": -122.336885,
    "neighborhood": "Downtown Commercial Core",
    "neighborhoodGroup": "Downtown",
    "units": "E5"
  },
  {
    "id_str": "F210008182",
    "created_at": "1/25/2021 7:59:24 PM",
    "timestamp": 1611633564000,
    "description": "Medic Response",
    "address": "11524 32nd Ave Ne",
    "active": false,
    "unitCount": 2,
    "severity": 0,
    "lat": 47.712114,
    "long": -122.293789,
    "neighborhood": "Olympic Hills/Victory Heights",
    "neighborhoodGroup": "North",
    "units": "E39 M17"
  },
  {
    "id_str": "F210008181",
    "created_at": "1/25/2021 7:57:22 PM",
    "timestamp": 1611633442000,
    "description": "Illegal Burn",
    "address": "1200 Mercer St",
    "active": false,
    "unitCount": 1,
    "severity": 0,
    "lat": 47.624269,
    "long": -122.333007,
    "neighborhood": "Cascade/Eastlake",
    "neighborhoodGroup": "Lake Union",
    "units": "L4"
  },
  {
    "id_str": "F210008178",
    "created_at": "1/25/2021 7:55:20 PM",
    "timestamp": 1611633320000,
    "description": "Automatic Fire Alarm False",
    "address": "1708 Melrose Av",
    "active": false,
    "unitCount": 2,
    "severity": 0,
    "lat": 47.61712,
    "long": -122.327874,
    "neighborhood": "Capitol Hill",
    "neighborhoodGroup": "East",
    "units": "E25 L10"
  },
  {
    "id_str": "F210008175",
    "created_at": "1/25/2021 7:33:52 PM",
    "timestamp": 1611632032000,
    "description": "Aid Response",
    "address": "1451 Nw 46th St",
    "active": false,
    "unitCount": 1,
    "severity": 0,
    "lat": 47.662204,
    "long": -122.374877,
    "neighborhood": "Ballard",
    "neighborhoodGroup": "Ballard",
    "units": "E18"
  },
  {
    "id_str": "F210008173",
    "created_at": "1/25/2021 7:28:37 PM",
    "timestamp": 1611631717000,
    "description": "Aid Response",
    "address": "8600 Aurora Av N",
    "active": false,
    "unitCount": 1,
    "severity": 0,
    "lat": 47.691287,
    "long": -122.344531,
    "neighborhood": "Licton Springs",
    "neighborhoodGroup": "Northwest",
    "units": "E21"
  },
  {
    "id_str": "F210008172",
    "created_at": "1/25/2021 7:24:30 PM",
    "timestamp": 1611631470000,
    "description": "Automatic Fire Alarm Resd",
    "address": "1914 33rd Ave S",
    "active": false,
    "unitCount": 1,
    "severity": 0,
    "lat": 47.585654,
    "long": -122.290831,
    "neighborhood": "Mt. Baker/North Rainier",
    "neighborhoodGroup": "Southeast",
    "units": "E30"
  },
  {
    "id_str": "F210008169",
    "created_at": "1/25/2021 7:21:56 PM",
    "timestamp": 1611631316000,
    "description": "Aid Response",
    "address": "3410 Fremont Av N",
    "active": false,
    "unitCount": 1,
    "severity": 0,
    "lat": 47.649667,
    "long": -122.349755,
    "neighborhood": "Fremont",
    "neighborhoodGroup": "Lake Union",
    "units": "E9"
  },
  {
    "id_str": "F210008171",
    "created_at": "1/25/2021 7:21:38 PM",
    "timestamp": 1611631298000,
    "description": "Low Acuity Response",
    "address": "15th Ave W / W Ruffner St",
    "active": false,
    "unitCount": 1,
    "severity": 0,
    "lat": 47.652168,
    "long": -122.376206,
    "neighborhood": "Interbay",
    "neighborhoodGroup": "Magnolia/Queen Anne",
    "units": "E20"
  },
  {
    "id_str": "F210008165",
    "created_at": "1/25/2021 7:11:39 PM",
    "timestamp": 1611630699000,
    "description": "Low Acuity Response",
    "address": "4705 Beacon Ave S",
    "active": false,
    "unitCount": 3,
    "severity": 0,
    "lat": 47.560946,
    "long": -122.305041,
    "neighborhood": "North Beacon Hill/Jefferson Park",
    "neighborhoodGroup": "Greater Duwamish",
    "units": "E13 E30 E6"
  },
  {
    "id_str": "F210008164",
    "created_at": "1/25/2021 7:05:38 PM",
    "timestamp": 1611630338000,
    "description": "Aid Response",
    "address": "14002 Linden Av N",
    "active": false,
    "unitCount": 1,
    "severity": 0,
    "lat": 47.730569,
    "long": -122.347758,
    "neighborhood": "Broadview/Bitter Lake",
    "neighborhoodGroup": "Northwest",
    "units": "E24"
  },
  {
    "id_str": "F210008162",
    "created_at": "1/25/2021 7:02:03 PM",
    "timestamp": 1611630123000,
    "description": "Aid Response",
    "address": "N 95th St / Ashworth Ave N",
    "active": false,
    "unitCount": 1,
    "severity": 0,
    "lat": 47.697791,
    "long": -122.339703,
    "neighborhood": "Licton Springs",
    "neighborhoodGroup": "Northwest",
    "units": "E16"
  },
  {
    "id_str": "F210008160",
    "created_at": "1/25/2021 6:58:14 PM",
    "timestamp": 1611629894000,
    "description": "Aid Response",
    "address": "2215 1st Av",
    "active": false,
    "unitCount": 1,
    "severity": 0,
    "lat": 47.612716,
    "long": -122.345399,
    "neighborhood": "Belltown",
    "neighborhoodGroup": "Downtown",
    "units": "A4"
  },
  {
    "id_str": "F210008159",
    "created_at": "1/25/2021 6:57:12 PM",
    "timestamp": 1611629832000,
    "description": "Medic Response",
    "address": "1924 14th Ave S",
    "active": false,
    "unitCount": 2,
    "severity": 0,
    "lat": 47.586163,
    "long": -122.31467,
    "neighborhood": "North Beacon Hill/Jefferson Park",
    "neighborhoodGroup": "Greater Duwamish",
    "units": "E13 M1"
  },
  {
    "id_str": "F210008158",
    "created_at": "1/25/2021 6:54:26 PM",
    "timestamp": 1611629666000,
    "description": "Aid Response",
    "address": "720 Blanchard St",
    "active": false,
    "unitCount": 2,
    "severity": 0,
    "lat": 47.616731,
    "long": -122.339879,
    "neighborhood": "Cascade/Eastlake",
    "neighborhoodGroup": "Lake Union",
    "units": "A2 A4"
  },
  {
    "id_str": "F210008157",
    "created_at": "1/25/2021 6:47:22 PM",
    "timestamp": 1611629242000,
    "description": "Aid Response",
    "address": "820 Lake Washington Blvd S",
    "active": false,
    "unitCount": 2,
    "severity": 0,
    "lat": 47.595511,
    "long": -122.289062,
    "neighborhood": "Madrona/Leschi",
    "neighborhoodGroup": "Central",
    "units": "E6 M1"
  },
  {
    "id_str": "F210008155",
    "created_at": "1/25/2021 6:42:02 PM",
    "timestamp": 1611628922000,
    "description": "Low Acuity Response",
    "address": "1501 17th Av",
    "active": false,
    "unitCount": 1,
    "severity": 0,
    "lat": 47.614106,
    "long": -122.310161,
    "neighborhood": "Central Area/Squire Park",
    "neighborhoodGroup": "Central",
    "units": "E25"
  },
  {
    "id_str": "F210008154",
    "created_at": "1/25/2021 6:40:23 PM",
    "timestamp": 1611628823000,
    "description": "Aid Response",
    "address": "401 5th Av S",
    "active": false,
    "unitCount": 1,
    "severity": 0,
    "lat": 47.599186,
    "long": -122.327667,
    "neighborhood": "Pioneer Square/International District",
    "neighborhoodGroup": "Downtown",
    "units": "E10"
  },
  {
    "id_str": "F210008153",
    "created_at": "1/25/2021 6:37:43 PM",
    "timestamp": 1611628663000,
    "description": "Aid Response",
    "address": "607 3rd Av",
    "active": false,
    "unitCount": 1,
    "severity": 0,
    "lat": 47.602813,
    "long": -122.331449,
    "neighborhood": "Downtown Commercial Core",
    "neighborhoodGroup": "Downtown",
    "units": "A10"
  },
  {
    "id_str": "F210008152",
    "created_at": "1/25/2021 6:35:39 PM",
    "timestamp": 1611628539000,
    "description": "Medic Response",
    "address": "606 12th Av S",
    "active": false,
    "unitCount": 2,
    "severity": 0,
    "lat": 47.59745,
    "long": -122.317227,
    "neighborhood": "Pioneer Square/International District",
    "neighborhoodGroup": "Downtown",
    "units": "A5 M10"
  },
  {
    "id_str": "F210008151",
    "created_at": "1/25/2021 6:35:06 PM",
    "timestamp": 1611628506000,
    "description": "Auto Fire Alarm",
    "address": "4712 35th Av S",
    "active": false,
    "unitCount": 2,
    "severity": 0,
    "lat": 47.560584,
    "long": -122.288822,
    "neighborhood": "Columbia City",
    "neighborhoodGroup": "Southeast",
    "units": "E28 L12"
  },
  {
    "id_str": "F210008149",
    "created_at": "1/25/2021 6:26:03 PM",
    "timestamp": 1611627963000,
    "description": "MVI - Motor Vehicle Incident",
    "address": "35th Ave Ne / Ne 95th St",
    "active": false,
    "unitCount": 1,
    "severity": 0,
    "lat": 47.697459,
    "long": -122.290531,
    "neighborhood": "Wedgwood/View Ridge",
    "neighborhoodGroup": "Northeast",
    "units": "E40"
  },
  {
    "id_str": "F210008148",
    "created_at": "1/25/2021 6:24:22 PM",
    "timestamp": 1611627862000,
    "description": "Aid Response",
    "address": "4421 Greenwood Av N",
    "active": false,
    "unitCount": 1,
    "severity": 0,
    "lat": 47.660475,
    "long": -122.355444,
    "neighborhood": "Fremont",
    "neighborhoodGroup": "Lake Union",
    "units": "E9"
  },
  {
    "id_str": "F210008147",
    "created_at": "1/25/2021 6:22:16 PM",
    "timestamp": 1611627736000,
    "description": "Aid Response",
    "address": "6846 Oswego Pl Ne",
    "active": false,
    "unitCount": 1,
    "severity": 0,
    "lat": 47.678165,
    "long": -122.322737,
    "neighborhood": "Green Lake",
    "neighborhoodGroup": "Northwest",
    "units": "E16"
  },
  {
    "id_str": "F210008146",
    "created_at": "1/25/2021 6:16:44 PM",
    "timestamp": 1611627404000,
    "description": "Low Acuity Response",
    "address": "831 Ne 57th St",
    "active": false,
    "unitCount": 1,
    "severity": 0,
    "lat": 47.67006,
    "long": -122.319671,
    "neighborhood": "Wallingford",
    "neighborhoodGroup": "Lake Union",
    "units": "E17"
  },
  {
    "id_str": "F210008143",
    "created_at": "1/25/2021 6:05:31 PM",
    "timestamp": 1611626731000,
    "description": "Aid Response",
    "address": "706 Union St",
    "active": false,
    "unitCount": 1,
    "severity": 0,
    "lat": 47.610632,
    "long": -122.33241,
    "neighborhood": "First Hill",
    "neighborhoodGroup": "East",
    "units": "A25"
  },
  {
    "id_str": "F210008142",
    "created_at": "1/25/2021 6:03:59 PM",
    "timestamp": 1611626639000,
    "description": "Activated CO Detector",
    "address": "4815 Sw Alaska St",
    "active": false,
    "unitCount": 1,
    "severity": 0,
    "lat": 47.561163,
    "long": -122.393709,
    "neighborhood": "West Seattle Junction/Genesee Hill",
    "neighborhoodGroup": "Southwest",
    "units": "L11"
  },
  {
    "id_str": "F210008141",
    "created_at": "1/25/2021 6:03:14 PM",
    "timestamp": 1611626594000,
    "description": "Aid Response",
    "address": "3rd Ave / Wall St",
    "active": false,
    "unitCount": 1,
    "severity": 0,
    "lat": 47.616026,
    "long": -122.347029,
    "neighborhood": "Cascade/Eastlake",
    "neighborhoodGroup": "Lake Union",
    "units": "A2"
  },
  {
    "id_str": "F210008140",
    "created_at": "1/25/2021 5:49:14 PM",
    "timestamp": 1611625754000,
    "description": "Low Acuity Response",
    "address": "13315 Greenwood Av N",
    "active": false,
    "unitCount": 1,
    "severity": 0,
    "lat": 47.725447,
    "long": -122.355552,
    "neighborhood": "Broadview/Bitter Lake",
    "neighborhoodGroup": "Northwest",
    "units": "A31"
  },
  {
    "id_str": "F210008139",
    "created_at": "1/25/2021 5:44:46 PM",
    "timestamp": 1611625486000,
    "description": "Aid Response",
    "address": "3803 S Willow St",
    "active": false,
    "unitCount": 1,
    "severity": 0,
    "lat": 47.54066,
    "long": -122.284741,
    "neighborhood": "South Beacon Hill/NewHolly",
    "neighborhoodGroup": "Greater Duwamish",
    "units": "E28"
  },
  {
    "id_str": "F210008138",
    "created_at": "1/25/2021 5:37:26 PM",
    "timestamp": 1611625046000,
    "description": "Aid Response",
    "address": "Nw 53rd St / 15th Ave Nw",
    "active": false,
    "unitCount": 1,
    "severity": 0,
    "lat": 47.667162,
    "long": -122.376217,
    "neighborhood": "Ballard",
    "neighborhoodGroup": "Ballard",
    "units": "E18"
  },
  {
    "id_str": "F210008137",
    "created_at": "1/25/2021 5:35:13 PM",
    "timestamp": 1611624913000,
    "description": "Aid Response",
    "address": "1431 MINOR AV",
    "active": false,
    "unitCount": 2,
    "severity": 0,
    "lat": 47.613247,
    "long": -122.327187,
    "neighborhood": "Capitol Hill",
    "neighborhoodGroup": "East",
    "units": "E25 L10"
  },
  {
    "id_str": "F210008136",
    "created_at": "1/25/2021 5:21:29 PM",
    "timestamp": 1611624089000,
    "description": "Aid Response",
    "address": "1902 2nd Av",
    "active": false,
    "unitCount": 1,
    "severity": 0,
    "lat": 47.610972,
    "long": -122.340465,
    "neighborhood": "Belltown",
    "neighborhoodGroup": "Downtown",
    "units": "A4"
  },
  {
    "id_str": "F210008135",
    "created_at": "1/25/2021 5:17:09 PM",
    "timestamp": 1611623829000,
    "description": "Illegal Burn",
    "address": "1414 E Denny Way",
    "active": false,
    "unitCount": 1,
    "severity": 0,
    "lat": 47.61879,
    "long": -122.314046,
    "neighborhood": "Capitol Hill",
    "neighborhoodGroup": "East",
    "units": "L10"
  },
  {
    "id_str": "F210008134",
    "created_at": "1/25/2021 5:16:44 PM",
    "timestamp": 1611623804000,
    "description": "Aid Response",
    "address": "616 15th Ave E",
    "active": false,
    "unitCount": 1,
    "severity": 0,
    "lat": 47.624491,
    "long": -122.312601,
    "neighborhood": "Miller Park",
    "neighborhoodGroup": "East",
    "units": "A25"
  },
  {
    "id_str": "F210008133",
    "created_at": "1/25/2021 5:15:57 PM",
    "timestamp": 1611623757000,
    "description": "Illegal Burn",
    "address": "5408 22nd Av Nw",
    "active": false,
    "unitCount": 1,
    "severity": 0,
    "lat": 47.66772,
    "long": -122.384745,
    "neighborhood": "Ballard",
    "neighborhoodGroup": "Ballard",
    "units": "E18"
  },
  {
    "id_str": "F210008131",
    "created_at": "1/25/2021 5:14:12 PM",
    "timestamp": 1611623652000,
    "description": "Illegal Burn",
    "address": "525 Minor Av N",
    "active": false,
    "unitCount": 1,
    "severity": 0,
    "lat": 47.623398,
    "long": -122.333002,
    "neighborhood": "Cascade/Eastlake",
    "neighborhoodGroup": "Lake Union",
    "units": "E25"
  },
  {
    "id_str": "F210008128",
    "created_at": "1/25/2021 5:10:08 PM",
    "timestamp": 1611623408000,
    "description": "Aid Response",
    "address": "6856 27th Ave Ne",
    "active": false,
    "unitCount": 1,
    "severity": 0,
    "lat": 47.678099,
    "long": -122.298461,
    "neighborhood": "Ravenna/Bryant",
    "neighborhoodGroup": "Northeast",
    "units": "E38"
  },
  {
    "id_str": "F210008129",
    "created_at": "1/25/2021 5:09:55 PM",
    "timestamp": 1611623395000,
    "description": "Aid Response",
    "address": "2311 42nd Av Sw",
    "active": false,
    "unitCount": 1,
    "severity": 0,
    "lat": 47.582926,
    "long": -122.385105,
    "neighborhood": "Alki/Admiral",
    "neighborhoodGroup": "Southwest",
    "units": "E29"
  },
  {
    "id_str": "F210008126",
    "created_at": "1/25/2021 5:00:29 PM",
    "timestamp": 1611622829000,
    "description": "Aid Response",
    "address": "Franklin Ave E / E Galer St",
    "active": false,
    "unitCount": 1,
    "severity": 0,
    "lat": 47.632256,
    "long": -122.324956,
    "neighborhood": "Cascade/Eastlake",
    "neighborhoodGroup": "Lake Union",
    "units": "E22"
  },
  {
    "id_str": "F210008125",
    "created_at": "1/25/2021 4:56:46 PM",
    "timestamp": 1611622606000,
    "description": "Medic Response",
    "address": "Fairview Ave N / Mercer St",
    "active": false,
    "unitCount": 2,
    "severity": 0,
    "lat": 47.624265,
    "long": -122.334285,
    "neighborhood": "Cascade/Eastlake",
    "neighborhoodGroup": "Lake Union",
    "units": "E2 M1"
  },
  {
    "id_str": "F210008124",
    "created_at": "1/25/2021 4:53:50 PM",
    "timestamp": 1611622430000,
    "description": "Aid Response",
    "address": "2580 29th Av S",
    "active": false,
    "unitCount": 1,
    "severity": 0,
    "lat": 47.579817,
    "long": -122.295179,
    "neighborhood": "Mt. Baker/North Rainier",
    "neighborhoodGroup": "Southeast",
    "units": "E30"
  },
  {
    "id_str": "F210008123",
    "created_at": "1/25/2021 4:49:28 PM",
    "timestamp": 1611622168000,
    "description": "Aid Response",
    "address": "701 N 104th St",
    "active": false,
    "unitCount": 1,
    "severity": 0,
    "lat": 47.704343,
    "long": -122.350053,
    "neighborhood": "Licton Springs",
    "neighborhoodGroup": "Northwest",
    "units": "A31"
  },
  {
    "id_str": "F210008122",
    "created_at": "1/25/2021 4:49:06 PM",
    "timestamp": 1611622146000,
    "description": "Aid Response",
    "address": "710 9th Av N",
    "active": false,
    "unitCount": 1,
    "severity": 0,
    "lat": 47.625474,
    "long": -122.33973,
    "neighborhood": "Queen Anne",
    "neighborhoodGroup": "Magnolia/Queen Anne",
    "units": "A2"
  },
  {
    "id_str": "F210008120",
    "created_at": "1/25/2021 4:40:31 PM",
    "timestamp": 1611621631000,
    "description": "Low Acuity Response",
    "address": "1st Ave / Yesler Way",
    "active": false,
    "unitCount": 1,
    "severity": 0,
    "lat": 47.601722,
    "long": -122.334179,
    "neighborhood": "Downtown Commercial Core",
    "neighborhoodGroup": "Downtown",
    "units": "H1"
  },
  {
    "id_str": "F210008119",
    "created_at": "1/25/2021 4:39:06 PM",
    "timestamp": 1611621546000,
    "description": "Aid Response",
    "address": "820 Nw 95th St",
    "active": false,
    "unitCount": 1,
    "severity": 0,
    "lat": 47.697867,
    "long": -122.367016,
    "neighborhood": "Greenwood/Phinney Ridge",
    "neighborhoodGroup": "Northwest",
    "units": "E35"
  },
  {
    "id_str": "F210008118",
    "created_at": "1/25/2021 4:37:33 PM",
    "timestamp": 1611621453000,
    "description": "Medic Response",
    "address": "2nd Ave / University St",
    "active": false,
    "unitCount": 2,
    "severity": 0,
    "lat": 47.607299,
    "long": -122.337087,
    "neighborhood": "Downtown Commercial Core",
    "neighborhoodGroup": "Downtown",
    "units": "A4 M10"
  },
  {
    "id_str": "F210008117",
    "created_at": "1/25/2021 4:35:37 PM",
    "timestamp": 1611621337000,
    "description": "Aid Response",
    "address": "2807 W BERTONA ST",
    "active": false,
    "unitCount": 1,
    "severity": 0,
    "lat": 47.650455,
    "long": -122.392974,
    "neighborhood": "Magnolia",
    "neighborhoodGroup": "Magnolia/Queen Anne",
    "units": "E41"
  },
  {
    "id_str": "F210008115",
    "created_at": "1/25/2021 4:29:51 PM",
    "timestamp": 1611620991000,
    "description": "Rubbish Fire",
    "address": "815 S Dearborn St",
    "active": false,
    "unitCount": 1,
    "severity": 0,
    "lat": 47.595831,
    "long": -122.322292,
    "neighborhood": "Pioneer Square/International District",
    "neighborhoodGroup": "Downtown",
    "units": "E6"
  },
  {
    "id_str": "F210008112",
    "created_at": "1/25/2021 4:13:52 PM",
    "timestamp": 1611620032000,
    "description": "Aid Response",
    "address": "217 Broadway E",
    "active": false,
    "unitCount": 1,
    "severity": 0,
    "lat": 47.620099,
    "long": -122.320876,
    "neighborhood": "Capitol Hill",
    "neighborhoodGroup": "East",
    "units": "A25"
  },
  {
    "id_str": "F210008111",
    "created_at": "1/25/2021 4:12:59 PM",
    "timestamp": 1611619979000,
    "description": "Medic Response",
    "address": "9455 27th Av Sw",
    "active": false,
    "unitCount": 2,
    "severity": 0,
    "lat": 47.518178,
    "long": -122.367277,
    "neighborhood": "Roxhill/Westwood",
    "neighborhoodGroup": "Delridge Neighborhoods",
    "units": "E37 M26"
  },
  {
    "id_str": "F210008110",
    "created_at": "1/25/2021 4:12:47 PM",
    "timestamp": 1611619967000,
    "description": "Low Acuity Response",
    "address": "3501 Ne 98th St",
    "active": false,
    "unitCount": 1,
    "severity": 0,
    "lat": 47.700206,
    "long": -122.290651,
    "neighborhood": "Wedgwood/View Ridge",
    "neighborhoodGroup": "Northeast",
    "units": "E40"
  },
  {
    "id_str": "F210008109",
    "created_at": "1/25/2021 4:10:57 PM",
    "timestamp": 1611619857000,
    "description": "Aid Response",
    "address": "S Bailey St / Flora Ave S",
    "active": false,
    "unitCount": 1,
    "severity": 0,
    "lat": 47.547572,
    "long": -122.318923,
    "neighborhood": "Georgetown",
    "neighborhoodGroup": "Greater Duwamish",
    "units": "E27"
  },
  {
    "id_str": "F210008108",
    "created_at": "1/25/2021 4:07:06 PM",
    "timestamp": 1611619626000,
    "description": "Medic Response",
    "address": "2600 Sw Barton St",
    "active": false,
    "unitCount": 2,
    "severity": 0,
    "lat": 47.521022,
    "long": -122.365894,
    "neighborhood": "Roxhill/Westwood",
    "neighborhoodGroup": "Delridge Neighborhoods",
    "units": "E11 M32"
  },
  {
    "id_str": "F210008107",
    "created_at": "1/25/2021 4:03:20 PM",
    "timestamp": 1611619400000,
    "description": "Aid Response",
    "address": "1930 Boren Av",
    "active": false,
    "unitCount": 1,
    "severity": 0,
    "lat": 47.617173,
    "long": -122.333103,
    "neighborhood": "Cascade/Eastlake",
    "neighborhoodGroup": "Lake Union",
    "units": "A4"
  },
  {
    "id_str": "F210008105",
    "created_at": "1/25/2021 4:02:25 PM",
    "timestamp": 1611619345000,
    "description": "Aid Response",
    "address": "1700 Ferry Ave Sw",
    "active": false,
    "unitCount": 1,
    "severity": 0,
    "lat": 47.588094,
    "long": -122.383382,
    "neighborhood": "Alki/Admiral",
    "neighborhoodGroup": "Southwest",
    "units": "E32"
  }
]