[
  {
    "id_str": "F210084017",
    "created_at": "8/5/2021 4:57:48 PM",
    "timestamp": 1628207868000,
    "description": "1RED 1 Unit",
    "address": "214 Minor Ave N",
    "active": false,
    "unitCount": 1,
    "severity": 0,
    "lat": 47.619815,
    "long": -122.332981,
    "neighborhood": "Cascade/Eastlake",
    "neighborhoodGroup": "Lake Union",
    "units": "E2"
  },
  {
    "id_str": "F210084014",
    "created_at": "8/5/2021 4:56:36 PM",
    "timestamp": 1628207796000,
    "description": "Aid Response",
    "address": "3822 Latona Ave Ne",
    "active": false,
    "unitCount": 1,
    "severity": 0,
    "lat": 47.654016,
    "long": -122.325715,
    "neighborhood": "Wallingford",
    "neighborhoodGroup": "Lake Union",
    "units": "L9"
  },
  {
    "id_str": "F210084013",
    "created_at": "8/5/2021 4:52:12 PM",
    "timestamp": 1628207532000,
    "description": "Bark Fire",
    "address": "3819 13th Ave W",
    "active": false,
    "unitCount": 1,
    "severity": 0,
    "lat": 47.654136,
    "long": -122.373602,
    "neighborhood": "Queen Anne",
    "neighborhoodGroup": "Magnolia/Queen Anne",
    "units": "E20"
  },
  {
    "id_str": "F210084009",
    "created_at": "8/5/2021 4:42:30 PM",
    "timestamp": 1628206950000,
    "description": "Aid Response",
    "address": "Harvard Ave E / E Shelby St",
    "active": false,
    "unitCount": 1,
    "severity": 0,
    "lat": 47.646922,
    "long": -122.322103,
    "neighborhood": "Montlake/Portage Bay",
    "neighborhoodGroup": "Northeast",
    "units": "E17"
  },
  {
    "id_str": "F210084010",
    "created_at": "8/5/2021 4:41:30 PM",
    "timestamp": 1628206890000,
    "description": "Alarm Bell",
    "address": "520 S MAIN ST",
    "active": false,
    "unitCount": 1,
    "severity": 0,
    "lat": 47.600034,
    "long": -122.327636,
    "neighborhood": "Pioneer Square/International District",
    "neighborhoodGroup": "Downtown",
    "units": "E10"
  },
  {
    "id_str": "F210084007",
    "created_at": "8/5/2021 4:38:08 PM",
    "timestamp": 1628206688000,
    "description": "Aid Response",
    "address": "2615 Sw Barton St",
    "active": false,
    "unitCount": 2,
    "severity": 0,
    "lat": 47.521023,
    "long": -122.366095,
    "neighborhood": "Roxhill/Westwood",
    "neighborhoodGroup": "Delridge Neighborhoods",
    "units": "E11 M26"
  },
  {
    "id_str": "F210084006",
    "created_at": "8/5/2021 4:37:44 PM",
    "timestamp": 1628206664000,
    "description": "Medic Response",
    "address": "2827 Ne 55th St",
    "active": false,
    "unitCount": 2,
    "severity": 0,
    "lat": 47.66852,
    "long": -122.296182,
    "neighborhood": "Ravenna/Bryant",
    "neighborhoodGroup": "Northeast",
    "units": "E38 M17"
  },
  {
    "id_str": "F210084003",
    "created_at": "8/5/2021 4:35:23 PM",
    "timestamp": 1628206523000,
    "description": "Aid Response",
    "address": "Pike St / 5th Ave",
    "active": false,
    "unitCount": 1,
    "severity": 0,
    "lat": 47.610678,
    "long": -122.335574,
    "neighborhood": "Downtown Commercial Core",
    "neighborhoodGroup": "Downtown",
    "units": "A2"
  },
  {
    "id_str": "F210084000",
    "created_at": "8/5/2021 4:20:29 PM",
    "timestamp": 1628205629000,
    "description": "Aid Response",
    "address": "2225 4th Ave",
    "active": false,
    "unitCount": 2,
    "severity": 0,
    "lat": 47.614788,
    "long": -122.342952,
    "neighborhood": "Cascade/Eastlake",
    "neighborhoodGroup": "Lake Union",
    "units": "A4 E2"
  },
  {
    "id_str": "F210083998",
    "created_at": "8/5/2021 4:06:11 PM",
    "timestamp": 1628204771000,
    "description": "Aid Response",
    "address": "1902 2nd Ave",
    "active": false,
    "unitCount": 1,
    "severity": 0,
    "lat": 47.610972,
    "long": -122.340465,
    "neighborhood": "Belltown",
    "neighborhoodGroup": "Downtown",
    "units": "A2"
  },
  {
    "id_str": "F210083997",
    "created_at": "8/5/2021 4:04:37 PM",
    "timestamp": 1628204677000,
    "description": "Aid Response",
    "address": "Lake City Way Ne / Ne 130th St",
    "active": false,
    "unitCount": 1,
    "severity": 0,
    "lat": 47.722899,
    "long": -122.293194,
    "neighborhood": "Cedar Park/Meadowbrook",
    "neighborhoodGroup": "North",
    "units": "E39"
  },
  {
    "id_str": "F210083999",
    "created_at": "8/5/2021 4:04:31 PM",
    "timestamp": 1628204671000,
    "description": "Auto Fire Alarm",
    "address": "4801 24th Ave Ne",
    "active": false,
    "unitCount": 2,
    "severity": 0,
    "lat": 47.664024,
    "long": -122.301735,
    "neighborhood": "Ravenna/Bryant",
    "neighborhoodGroup": "Northeast",
    "units": "E38 L10"
  },
  {
    "id_str": "F210083996",
    "created_at": "8/5/2021 4:03:14 PM",
    "timestamp": 1628204594000,
    "description": "Aid Response",
    "address": "400 PIKE ST",
    "active": false,
    "unitCount": 1,
    "severity": 0,
    "lat": 47.610214,
    "long": -122.336683,
    "neighborhood": "Downtown Commercial Core",
    "neighborhoodGroup": "Downtown",
    "units": "A4"
  },
  {
    "id_str": "F210083993",
    "created_at": "8/5/2021 3:55:47 PM",
    "timestamp": 1628204147000,
    "description": "Aid Response",
    "address": "E Pike St / Broadway",
    "active": false,
    "unitCount": 1,
    "severity": 0,
    "lat": 47.614076,
    "long": -122.32078,
    "neighborhood": "Capitol Hill",
    "neighborhoodGroup": "East",
    "units": "A25"
  },
  {
    "id_str": "F210083994",
    "created_at": "8/5/2021 3:54:36 PM",
    "timestamp": 1628204076000,
    "description": "Auto Fire Alarm",
    "address": "4321 University Way Ne",
    "active": false,
    "unitCount": 2,
    "severity": 0,
    "lat": 47.659944,
    "long": -122.313164,
    "neighborhood": "University District",
    "neighborhoodGroup": "Northeast",
    "units": "E17 L10"
  },
  {
    "id_str": "F210083988",
    "created_at": "8/5/2021 3:42:33 PM",
    "timestamp": 1628203353000,
    "description": "Aid Response",
    "address": "508 S King St",
    "active": false,
    "unitCount": 1,
    "severity": 0,
    "lat": 47.598356,
    "long": -122.327564,
    "neighborhood": "Pioneer Square/International District",
    "neighborhoodGroup": "Downtown",
    "units": "A10"
  },
  {
    "id_str": "F210083984",
    "created_at": "8/5/2021 3:33:30 PM",
    "timestamp": 1628202810000,
    "description": "Aid Response",
    "address": "11339 8th Ave Ne",
    "active": false,
    "unitCount": 1,
    "severity": 0,
    "lat": 47.711051,
    "long": -122.320618,
    "neighborhood": "Northgate/Maple Leaf",
    "neighborhoodGroup": "North",
    "units": "E31"
  },
  {
    "id_str": "F210083983",
    "created_at": "8/5/2021 3:33:17 PM",
    "timestamp": 1628202797000,
    "description": "Auto Fire Alarm",
    "address": "4435 35th Ave Sw",
    "active": false,
    "unitCount": 2,
    "severity": 0,
    "lat": 47.563869,
    "long": -122.376191,
    "neighborhood": "North Delridge",
    "neighborhoodGroup": "Delridge Neighborhoods",
    "units": "E32 L11"
  },
  {
    "id_str": "F210083981",
    "created_at": "8/5/2021 3:31:15 PM",
    "timestamp": 1628202675000,
    "description": "Aid Response",
    "address": "S King St / 10th Ave S",
    "active": false,
    "unitCount": 1,
    "severity": 0,
    "lat": 47.598348,
    "long": -122.319644,
    "neighborhood": "Pioneer Square/International District",
    "neighborhoodGroup": "Downtown",
    "units": "A5"
  },
  {
    "id_str": "F210083980",
    "created_at": "8/5/2021 3:31:00 PM",
    "timestamp": 1628202660000,
    "description": "Medic Response",
    "address": "12537 15th Ave Ne",
    "active": false,
    "unitCount": 3,
    "severity": 0,
    "lat": 47.719743,
    "long": -122.312678,
    "neighborhood": "Olympic Hills/Victory Heights",
    "neighborhoodGroup": "North",
    "units": "E16 E39 M1"
  },
  {
    "id_str": "F210083975",
    "created_at": "8/5/2021 3:25:46 PM",
    "timestamp": 1628202346000,
    "description": "Aid Response",
    "address": "108 Nw 130th St",
    "active": false,
    "unitCount": 1,
    "severity": 0,
    "lat": 47.723248,
    "long": -122.358346,
    "neighborhood": "Broadview/Bitter Lake",
    "neighborhoodGroup": "Northwest",
    "units": "E24"
  },
  {
    "id_str": "F210083974",
    "created_at": "8/5/2021 3:25:05 PM",
    "timestamp": 1628202305000,
    "description": "Food On The Stove",
    "address": "1011 Pike St",
    "active": false,
    "unitCount": 2,
    "severity": 0,
    "lat": 47.613053,
    "long": -122.3299,
    "neighborhood": "First Hill",
    "neighborhoodGroup": "East",
    "units": "E25 L10"
  },
  {
    "id_str": "F210083972",
    "created_at": "8/5/2021 3:23:40 PM",
    "timestamp": 1628202220000,
    "description": "Aid Response",
    "address": "1218 9th Ave W",
    "active": false,
    "unitCount": 1,
    "severity": 0,
    "lat": 47.630114,
    "long": -122.369049,
    "neighborhood": "Queen Anne",
    "neighborhoodGroup": "Magnolia/Queen Anne",
    "units": "E8"
  },
  {
    "id_str": "F210083971",
    "created_at": "8/5/2021 3:23:05 PM",
    "timestamp": 1628202185000,
    "description": "Aid Response",
    "address": "Denny Way / Terry Ave N",
    "active": false,
    "unitCount": 2,
    "severity": 0,
    "lat": 47.618527,
    "long": -122.337151,
    "neighborhood": "Cascade/Eastlake",
    "neighborhoodGroup": "Lake Union",
    "units": "A4 M1"
  },
  {
    "id_str": "F210083970",
    "created_at": "8/5/2021 3:20:30 PM",
    "timestamp": 1628202030000,
    "description": "Aid Response",
    "address": "11029 ROOSEVELT WAY NE",
    "active": false,
    "unitCount": 1,
    "severity": 0,
    "lat": 47.709039,
    "long": -122.31786,
    "neighborhood": "Northgate/Maple Leaf",
    "neighborhoodGroup": "North",
    "units": "L5"
  },
  {
    "id_str": "F210083969",
    "created_at": "8/5/2021 3:15:57 PM",
    "timestamp": 1628201757000,
    "description": "Auto Fire Alarm",
    "address": "4435 35th Ave Sw",
    "active": false,
    "unitCount": 2,
    "severity": 0,
    "lat": 47.563869,
    "long": -122.376191,
    "neighborhood": "North Delridge",
    "neighborhoodGroup": "Delridge Neighborhoods",
    "units": "E32 L11"
  },
  {
    "id_str": "F210083968",
    "created_at": "8/5/2021 3:11:53 PM",
    "timestamp": 1628201513000,
    "description": "Medic Response",
    "address": "8003 40th Ave Ne",
    "active": false,
    "unitCount": 2,
    "severity": 0,
    "lat": 47.68668,
    "long": -122.28527,
    "neighborhood": "Wedgwood/View Ridge",
    "neighborhoodGroup": "Northeast",
    "units": "E40 M31"
  },
  {
    "id_str": "F210083962",
    "created_at": "8/5/2021 2:52:47 PM",
    "timestamp": 1628200367000,
    "description": "Medic Response",
    "address": "9550 1st Ave Ne",
    "active": false,
    "unitCount": 2,
    "severity": 0,
    "lat": 47.698088,
    "long": -122.328459,
    "neighborhood": "Northgate/Maple Leaf",
    "neighborhoodGroup": "North",
    "units": "E16 M17"
  },
  {
    "id_str": "F210083960",
    "created_at": "8/5/2021 2:43:44 PM",
    "timestamp": 1628199824000,
    "description": "Low Acuity Response",
    "address": "12007 15th Ave Ne",
    "active": false,
    "unitCount": 1,
    "severity": 0,
    "lat": 47.715826,
    "long": -122.312557,
    "neighborhood": "Olympic Hills/Victory Heights",
    "neighborhoodGroup": "North",
    "units": "E24"
  },
  {
    "id_str": "F210083959",
    "created_at": "8/5/2021 2:42:25 PM",
    "timestamp": 1628199745000,
    "description": "Auto Fire Alarm",
    "address": "2015 2nd Ave",
    "active": false,
    "unitCount": 2,
    "severity": 0,
    "lat": 47.611843,
    "long": -122.341939,
    "neighborhood": "Belltown",
    "neighborhoodGroup": "Downtown",
    "units": "E2 L4"
  },
  {
    "id_str": "F210083957",
    "created_at": "8/5/2021 2:39:29 PM",
    "timestamp": 1628199569000,
    "description": "Aid Response",
    "address": "400 Spring St",
    "active": false,
    "unitCount": 1,
    "severity": 0,
    "lat": 47.606801,
    "long": -122.333562,
    "neighborhood": "Downtown Commercial Core",
    "neighborhoodGroup": "Downtown",
    "units": "A10"
  },
  {
    "id_str": "F210083956",
    "created_at": "8/5/2021 2:37:45 PM",
    "timestamp": 1628199465000,
    "description": "Aid Response",
    "address": "1st Ave / Union St",
    "active": false,
    "unitCount": 1,
    "severity": 0,
    "lat": 47.607828,
    "long": -122.339105,
    "neighborhood": "Downtown Commercial Core",
    "neighborhoodGroup": "Downtown",
    "units": "A5"
  },
  {
    "id_str": "F210083954",
    "created_at": "8/5/2021 2:35:29 PM",
    "timestamp": 1628199329000,
    "description": "Rubbish Fire",
    "address": "1st Ave S / S Cloverdale St",
    "active": false,
    "unitCount": 1,
    "severity": 0,
    "lat": 47.526235,
    "long": -122.334405,
    "neighborhood": "Highland Park",
    "neighborhoodGroup": "Delridge Neighborhoods",
    "units": "E26"
  },
  {
    "id_str": "F210083951",
    "created_at": "8/5/2021 2:26:30 PM",
    "timestamp": 1628198790000,
    "description": "Medic Response",
    "address": "700 Stewart St",
    "active": false,
    "unitCount": 3,
    "severity": 0,
    "lat": 47.614288,
    "long": -122.336155,
    "neighborhood": "Cascade/Eastlake",
    "neighborhoodGroup": "Lake Union",
    "units": "A4 M10 M31"
  },
  {
    "id_str": "F210083950",
    "created_at": "8/5/2021 2:25:51 PM",
    "timestamp": 1628198751000,
    "description": "Aid Response",
    "address": "12740 33rd Ave Ne",
    "active": false,
    "unitCount": 1,
    "severity": 0,
    "lat": 47.720938,
    "long": -122.292513,
    "neighborhood": "Cedar Park/Meadowbrook",
    "neighborhoodGroup": "North",
    "units": "E40"
  },
  {
    "id_str": "F210083949",
    "created_at": "8/5/2021 2:23:38 PM",
    "timestamp": 1628198618000,
    "description": "Medic Response",
    "address": "4040 26th Ave Sw",
    "active": false,
    "unitCount": 2,
    "severity": 0,
    "lat": 47.567175,
    "long": -122.365445,
    "neighborhood": "North Delridge",
    "neighborhoodGroup": "Delridge Neighborhoods",
    "units": "E36 M32"
  },
  {
    "id_str": "F210083948",
    "created_at": "8/5/2021 2:15:11 PM",
    "timestamp": 1628198111000,
    "description": "Low Acuity Response",
    "address": "3215 25th Ave W",
    "active": false,
    "unitCount": 1,
    "severity": 0,
    "lat": 47.64862,
    "long": -122.388606,
    "neighborhood": "Interbay",
    "neighborhoodGroup": "Magnolia/Queen Anne",
    "units": "E41"
  },
  {
    "id_str": "F210083947",
    "created_at": "8/5/2021 2:04:39 PM",
    "timestamp": 1628197479000,
    "description": "Aid Response",
    "address": "2428 Nw Market St",
    "active": false,
    "unitCount": 1,
    "severity": 0,
    "lat": 47.668677,
    "long": -122.387926,
    "neighborhood": "Sunset Hill/Loyal Heights",
    "neighborhoodGroup": "Ballard",
    "units": "E18"
  },
  {
    "id_str": "F210083945",
    "created_at": "8/5/2021 2:03:16 PM",
    "timestamp": 1628197396000,
    "description": "Medic Response",
    "address": "2147 N Northgate Way",
    "active": false,
    "unitCount": 2,
    "severity": 0,
    "lat": 47.708659,
    "long": -122.333363,
    "neighborhood": "Northgate/Maple Leaf",
    "neighborhoodGroup": "North",
    "units": "E21 M17"
  },
  {
    "id_str": "F210083944",
    "created_at": "8/5/2021 2:00:05 PM",
    "timestamp": 1628197205000,
    "description": "Low Acuity Response",
    "address": "800 Sw Trenton St",
    "active": false,
    "unitCount": 1,
    "severity": 0,
    "lat": 47.524633,
    "long": -122.345463,
    "neighborhood": "Highland Park",
    "neighborhoodGroup": "Delridge Neighborhoods",
    "units": "E11"
  },
  {
    "id_str": "F210083943",
    "created_at": "8/5/2021 1:56:25 PM",
    "timestamp": 1628196985000,
    "description": "Aid Response",
    "address": "2631 Nw 95th St",
    "active": false,
    "unitCount": 2,
    "severity": 0,
    "lat": 47.697876,
    "long": -122.390956,
    "neighborhood": "North Beach/Blue Ridge",
    "neighborhoodGroup": "Ballard",
    "units": "E35 M18"
  },
  {
    "id_str": "F210083942",
    "created_at": "8/5/2021 1:51:30 PM",
    "timestamp": 1628196690000,
    "description": "Aid Response",
    "address": "9999 Holman Rd Nw",
    "active": false,
    "unitCount": 1,
    "severity": 0,
    "lat": 47.701698,
    "long": -122.362125,
    "neighborhood": "North Beach/Blue Ridge",
    "neighborhoodGroup": "Ballard",
    "units": "E21"
  },
  {
    "id_str": "F210083940",
    "created_at": "8/5/2021 1:47:55 PM",
    "timestamp": 1628196475000,
    "description": "Investigate Out Of Service",
    "address": "7544 24th Ave Sw",
    "active": false,
    "unitCount": 1,
    "severity": 0,
    "lat": 47.535114,
    "long": -122.363169,
    "neighborhood": "High Point",
    "neighborhoodGroup": "Delridge Neighborhoods",
    "units": "E37"
  },
  {
    "id_str": "F210083939",
    "created_at": "8/5/2021 1:47:19 PM",
    "timestamp": 1628196439000,
    "description": "Aid Response",
    "address": "720 Taylor Ave N",
    "active": false,
    "unitCount": 2,
    "severity": 0,
    "lat": 47.625584,
    "long": -122.346258,
    "neighborhood": "Queen Anne",
    "neighborhoodGroup": "Magnolia/Queen Anne",
    "units": "A2 M10"
  },
  {
    "id_str": "F210083938",
    "created_at": "8/5/2021 1:43:34 PM",
    "timestamp": 1628196214000,
    "description": "Aid Response",
    "address": "N 45th St / Wallingford Ave N",
    "active": false,
    "unitCount": 1,
    "severity": 0,
    "lat": 47.661386,
    "long": -122.336294,
    "neighborhood": "Wallingford",
    "neighborhoodGroup": "Lake Union",
    "units": "E17"
  },
  {
    "id_str": "F210083937",
    "created_at": "8/5/2021 1:43:14 PM",
    "timestamp": 1628196194000,
    "description": "Bark Fire",
    "address": "803 Terry Ave",
    "active": false,
    "unitCount": 1,
    "severity": 0,
    "lat": 47.607461,
    "long": -122.324959,
    "neighborhood": "First Hill",
    "neighborhoodGroup": "East",
    "units": "E10"
  },
  {
    "id_str": "F210083935",
    "created_at": "8/5/2021 1:41:27 PM",
    "timestamp": 1628196087000,
    "description": "Auto Fire Alarm",
    "address": "11304 8th Ave Ne",
    "active": false,
    "unitCount": 2,
    "severity": 0,
    "lat": 47.710791,
    "long": -122.320612,
    "neighborhood": "Northgate/Maple Leaf",
    "neighborhoodGroup": "North",
    "units": "E39 L5"
  },
  {
    "id_str": "F210083933",
    "created_at": "8/5/2021 1:35:33 PM",
    "timestamp": 1628195733000,
    "description": "Water Job Minor",
    "address": "1732 M L King Jr Way",
    "active": false,
    "unitCount": 1,
    "severity": 0,
    "lat": 47.616824,
    "long": -122.296152,
    "neighborhood": "Central Area/Squire Park",
    "neighborhoodGroup": "Central",
    "units": "E34"
  },
  {
    "id_str": "F210083932",
    "created_at": "8/5/2021 1:33:47 PM",
    "timestamp": 1628195627000,
    "description": "Medic Response",
    "address": "2611 S Dearborn St",
    "active": false,
    "unitCount": 2,
    "severity": 0,
    "lat": 47.595541,
    "long": -122.298643,
    "neighborhood": "Madrona/Leschi",
    "neighborhoodGroup": "Central",
    "units": "L3 M1"
  },
  {
    "id_str": "F210083931",
    "created_at": "8/5/2021 1:32:46 PM",
    "timestamp": 1628195566000,
    "description": "Aid Response",
    "address": "4500 25th Ave Ne",
    "active": false,
    "unitCount": 1,
    "severity": 0,
    "lat": 47.661179,
    "long": -122.300904,
    "neighborhood": "University District",
    "neighborhoodGroup": "Northeast",
    "units": "E38"
  },
  {
    "id_str": "F210083929",
    "created_at": "8/5/2021 1:31:12 PM",
    "timestamp": 1628195472000,
    "description": "4RED - 2 + 1 + 1",
    "address": "1727 Belmont Ave",
    "active": false,
    "unitCount": 20,
    "severity": 2,
    "lat": 47.616719,
    "long": -122.324492,
    "neighborhood": "Capitol Hill",
    "neighborhoodGroup": "East",
    "units": "A25 AIR10 B2 B6 DEP1 E10 E2 E22 E25 E6 L1 L10 L4 M10 M28 M44 MAR5 REHAB1 SAFT2 STAF10"
  },
  {
    "id_str": "F210083927",
    "created_at": "8/5/2021 1:28:27 PM",
    "timestamp": 1628195307000,
    "description": "Aid Response",
    "address": "811 Maynard Ave S",
    "active": false,
    "unitCount": 1,
    "severity": 0,
    "lat": 47.595741,
    "long": -122.325068,
    "neighborhood": "Duwamish/SODO",
    "neighborhoodGroup": "Greater Duwamish",
    "units": "A10"
  },
  {
    "id_str": "F210083925",
    "created_at": "8/5/2021 1:16:16 PM",
    "timestamp": 1628194576000,
    "description": "Low Acuity Response",
    "address": "1629 N 53rd St",
    "active": false,
    "unitCount": 1,
    "severity": 0,
    "lat": 47.667221,
    "long": -122.338178,
    "neighborhood": "Green Lake",
    "neighborhoodGroup": "Northwest",
    "units": "E17"
  },
  {
    "id_str": "F210083923",
    "created_at": "8/5/2021 1:14:19 PM",
    "timestamp": 1628194459000,
    "description": "Medic Response",
    "address": "10049 College Way N",
    "active": false,
    "unitCount": 2,
    "severity": 0,
    "lat": 47.701742,
    "long": -122.335029,
    "neighborhood": "Licton Springs",
    "neighborhoodGroup": "Northwest",
    "units": "E16 M31"
  },
  {
    "id_str": "F210083922",
    "created_at": "8/5/2021 1:06:38 PM",
    "timestamp": 1628193998000,
    "description": "Aid Response",
    "address": "5319 Wilson Ave S",
    "active": false,
    "unitCount": 1,
    "severity": 0,
    "lat": 47.553953,
    "long": -122.268979,
    "neighborhood": "Seward Park",
    "neighborhoodGroup": "Southeast",
    "units": "E28"
  },
  {
    "id_str": "F210083921",
    "created_at": "8/5/2021 1:05:07 PM",
    "timestamp": 1628193907000,
    "description": "Aid Response",
    "address": "9001 Lake City Way Ne",
    "active": false,
    "unitCount": 1,
    "severity": 0,
    "lat": 47.693931,
    "long": -122.30552,
    "neighborhood": "Wedgwood/View Ridge",
    "neighborhoodGroup": "Northeast",
    "units": "E40"
  },
  {
    "id_str": "F210083919",
    "created_at": "8/5/2021 12:59:51 PM",
    "timestamp": 1628193591000,
    "description": "Aid Response",
    "address": "Airport Way S / S Edmunds St",
    "active": false,
    "unitCount": 1,
    "severity": 0,
    "lat": 47.559808,
    "long": -122.32327,
    "neighborhood": "Duwamish/SODO",
    "neighborhoodGroup": "Greater Duwamish",
    "units": "E27"
  },
  {
    "id_str": "F210083917",
    "created_at": "8/5/2021 12:50:05 PM",
    "timestamp": 1628193005000,
    "description": "Aid Response",
    "address": "Airport Way S / S Holgate St",
    "active": false,
    "unitCount": 1,
    "severity": 0,
    "lat": 47.58639,
    "long": -122.321393,
    "neighborhood": "Duwamish/SODO",
    "neighborhoodGroup": "Greater Duwamish",
    "units": "E10"
  },
  {
    "id_str": "F210083916",
    "created_at": "8/5/2021 12:41:18 PM",
    "timestamp": 1628192478000,
    "description": "Medic Response",
    "address": "14319 20th Ave Ne",
    "active": false,
    "unitCount": 2,
    "severity": 0,
    "lat": 47.732235,
    "long": -122.307329,
    "neighborhood": "Olympic Hills/Victory Heights",
    "neighborhoodGroup": "North",
    "units": "L5 M17"
  },
  {
    "id_str": "F210083915",
    "created_at": "8/5/2021 12:40:05 PM",
    "timestamp": 1628192405000,
    "description": "Medic Response",
    "address": "10726 66th Ave S",
    "active": false,
    "unitCount": 3,
    "severity": 0,
    "lat": 47.504654,
    "long": -122.251009,
    "neighborhood": "Rainier Beach",
    "neighborhoodGroup": "Southeast",
    "units": "E28 E33 M26"
  },
  {
    "id_str": "F210083914",
    "created_at": "8/5/2021 12:39:02 PM",
    "timestamp": 1628192342000,
    "description": "Aid Response",
    "address": "7920 Rainier Ave S",
    "active": false,
    "unitCount": 2,
    "severity": 0,
    "lat": 47.531457,
    "long": -122.26999,
    "neighborhood": "Rainier Beach",
    "neighborhoodGroup": "Southeast",
    "units": "E28 E33"
  },
  {
    "id_str": "F210083913",
    "created_at": "8/5/2021 12:31:18 PM",
    "timestamp": 1628191878000,
    "description": "Low Acuity Response",
    "address": "12740 33rd Ave Ne",
    "active": false,
    "unitCount": 1,
    "severity": 0,
    "lat": 47.720938,
    "long": -122.292513,
    "neighborhood": "Cedar Park/Meadowbrook",
    "neighborhoodGroup": "North",
    "units": "E39"
  },
  {
    "id_str": "V210083912",
    "created_at": "8/5/2021 12:29:04 PM",
    "timestamp": 1628191744000,
    "description": "Aid Response",
    "address": "8405 DALLAS AVE S",
    "active": false,
    "unitCount": 1,
    "severity": 0,
    "lat": 47.528121,
    "long": -122.317314,
    "neighborhood": "South Park",
    "neighborhoodGroup": "Greater Duwamish",
    "units": "E26"
  },
  {
    "id_str": "F210083909",
    "created_at": "8/5/2021 12:28:50 PM",
    "timestamp": 1628191730000,
    "description": "Aid Response",
    "address": "509 3rd Ave",
    "active": false,
    "unitCount": 2,
    "severity": 0,
    "lat": 47.602114,
    "long": -122.330809,
    "neighborhood": "Downtown Commercial Core",
    "neighborhoodGroup": "Downtown",
    "units": "A5 E10"
  },
  {
    "id_str": "F210083910",
    "created_at": "8/5/2021 12:28:37 PM",
    "timestamp": 1628191717000,
    "description": "Aid Response",
    "address": "5602 15th Ave Ne",
    "active": false,
    "unitCount": 2,
    "severity": 0,
    "lat": 47.669459,
    "long": -122.311887,
    "neighborhood": "University District",
    "neighborhoodGroup": "Northeast",
    "units": "E17 L9"
  },
  {
    "id_str": "F210083908",
    "created_at": "8/5/2021 12:21:23 PM",
    "timestamp": 1628191283000,
    "description": "Low Acuity Response",
    "address": "1118 5th Ave",
    "active": false,
    "unitCount": 1,
    "severity": 0,
    "lat": 47.60739,
    "long": -122.332564,
    "neighborhood": "Downtown Commercial Core",
    "neighborhoodGroup": "Downtown",
    "units": "A10"
  },
  {
    "id_str": "F210083907",
    "created_at": "8/5/2021 12:18:26 PM",
    "timestamp": 1628191106000,
    "description": "Aid Response",
    "address": "509 3rd Ave",
    "active": false,
    "unitCount": 2,
    "severity": 0,
    "lat": 47.602114,
    "long": -122.330809,
    "neighborhood": "Downtown Commercial Core",
    "neighborhoodGroup": "Downtown",
    "units": "A5 E10"
  },
  {
    "id_str": "F210083906",
    "created_at": "8/5/2021 12:17:59 PM",
    "timestamp": 1628191079000,
    "description": "Aid Response",
    "address": "3rd Ave / Virginia St",
    "active": false,
    "unitCount": 1,
    "severity": 0,
    "lat": 47.612398,
    "long": -122.340892,
    "neighborhood": "Cascade/Eastlake",
    "neighborhoodGroup": "Lake Union",
    "units": "A4"
  },
  {
    "id_str": "F210083905",
    "created_at": "8/5/2021 12:16:45 PM",
    "timestamp": 1628191005000,
    "description": "Low Acuity Response",
    "address": "9000 20th Ave Sw",
    "active": false,
    "unitCount": 1,
    "severity": 0,
    "lat": 47.522863,
    "long": -122.359142,
    "neighborhood": "Roxhill/Westwood",
    "neighborhoodGroup": "Delridge Neighborhoods",
    "units": "H2"
  },
  {
    "id_str": "F210083901",
    "created_at": "8/5/2021 12:00:44 PM",
    "timestamp": 1628190044000,
    "description": "Auto Fire Alarm",
    "address": "802 N 43rd St",
    "active": false,
    "unitCount": 2,
    "severity": 0,
    "lat": 47.659335,
    "long": -122.348621,
    "neighborhood": "Fremont",
    "neighborhoodGroup": "Lake Union",
    "units": "E8 L9"
  },
  {
    "id_str": "F210083900",
    "created_at": "8/5/2021 11:58:31 AM",
    "timestamp": 1628189911000,
    "description": "Auto Fire Alarm",
    "address": "1501 Nw 56th St",
    "active": false,
    "unitCount": 2,
    "severity": 0,
    "lat": 47.669442,
    "long": -122.376214,
    "neighborhood": "Ballard",
    "neighborhoodGroup": "Ballard",
    "units": "E18 L4"
  },
  {
    "id_str": "F210083897",
    "created_at": "8/5/2021 11:44:39 AM",
    "timestamp": 1628189079000,
    "description": "Aid Response",
    "address": "1302 S Stevens St",
    "active": false,
    "unitCount": 2,
    "severity": 0,
    "lat": 47.576877,
    "long": -122.315978,
    "neighborhood": "North Beacon Hill/Jefferson Park",
    "neighborhoodGroup": "Greater Duwamish",
    "units": "E13 E30"
  },
  {
    "id_str": "F210083896",
    "created_at": "8/5/2021 11:43:55 AM",
    "timestamp": 1628189035000,
    "description": "Aid Response",
    "address": "1359 Sw Lander St",
    "active": false,
    "unitCount": 2,
    "severity": 0,
    "lat": 47.579814,
    "long": -122.352683,
    "neighborhood": "North Delridge",
    "neighborhoodGroup": "Delridge Neighborhoods",
    "units": "A14 A4"
  },
  {
    "id_str": "F210083895",
    "created_at": "8/5/2021 11:43:33 AM",
    "timestamp": 1628189013000,
    "description": "Bark Fire",
    "address": "4114 Aurora Ave N",
    "active": false,
    "unitCount": 1,
    "severity": 0,
    "lat": 47.656807,
    "long": -122.347199,
    "neighborhood": "Wallingford",
    "neighborhoodGroup": "Lake Union",
    "units": "L9"
  },
  {
    "id_str": "F210083893",
    "created_at": "8/5/2021 11:41:44 AM",
    "timestamp": 1628188904000,
    "description": "Illegal Burn",
    "address": "4TH AVE NW / NW 110TH ST",
    "active": false,
    "unitCount": 1,
    "severity": 0,
    "lat": 47.711677,
    "long": -122.367702,
    "neighborhood": "Broadview/Bitter Lake",
    "neighborhoodGroup": "Northwest",
    "units": "E24"
  },
  {
    "id_str": "F210083892",
    "created_at": "8/5/2021 11:38:05 AM",
    "timestamp": 1628188685000,
    "description": "Medic Response",
    "address": "4868 Beach Dr Sw",
    "active": false,
    "unitCount": 2,
    "severity": 0,
    "lat": 47.558327,
    "long": -122.401773,
    "neighborhood": "Fauntleroy/Seaview",
    "neighborhoodGroup": "Southwest",
    "units": "E36 M32"
  },
  {
    "id_str": "F210083890",
    "created_at": "8/5/2021 11:36:50 AM",
    "timestamp": 1628188610000,
    "description": "Aid Response",
    "address": "1710 S Jackson St",
    "active": false,
    "unitCount": 2,
    "severity": 0,
    "lat": 47.599233,
    "long": -122.310139,
    "neighborhood": "Judkins Park",
    "neighborhoodGroup": "Central",
    "units": "E6 L3"
  },
  {
    "id_str": "F210083887",
    "created_at": "8/5/2021 11:19:07 AM",
    "timestamp": 1628187547000,
    "description": "Aid Response",
    "address": "116 Fairview Ave N",
    "active": false,
    "unitCount": 1,
    "severity": 0,
    "lat": 47.618693,
    "long": -122.334256,
    "neighborhood": "Cascade/Eastlake",
    "neighborhoodGroup": "Lake Union",
    "units": "E2"
  },
  {
    "id_str": "F210083886",
    "created_at": "8/5/2021 11:18:17 AM",
    "timestamp": 1628187497000,
    "description": "Aid Response",
    "address": "5509 S Holly St",
    "active": false,
    "unitCount": 1,
    "severity": 0,
    "lat": 47.542471,
    "long": -122.264207,
    "neighborhood": "Seward Park",
    "neighborhoodGroup": "Southeast",
    "units": "E28"
  },
  {
    "id_str": "F210083885",
    "created_at": "8/5/2021 11:15:29 AM",
    "timestamp": 1628187329000,
    "description": "Low Acuity Response",
    "address": "1005 Terrace St",
    "active": false,
    "unitCount": 1,
    "severity": 0,
    "lat": 47.604615,
    "long": -122.32228,
    "neighborhood": "First Hill",
    "neighborhoodGroup": "East",
    "units": "A10"
  },
  {
    "id_str": "F210083884",
    "created_at": "8/5/2021 11:12:37 AM",
    "timestamp": 1628187157000,
    "description": "Bark Fire",
    "address": "S Orcas St / Corson Ave S",
    "active": false,
    "unitCount": 1,
    "severity": 0,
    "lat": 47.549557,
    "long": -122.32081,
    "neighborhood": "Georgetown",
    "neighborhoodGroup": "Greater Duwamish",
    "units": "E27"
  },
  {
    "id_str": "F210083883",
    "created_at": "8/5/2021 11:07:25 AM",
    "timestamp": 1628186845000,
    "description": "Aid Response",
    "address": "500 5th Ave",
    "active": false,
    "unitCount": 1,
    "severity": 0,
    "lat": 47.602985,
    "long": -122.328535,
    "neighborhood": "First Hill",
    "neighborhoodGroup": "East",
    "units": "A5"
  },
  {
    "id_str": "F210083882",
    "created_at": "8/5/2021 11:03:54 AM",
    "timestamp": 1628186634000,
    "description": "Aid Response",
    "address": "2702 Beacon Ave S",
    "active": false,
    "unitCount": 1,
    "severity": 0,
    "lat": 47.579351,
    "long": -122.312266,
    "neighborhood": "North Beacon Hill/Jefferson Park",
    "neighborhoodGroup": "Greater Duwamish",
    "units": "E30"
  },
  {
    "id_str": "F210083880",
    "created_at": "8/5/2021 11:01:21 AM",
    "timestamp": 1628186481000,
    "description": "Water Job Minor",
    "address": "2431 Nw 57th St",
    "active": false,
    "unitCount": 1,
    "severity": 0,
    "lat": 47.670187,
    "long": -122.387974,
    "neighborhood": "Sunset Hill/Loyal Heights",
    "neighborhoodGroup": "Ballard",
    "units": "L9"
  },
  {
    "id_str": "F210083875",
    "created_at": "8/5/2021 10:45:26 AM",
    "timestamp": 1628185526000,
    "description": "Aid Response",
    "address": "11280 57th Ave S",
    "active": false,
    "unitCount": 1,
    "severity": 0,
    "lat": 47.497811,
    "long": -122.26105,
    "neighborhood": "Rainier Beach",
    "neighborhoodGroup": "Southeast",
    "units": "E33"
  },
  {
    "id_str": "F210083873",
    "created_at": "8/5/2021 10:37:09 AM",
    "timestamp": 1628185029000,
    "description": "Aid Response",
    "address": "5035 24th Pl S",
    "active": false,
    "unitCount": 4,
    "severity": 0,
    "lat": 47.556938,
    "long": -122.301571,
    "neighborhood": "Beacon Hill",
    "neighborhoodGroup": "Greater Duwamish",
    "units": "E28 E30 L12 M10"
  },
  {
    "id_str": "F210083872",
    "created_at": "8/5/2021 10:32:42 AM",
    "timestamp": 1628184762000,
    "description": "Aid Response",
    "address": "4502 Sw Wildwood Pl",
    "active": false,
    "unitCount": 1,
    "severity": 0,
    "lat": 47.52079,
    "long": -122.390232,
    "neighborhood": "Fauntleroy/Seaview",
    "neighborhoodGroup": "Southwest",
    "units": "E37"
  },
  {
    "id_str": "F210083866",
    "created_at": "8/5/2021 10:21:17 AM",
    "timestamp": 1628184077000,
    "description": "Aid Response",
    "address": "1921 4th Ave S",
    "active": false,
    "unitCount": 1,
    "severity": 0,
    "lat": 47.586014,
    "long": -122.329061,
    "neighborhood": "Duwamish/SODO",
    "neighborhoodGroup": "Greater Duwamish",
    "units": "A14"
  },
  {
    "id_str": "F210083864",
    "created_at": "8/5/2021 10:18:40 AM",
    "timestamp": 1628183920000,
    "description": "Aid Response",
    "address": "Rainier Ave S / S Bayview St",
    "active": false,
    "unitCount": 1,
    "severity": 0,
    "lat": 47.580994,
    "long": -122.300167,
    "neighborhood": "Mt. Baker/North Rainier",
    "neighborhoodGroup": "Southeast",
    "units": "L3"
  },
  {
    "id_str": "F210083863",
    "created_at": "8/5/2021 10:17:50 AM",
    "timestamp": 1628183870000,
    "description": "Fast Back Up",
    "address": "S Othello St / 46th Ave S",
    "active": false,
    "unitCount": 2,
    "severity": 0,
    "lat": 47.537063,
    "long": -122.27534,
    "neighborhood": "Columbia City",
    "neighborhoodGroup": "Southeast",
    "units": "B5 SAFT2"
  },
  {
    "id_str": "F210083862",
    "created_at": "8/5/2021 10:16:20 AM",
    "timestamp": 1628183780000,
    "description": "Aid Response",
    "address": "4616 M L King Jr Way S",
    "active": false,
    "unitCount": 1,
    "severity": 0,
    "lat": 47.561674,
    "long": -122.293783,
    "neighborhood": "Columbia City",
    "neighborhoodGroup": "Southeast",
    "units": "E30"
  },
  {
    "id_str": "F210083861",
    "created_at": "8/5/2021 10:12:27 AM",
    "timestamp": 1628183547000,
    "description": "Auto Fire Alarm",
    "address": "11304 8th Ave Ne",
    "active": false,
    "unitCount": 2,
    "severity": 0,
    "lat": 47.710791,
    "long": -122.320612,
    "neighborhood": "Northgate/Maple Leaf",
    "neighborhoodGroup": "North",
    "units": "E39 L5"
  },
  {
    "id_str": "F210083859",
    "created_at": "8/5/2021 10:08:39 AM",
    "timestamp": 1628183319000,
    "description": "Medic Response",
    "address": "10245 39th Ave Sw",
    "active": false,
    "unitCount": 2,
    "severity": 0,
    "lat": 47.51157,
    "long": -122.381654,
    "neighborhood": "Arbor Heights",
    "neighborhoodGroup": "Southwest",
    "units": "L13 M26"
  },
  {
    "id_str": "F210083858",
    "created_at": "8/5/2021 10:07:15 AM",
    "timestamp": 1628183235000,
    "description": "MVI - Motor Vehicle Incident",
    "address": "S Othello St / 46th Ave S",
    "active": false,
    "unitCount": 2,
    "severity": 0,
    "lat": 47.537063,
    "long": -122.27534,
    "neighborhood": "Columbia City",
    "neighborhoodGroup": "Southeast",
    "units": "E28 L12"
  },
  {
    "id_str": "F210083857",
    "created_at": "8/5/2021 10:00:37 AM",
    "timestamp": 1628182837000,
    "description": "Medic Response",
    "address": "400 N 34th St",
    "active": false,
    "unitCount": 2,
    "severity": 0,
    "lat": 47.650469,
    "long": -122.354484,
    "neighborhood": "Fremont",
    "neighborhoodGroup": "Lake Union",
    "units": "E20 M18"
  },
  {
    "id_str": "F210083856",
    "created_at": "8/5/2021 9:59:39 AM",
    "timestamp": 1628182779000,
    "description": "Auto Fire Alarm",
    "address": "1620 43rd Ave E",
    "active": false,
    "unitCount": 4,
    "severity": 0,
    "lat": 47.633463,
    "long": -122.277157,
    "neighborhood": "Madison Park",
    "neighborhoodGroup": "East",
    "units": "E34 FB3 FIREBOAT L10"
  },
  {
    "id_str": "F210083854",
    "created_at": "8/5/2021 9:54:32 AM",
    "timestamp": 1628182472000,
    "description": "Aid Response",
    "address": "Ne 40th St / 8th Ave Ne",
    "active": false,
    "unitCount": 1,
    "severity": 0,
    "lat": 47.655858,
    "long": -122.319796,
    "neighborhood": "Wallingford",
    "neighborhoodGroup": "Lake Union",
    "units": "L9"
  },
  {
    "id_str": "F210083853",
    "created_at": "8/5/2021 9:51:19 AM",
    "timestamp": 1628182279000,
    "description": "Medic Response",
    "address": "5918 High Point Dr Sw",
    "active": false,
    "unitCount": 2,
    "severity": 0,
    "lat": 47.549571,
    "long": -122.369378,
    "neighborhood": "High Point",
    "neighborhoodGroup": "Delridge Neighborhoods",
    "units": "E37 M32"
  },
  {
    "id_str": "F210083852",
    "created_at": "8/5/2021 9:49:49 AM",
    "timestamp": 1628182189000,
    "description": "MVI Medic",
    "address": "901 Occidental Ave S",
    "active": false,
    "unitCount": 3,
    "severity": 0,
    "lat": 47.594855,
    "long": -122.333273,
    "neighborhood": "Duwamish/SODO",
    "neighborhoodGroup": "Greater Duwamish",
    "units": "A10 E10 M1"
  },
  {
    "id_str": "F210083850",
    "created_at": "8/5/2021 9:40:05 AM",
    "timestamp": 1628181605000,
    "description": "Aid Response",
    "address": "715 Spring St",
    "active": false,
    "unitCount": 1,
    "severity": 0,
    "lat": 47.608268,
    "long": -122.330056,
    "neighborhood": "First Hill",
    "neighborhoodGroup": "East",
    "units": "A5"
  },
  {
    "id_str": "F210083849",
    "created_at": "8/5/2021 9:37:48 AM",
    "timestamp": 1628181468000,
    "description": "Aid Response",
    "address": "4333 Leary Way Nw",
    "active": false,
    "unitCount": 1,
    "severity": 0,
    "lat": 47.659604,
    "long": -122.365354,
    "neighborhood": "Fremont",
    "neighborhoodGroup": "Lake Union",
    "units": "E18"
  },
  {
    "id_str": "F210083848",
    "created_at": "8/5/2021 9:31:45 AM",
    "timestamp": 1628181105000,
    "description": "Aid Response",
    "address": "12505 Greenwood Ave N",
    "active": false,
    "unitCount": 1,
    "severity": 0,
    "lat": 47.719638,
    "long": -122.355539,
    "neighborhood": "Broadview/Bitter Lake",
    "neighborhoodGroup": "Northwest",
    "units": "E35"
  },
  {
    "id_str": "F210083847",
    "created_at": "8/5/2021 9:21:35 AM",
    "timestamp": 1628180495000,
    "description": "Aid Response",
    "address": "S Holgate St / 26th Ave S",
    "active": false,
    "unitCount": 1,
    "severity": 0,
    "lat": 47.586313,
    "long": -122.29901,
    "neighborhood": "Mt. Baker/North Rainier",
    "neighborhoodGroup": "Southeast",
    "units": "L3"
  },
  {
    "id_str": "F210083846",
    "created_at": "8/5/2021 9:16:12 AM",
    "timestamp": 1628180172000,
    "description": "Medic Response",
    "address": "11180 Beacon Ave S",
    "active": false,
    "unitCount": 2,
    "severity": 0,
    "lat": 47.499803,
    "long": -122.266312,
    "neighborhood": "Rainier Beach",
    "neighborhoodGroup": "Southeast",
    "units": "E33 M28"
  },
  {
    "id_str": "F210083845",
    "created_at": "8/5/2021 9:08:49 AM",
    "timestamp": 1628179729000,
    "description": "Aid Response",
    "address": "12505 Greenwood Ave N",
    "active": false,
    "unitCount": 1,
    "severity": 0,
    "lat": 47.719638,
    "long": -122.355539,
    "neighborhood": "Broadview/Bitter Lake",
    "neighborhoodGroup": "Northwest",
    "units": "E35"
  },
  {
    "id_str": "F210083844",
    "created_at": "8/5/2021 9:08:14 AM",
    "timestamp": 1628179694000,
    "description": "Low Acuity Response",
    "address": "4020 Letitia Ave S",
    "active": false,
    "unitCount": 1,
    "severity": 0,
    "lat": 47.567506,
    "long": -122.29015,
    "neighborhood": "Columbia City",
    "neighborhoodGroup": "Southeast",
    "units": "E30"
  },
  {
    "id_str": "F210083843",
    "created_at": "8/5/2021 9:05:50 AM",
    "timestamp": 1628179550000,
    "description": "Aid Response",
    "address": "221 18th Ave S",
    "active": false,
    "unitCount": 2,
    "severity": 0,
    "lat": 47.600659,
    "long": -122.308964,
    "neighborhood": "Judkins Park",
    "neighborhoodGroup": "Central",
    "units": "E6 L3"
  },
  {
    "id_str": "F210083841",
    "created_at": "8/5/2021 8:53:41 AM",
    "timestamp": 1628178821000,
    "description": "Aid Response",
    "address": "1902 2ND AVE",
    "active": false,
    "unitCount": 1,
    "severity": 0,
    "lat": 47.610964,
    "long": -122.340452,
    "neighborhood": "Belltown",
    "neighborhoodGroup": "Downtown",
    "units": "A2"
  },
  {
    "id_str": "F210083837",
    "created_at": "8/5/2021 8:45:48 AM",
    "timestamp": 1628178348000,
    "description": "Rescue Elevator",
    "address": "2401 3rd Ave",
    "active": false,
    "unitCount": 1,
    "severity": 0,
    "lat": 47.615473,
    "long": -122.346094,
    "neighborhood": "Cascade/Eastlake",
    "neighborhoodGroup": "Lake Union",
    "units": "L4"
  },
  {
    "id_str": "F210083836",
    "created_at": "8/5/2021 8:43:59 AM",
    "timestamp": 1628178239000,
    "description": "Aid Response",
    "address": "1407 2nd Ave W",
    "active": false,
    "unitCount": 1,
    "severity": 0,
    "lat": 47.631378,
    "long": -122.359203,
    "neighborhood": "Queen Anne",
    "neighborhoodGroup": "Magnolia/Queen Anne",
    "units": "L6"
  },
  {
    "id_str": "F210083835",
    "created_at": "8/5/2021 8:43:51 AM",
    "timestamp": 1628178231000,
    "description": "Aid Response",
    "address": "700 Dearborn Pl S",
    "active": false,
    "unitCount": 1,
    "severity": 0,
    "lat": 47.596655,
    "long": -122.312817,
    "neighborhood": "Judkins Park",
    "neighborhoodGroup": "Central",
    "units": "A10"
  },
  {
    "id_str": "F210083834",
    "created_at": "8/5/2021 8:42:10 AM",
    "timestamp": 1628178130000,
    "description": "Aid Response",
    "address": "11501 15th Ave Ne",
    "active": false,
    "unitCount": 1,
    "severity": 0,
    "lat": 47.712167,
    "long": -122.312433,
    "neighborhood": "Olympic Hills/Victory Heights",
    "neighborhoodGroup": "North",
    "units": "E39"
  },
  {
    "id_str": "F210083833",
    "created_at": "8/5/2021 8:41:19 AM",
    "timestamp": 1628178079000,
    "description": "Aid Response",
    "address": "3034 28th Ave W",
    "active": false,
    "unitCount": 1,
    "severity": 0,
    "lat": 47.647136,
    "long": -122.392906,
    "neighborhood": "Magnolia",
    "neighborhoodGroup": "Magnolia/Queen Anne",
    "units": "E41"
  },
  {
    "id_str": "F210083832",
    "created_at": "8/5/2021 8:39:34 AM",
    "timestamp": 1628177974000,
    "description": "Aid Response",
    "address": "10409 AURORA AVE N",
    "active": false,
    "unitCount": 1,
    "severity": 0,
    "lat": 47.704386,
    "long": -122.344687,
    "neighborhood": "Licton Springs",
    "neighborhoodGroup": "Northwest",
    "units": "E21"
  },
  {
    "id_str": "F210083831",
    "created_at": "8/5/2021 8:35:57 AM",
    "timestamp": 1628177757000,
    "description": "Aid Response",
    "address": "11501 15th Ave Ne",
    "active": false,
    "unitCount": 1,
    "severity": 0,
    "lat": 47.712167,
    "long": -122.312433,
    "neighborhood": "Olympic Hills/Victory Heights",
    "neighborhoodGroup": "North",
    "units": "L5"
  },
  {
    "id_str": "F210083830",
    "created_at": "8/5/2021 8:27:56 AM",
    "timestamp": 1628177276000,
    "description": "MVI - Motor Vehicle Incident",
    "address": "Queen Anne Ave N / Mercer St",
    "active": false,
    "unitCount": 1,
    "severity": 0,
    "lat": 47.624583,
    "long": -122.356709,
    "neighborhood": "Queen Anne",
    "neighborhoodGroup": "Magnolia/Queen Anne",
    "units": "E2"
  },
  {
    "id_str": "F210083829",
    "created_at": "8/5/2021 8:24:24 AM",
    "timestamp": 1628177064000,
    "description": "Aid Response",
    "address": "1301 4th Ave",
    "active": false,
    "unitCount": 1,
    "severity": 0,
    "lat": 47.608228,
    "long": -122.334866,
    "neighborhood": "Downtown Commercial Core",
    "neighborhoodGroup": "Downtown",
    "units": "A5"
  },
  {
    "id_str": "F210083828",
    "created_at": "8/5/2021 8:22:09 AM",
    "timestamp": 1628176929000,
    "description": "Aid Response",
    "address": "10221 8th Ave Ne",
    "active": false,
    "unitCount": 1,
    "severity": 0,
    "lat": 47.702399,
    "long": -122.320432,
    "neighborhood": "Northgate/Maple Leaf",
    "neighborhoodGroup": "North",
    "units": "E40"
  },
  {
    "id_str": "F210083827",
    "created_at": "8/5/2021 8:17:33 AM",
    "timestamp": 1628176653000,
    "description": "Low Acuity Response",
    "address": "11501 15th Ave Ne",
    "active": false,
    "unitCount": 1,
    "severity": 0,
    "lat": 47.712167,
    "long": -122.312433,
    "neighborhood": "Olympic Hills/Victory Heights",
    "neighborhoodGroup": "North",
    "units": "E39"
  },
  {
    "id_str": "F210083826",
    "created_at": "8/5/2021 8:12:32 AM",
    "timestamp": 1628176352000,
    "description": "Medic Response",
    "address": "6720 East Green Lake Way N",
    "active": false,
    "unitCount": 2,
    "severity": 0,
    "lat": 47.67834,
    "long": -122.32895,
    "neighborhood": "Green Lake",
    "neighborhoodGroup": "Northwest",
    "units": "E16 M17"
  },
  {
    "id_str": "F210083825",
    "created_at": "8/5/2021 8:09:06 AM",
    "timestamp": 1628176146000,
    "description": "Aid Response",
    "address": "1915 Terry Ave",
    "active": false,
    "unitCount": 2,
    "severity": 0,
    "lat": 47.616391,
    "long": -122.333763,
    "neighborhood": "Cascade/Eastlake",
    "neighborhoodGroup": "Lake Union",
    "units": "A2 M10"
  },
  {
    "id_str": "F210083824",
    "created_at": "8/5/2021 7:52:30 AM",
    "timestamp": 1628175150000,
    "description": "Low Acuity Response",
    "address": "6048 35th Ave Ne",
    "active": false,
    "unitCount": 1,
    "severity": 0,
    "lat": 47.672584,
    "long": -122.290239,
    "neighborhood": "Ravenna/Bryant",
    "neighborhoodGroup": "Northeast",
    "units": "E38"
  },
  {
    "id_str": "F210083822",
    "created_at": "8/5/2021 7:45:57 AM",
    "timestamp": 1628174757000,
    "description": "Medic Response",
    "address": "9200 2nd Ave Sw",
    "active": false,
    "unitCount": 2,
    "severity": 0,
    "lat": 47.521244,
    "long": -122.336301,
    "neighborhood": "Highland Park",
    "neighborhoodGroup": "Delridge Neighborhoods",
    "units": "E26 M26"
  },
  {
    "id_str": "F210083821",
    "created_at": "8/5/2021 7:45:11 AM",
    "timestamp": 1628174711000,
    "description": "Low Acuity Response",
    "address": "7916 15th Ave Sw",
    "active": false,
    "unitCount": 1,
    "severity": 0,
    "lat": 47.531761,
    "long": -122.35393,
    "neighborhood": "Highland Park",
    "neighborhoodGroup": "Delridge Neighborhoods",
    "units": "E11"
  },
  {
    "id_str": "F210083819",
    "created_at": "8/5/2021 7:32:19 AM",
    "timestamp": 1628173939000,
    "description": "Aid Response",
    "address": "4719 12th Ave Ne",
    "active": false,
    "unitCount": 2,
    "severity": 0,
    "lat": 47.663215,
    "long": -122.315262,
    "neighborhood": "University District",
    "neighborhoodGroup": "Northeast",
    "units": "E31 L9"
  },
  {
    "id_str": "F210083817",
    "created_at": "8/5/2021 7:27:40 AM",
    "timestamp": 1628173660000,
    "description": "Alarm Bell",
    "address": "747 Broadway",
    "active": false,
    "unitCount": 2,
    "severity": 0,
    "lat": 47.608622,
    "long": -122.320756,
    "neighborhood": "First Hill",
    "neighborhoodGroup": "East",
    "units": "E25 L10"
  },
  {
    "id_str": "F210083816",
    "created_at": "8/5/2021 7:26:41 AM",
    "timestamp": 1628173601000,
    "description": "Aid Response",
    "address": "4th Ave / Spring St",
    "active": false,
    "unitCount": 3,
    "severity": 0,
    "lat": 47.606801,
    "long": -122.333562,
    "neighborhood": "Downtown Commercial Core",
    "neighborhoodGroup": "Downtown",
    "units": "A10 E10 M1"
  },
  {
    "id_str": "F210083815",
    "created_at": "8/5/2021 7:22:57 AM",
    "timestamp": 1628173377000,
    "description": "Aid Response",
    "address": "N 85th St / Aurora Ave N",
    "active": false,
    "unitCount": 1,
    "severity": 0,
    "lat": 47.690563,
    "long": -122.344522,
    "neighborhood": "Licton Springs",
    "neighborhoodGroup": "Northwest",
    "units": "E21"
  },
  {
    "id_str": "F210083814",
    "created_at": "8/5/2021 7:14:59 AM",
    "timestamp": 1628172899000,
    "description": "Automatic Fire Alarm Resd",
    "address": "2828 33rd Ave S",
    "active": false,
    "unitCount": 1,
    "severity": 0,
    "lat": 47.57809,
    "long": -122.290869,
    "neighborhood": "Mt. Baker/North Rainier",
    "neighborhoodGroup": "Southeast",
    "units": "E30"
  },
  {
    "id_str": "F210083812",
    "created_at": "8/5/2021 7:10:08 AM",
    "timestamp": 1628172608000,
    "description": "Aid Response",
    "address": "5th Ave / Bell St",
    "active": false,
    "unitCount": 1,
    "severity": 0,
    "lat": 47.616033,
    "long": -122.343075,
    "neighborhood": "Cascade/Eastlake",
    "neighborhoodGroup": "Lake Union",
    "units": "A2"
  },
  {
    "id_str": "F210083811",
    "created_at": "8/5/2021 6:52:57 AM",
    "timestamp": 1628171577000,
    "description": "Aid Response",
    "address": "4700 ROOSEVELT WAY NE",
    "active": false,
    "unitCount": 1,
    "severity": 0,
    "lat": 47.663118,
    "long": -122.317423,
    "neighborhood": "University District",
    "neighborhoodGroup": "Northeast",
    "units": "E17"
  },
  {
    "id_str": "F210083810",
    "created_at": "8/5/2021 6:52:27 AM",
    "timestamp": 1628171547000,
    "description": "Low Acuity Response",
    "address": "12740 30th Ave Ne",
    "active": false,
    "unitCount": 1,
    "severity": 0,
    "lat": 47.721329,
    "long": -122.296339,
    "neighborhood": "Cedar Park/Meadowbrook",
    "neighborhoodGroup": "North",
    "units": "E39"
  },
  {
    "id_str": "F210083809",
    "created_at": "8/5/2021 6:44:29 AM",
    "timestamp": 1628171069000,
    "description": "Aid Response",
    "address": "2215 Rainier Ave S",
    "active": false,
    "unitCount": 1,
    "severity": 0,
    "lat": 47.583496,
    "long": -122.302077,
    "neighborhood": "Mt. Baker/North Rainier",
    "neighborhoodGroup": "Southeast",
    "units": "E30"
  },
  {
    "id_str": "F210083807",
    "created_at": "8/5/2021 6:30:50 AM",
    "timestamp": 1628170250000,
    "description": "Aid Response",
    "address": "S Myrtle St / M L King Jr Way S",
    "active": false,
    "unitCount": 1,
    "severity": 0,
    "lat": 47.538884,
    "long": -122.282179,
    "neighborhood": "South Beacon Hill/NewHolly",
    "neighborhoodGroup": "Greater Duwamish",
    "units": "E28"
  },
  {
    "id_str": "F210083806",
    "created_at": "8/5/2021 6:25:47 AM",
    "timestamp": 1628169947000,
    "description": "Water Job Minor",
    "address": "1539 Nw 90th St",
    "active": false,
    "unitCount": 1,
    "severity": 0,
    "lat": 47.694684,
    "long": -122.37868,
    "neighborhood": "North Beach/Blue Ridge",
    "neighborhoodGroup": "Ballard",
    "units": "L8"
  },
  {
    "id_str": "F210083805",
    "created_at": "8/5/2021 6:16:50 AM",
    "timestamp": 1628169410000,
    "description": "Aid Response",
    "address": "318 2nd Ave Et S",
    "active": false,
    "unitCount": 1,
    "severity": 0,
    "lat": 47.600194,
    "long": -122.330541,
    "neighborhood": "Pioneer Square/International District",
    "neighborhoodGroup": "Downtown",
    "units": "A5"
  },
  {
    "id_str": "F210083803",
    "created_at": "8/5/2021 6:09:58 AM",
    "timestamp": 1628168998000,
    "description": "Auto Fire Alarm",
    "address": "1200 3rd Ave",
    "active": false,
    "unitCount": 2,
    "severity": 0,
    "lat": 47.60705,
    "long": -122.335324,
    "neighborhood": "Downtown Commercial Core",
    "neighborhoodGroup": "Downtown",
    "units": "E17 L1"
  },
  {
    "id_str": "F210083802",
    "created_at": "8/5/2021 6:06:14 AM",
    "timestamp": 1628168774000,
    "description": "Brush Fire",
    "address": "5826 16th Ave Ne",
    "active": false,
    "unitCount": 1,
    "severity": 0,
    "lat": 47.671754,
    "long": -122.310769,
    "neighborhood": "University District",
    "neighborhoodGroup": "Northeast",
    "units": "E38"
  },
  {
    "id_str": "F210083801",
    "created_at": "8/5/2021 6:00:31 AM",
    "timestamp": 1628168431000,
    "description": "Rubbish Fire",
    "address": "8500 20th Ave Ne",
    "active": false,
    "unitCount": 1,
    "severity": 0,
    "lat": 47.690303,
    "long": -122.306854,
    "neighborhood": "Wedgwood/View Ridge",
    "neighborhoodGroup": "Northeast",
    "units": "E40"
  },
  {
    "id_str": "F210083800",
    "created_at": "8/5/2021 5:57:09 AM",
    "timestamp": 1628168229000,
    "description": "Automatic Fire Alarm Resd",
    "address": "7012 Fremont Ave N",
    "active": false,
    "unitCount": 1,
    "severity": 0,
    "lat": 47.679683,
    "long": -122.349896,
    "neighborhood": "Greenwood/Phinney Ridge",
    "neighborhoodGroup": "Northwest",
    "units": "E21"
  },
  {
    "id_str": "F210083799",
    "created_at": "8/5/2021 5:49:59 AM",
    "timestamp": 1628167799000,
    "description": "Aid Response",
    "address": "2201 E Madison St",
    "active": false,
    "unitCount": 1,
    "severity": 0,
    "lat": 47.618428,
    "long": -122.303639,
    "neighborhood": "Central Area/Squire Park",
    "neighborhoodGroup": "Central",
    "units": "E34"
  },
  {
    "id_str": "F210083798",
    "created_at": "8/5/2021 5:49:12 AM",
    "timestamp": 1628167752000,
    "description": "Medic Response",
    "address": "9201 Rainier Ave S",
    "active": false,
    "unitCount": 2,
    "severity": 0,
    "lat": 47.52101,
    "long": -122.269997,
    "neighborhood": "Rainier Beach",
    "neighborhoodGroup": "Southeast",
    "units": "E33 M28"
  },
  {
    "id_str": "F210083797",
    "created_at": "8/5/2021 5:48:29 AM",
    "timestamp": 1628167709000,
    "description": "Medic Response",
    "address": "3610 Interlake Ave N",
    "active": false,
    "unitCount": 2,
    "severity": 0,
    "lat": 47.650623,
    "long": -122.341372,
    "neighborhood": "Fremont",
    "neighborhoodGroup": "Lake Union",
    "units": "E31 M17"
  },
  {
    "id_str": "F210083796",
    "created_at": "8/5/2021 5:41:30 AM",
    "timestamp": 1628167290000,
    "description": "Low Acuity Response",
    "address": "1526 45th Ave Sw",
    "active": false,
    "unitCount": 1,
    "severity": 0,
    "lat": 47.590302,
    "long": -122.388909,
    "neighborhood": "Alki/Admiral",
    "neighborhoodGroup": "Southwest",
    "units": "E29"
  },
  {
    "id_str": "F210083794",
    "created_at": "8/5/2021 5:35:01 AM",
    "timestamp": 1628166901000,
    "description": "Aid Response",
    "address": "805 4th Ave N",
    "active": false,
    "unitCount": 1,
    "severity": 0,
    "lat": 47.626322,
    "long": -122.348863,
    "neighborhood": "Queen Anne",
    "neighborhoodGroup": "Magnolia/Queen Anne",
    "units": "A25"
  },
  {
    "id_str": "F210083793",
    "created_at": "8/5/2021 5:33:44 AM",
    "timestamp": 1628166824000,
    "description": "Aid Response",
    "address": "6334 Rainier Ave S",
    "active": false,
    "unitCount": 1,
    "severity": 0,
    "lat": 47.54586,
    "long": -122.275769,
    "neighborhood": "Seward Park",
    "neighborhoodGroup": "Southeast",
    "units": "E28"
  },
  {
    "id_str": "F210083792",
    "created_at": "8/5/2021 5:31:30 AM",
    "timestamp": 1628166690000,
    "description": "Auto Fire Alarm",
    "address": "601 Roy St",
    "active": false,
    "unitCount": 1,
    "severity": 0,
    "lat": 47.625413,
    "long": -122.344942,
    "neighborhood": "Cascade/Eastlake",
    "neighborhoodGroup": "Lake Union",
    "units": "E22"
  },
  {
    "id_str": "F210083791",
    "created_at": "8/5/2021 5:29:40 AM",
    "timestamp": 1628166580000,
    "description": "Aid Response",
    "address": "308 4th Ave S",
    "active": false,
    "unitCount": 1,
    "severity": 0,
    "lat": 47.599968,
    "long": -122.328965,
    "neighborhood": "Pioneer Square/International District",
    "neighborhoodGroup": "Downtown",
    "units": "A10"
  },
  {
    "id_str": "F210083788",
    "created_at": "8/5/2021 5:21:31 AM",
    "timestamp": 1628166091000,
    "description": "Fire in Building",
    "address": "601 AURORA AVE N",
    "active": false,
    "unitCount": 21,
    "severity": 2,
    "lat": 47.62499,
    "long": -122.343721,
    "neighborhood": "Cascade/Eastlake",
    "neighborhoodGroup": "Lake Union",
    "units": "A2 AIR10 B2 B6 DEP1 E10 E20 E25 E5 E6 E8 E9 L10 L4 L6 M10 M44 MAR5 REHAB1 SAFT2 STAF10"
  },
  {
    "id_str": "F210083787",
    "created_at": "8/5/2021 5:13:19 AM",
    "timestamp": 1628165599000,
    "description": "Rubbish Fire",
    "address": "1110 E Pine St",
    "active": false,
    "unitCount": 1,
    "severity": 0,
    "lat": 47.615255,
    "long": -122.318026,
    "neighborhood": "Capitol Hill",
    "neighborhoodGroup": "East",
    "units": "E25"
  },
  {
    "id_str": "F210083785",
    "created_at": "8/5/2021 4:45:33 AM",
    "timestamp": 1628163933000,
    "description": "Aid Response",
    "address": "2870 S Hanford St",
    "active": false,
    "unitCount": 1,
    "severity": 0,
    "lat": 47.574853,
    "long": -122.295888,
    "neighborhood": "Mt. Baker/North Rainier",
    "neighborhoodGroup": "Southeast",
    "units": "E30"
  },
  {
    "id_str": "F210083784",
    "created_at": "8/5/2021 4:38:12 AM",
    "timestamp": 1628163492000,
    "description": "Aid Response Yellow",
    "address": "2320 4th Ave",
    "active": false,
    "unitCount": 1,
    "severity": 0,
    "lat": 47.615516,
    "long": -122.344184,
    "neighborhood": "Cascade/Eastlake",
    "neighborhoodGroup": "Lake Union",
    "units": "E2"
  },
  {
    "id_str": "F210083782",
    "created_at": "8/5/2021 4:30:04 AM",
    "timestamp": 1628163004000,
    "description": "Aid Response",
    "address": "1016 Republican St",
    "active": false,
    "unitCount": 1,
    "severity": 0,
    "lat": 47.623204,
    "long": -122.336929,
    "neighborhood": "Cascade/Eastlake",
    "neighborhoodGroup": "Lake Union",
    "units": "A2"
  },
  {
    "id_str": "F210083781",
    "created_at": "8/5/2021 4:17:00 AM",
    "timestamp": 1628162220000,
    "description": "Aid Response",
    "address": "Meridian Ave N / N Northgate Way",
    "active": false,
    "unitCount": 1,
    "severity": 0,
    "lat": 47.708663,
    "long": -122.333993,
    "neighborhood": "Northgate/Maple Leaf",
    "neighborhoodGroup": "North",
    "units": "E24"
  },
  {
    "id_str": "F210083780",
    "created_at": "8/5/2021 4:08:49 AM",
    "timestamp": 1628161729000,
    "description": "Aid Response",
    "address": "118 Bell St",
    "active": false,
    "unitCount": 1,
    "severity": 0,
    "lat": 47.613497,
    "long": -122.346355,
    "neighborhood": "Belltown",
    "neighborhoodGroup": "Downtown",
    "units": "A2"
  },
  {
    "id_str": "F210083779",
    "created_at": "8/5/2021 3:56:08 AM",
    "timestamp": 1628160968000,
    "description": "Medic Response",
    "address": "3rd Ave / James St",
    "active": false,
    "unitCount": 2,
    "severity": 0,
    "lat": 47.602769,
    "long": -122.331409,
    "neighborhood": "Downtown Commercial Core",
    "neighborhoodGroup": "Downtown",
    "units": "A5 M1"
  },
  {
    "id_str": "F210083777",
    "created_at": "8/5/2021 3:51:59 AM",
    "timestamp": 1628160719000,
    "description": "Aid Response",
    "address": "9000 Holman Rd Nw",
    "active": false,
    "unitCount": 1,
    "severity": 0,
    "lat": 47.69425,
    "long": -122.375914,
    "neighborhood": "North Beach/Blue Ridge",
    "neighborhoodGroup": "Ballard",
    "units": "E35"
  },
  {
    "id_str": "F210083771",
    "created_at": "8/5/2021 3:31:38 AM",
    "timestamp": 1628159498000,
    "description": "Aid Response",
    "address": "4933 48TH AVE S",
    "active": false,
    "unitCount": 1,
    "severity": 0,
    "lat": 47.557835,
    "long": -122.27319,
    "neighborhood": "Seward Park",
    "neighborhoodGroup": "Southeast",
    "units": "E28"
  },
  {
    "id_str": "F210083770",
    "created_at": "8/5/2021 3:30:24 AM",
    "timestamp": 1628159424000,
    "description": "Aid Response",
    "address": "9425 35th Ave Ne",
    "active": false,
    "unitCount": 1,
    "severity": 0,
    "lat": 47.696834,
    "long": -122.290551,
    "neighborhood": "Wedgwood/View Ridge",
    "neighborhoodGroup": "Northeast",
    "units": "E40"
  },
  {
    "id_str": "F210083768",
    "created_at": "8/5/2021 3:10:05 AM",
    "timestamp": 1628158205000,
    "description": "Aid Response",
    "address": "1315 E Republican St",
    "active": false,
    "unitCount": 1,
    "severity": 0,
    "lat": 47.623111,
    "long": -122.315543,
    "neighborhood": "Capitol Hill",
    "neighborhoodGroup": "East",
    "units": "A25"
  },
  {
    "id_str": "F210083764",
    "created_at": "8/5/2021 2:42:40 AM",
    "timestamp": 1628156560000,
    "description": "Aid Response",
    "address": "910 Marion St",
    "active": false,
    "unitCount": 1,
    "severity": 0,
    "lat": 47.607742,
    "long": -122.326595,
    "neighborhood": "First Hill",
    "neighborhoodGroup": "East",
    "units": "A10"
  },
  {
    "id_str": "F210083759",
    "created_at": "8/5/2021 2:34:46 AM",
    "timestamp": 1628156086000,
    "description": "Aid Response",
    "address": "17th Ave / E Madison St",
    "active": false,
    "unitCount": 1,
    "severity": 0,
    "lat": 47.61559,
    "long": -122.310151,
    "neighborhood": "Central Area/Squire Park",
    "neighborhoodGroup": "Central",
    "units": "A25"
  },
  {
    "id_str": "F210083760",
    "created_at": "8/5/2021 2:34:19 AM",
    "timestamp": 1628156059000,
    "description": "Aid Response",
    "address": "5614 22ND AVE NW",
    "active": false,
    "unitCount": 1,
    "severity": 0,
    "lat": 47.669551,
    "long": -122.384743,
    "neighborhood": "Ballard",
    "neighborhoodGroup": "Ballard",
    "units": "E18"
  },
  {
    "id_str": "F210083758",
    "created_at": "8/5/2021 2:32:06 AM",
    "timestamp": 1628155926000,
    "description": "Aid Response",
    "address": "4719 12th Ave Ne",
    "active": false,
    "unitCount": 1,
    "severity": 0,
    "lat": 47.663215,
    "long": -122.315262,
    "neighborhood": "University District",
    "neighborhoodGroup": "Northeast",
    "units": "E31"
  },
  {
    "id_str": "F210083756",
    "created_at": "8/5/2021 2:27:22 AM",
    "timestamp": 1628155642000,
    "description": "Aid Response",
    "address": "9008 25th Ave Sw",
    "active": false,
    "unitCount": 1,
    "severity": 0,
    "lat": 47.522779,
    "long": -122.364537,
    "neighborhood": "Roxhill/Westwood",
    "neighborhoodGroup": "Delridge Neighborhoods",
    "units": "E11"
  },
  {
    "id_str": "F210083754",
    "created_at": "8/5/2021 2:08:37 AM",
    "timestamp": 1628154517000,
    "description": "Rubbish Fire",
    "address": "8th Ave Nw / Nw 43rd St",
    "active": false,
    "unitCount": 1,
    "severity": 0,
    "lat": 47.658939,
    "long": -122.366112,
    "neighborhood": "Ballard",
    "neighborhoodGroup": "Ballard",
    "units": "E18"
  },
  {
    "id_str": "F210083753",
    "created_at": "8/5/2021 2:06:59 AM",
    "timestamp": 1628154419000,
    "description": "Aid Response",
    "address": "2900 S Byron St",
    "active": false,
    "unitCount": 1,
    "severity": 0,
    "lat": 47.573535,
    "long": -122.29596,
    "neighborhood": "Mt. Baker/North Rainier",
    "neighborhoodGroup": "Southeast",
    "units": "E13"
  },
  {
    "id_str": "F210083750",
    "created_at": "8/5/2021 1:56:10 AM",
    "timestamp": 1628153770000,
    "description": "Aid Response",
    "address": "5300 24th Ave Ne",
    "active": false,
    "unitCount": 1,
    "severity": 0,
    "lat": 47.66707,
    "long": -122.301946,
    "neighborhood": "Ravenna/Bryant",
    "neighborhoodGroup": "Northeast",
    "units": "E38"
  },
  {
    "id_str": "F210083749",
    "created_at": "8/5/2021 1:53:19 AM",
    "timestamp": 1628153599000,
    "description": "Investigate Out Of Service",
    "address": "1600 Melrose Ave",
    "active": false,
    "unitCount": 1,
    "severity": 0,
    "lat": 47.615238,
    "long": -122.327904,
    "neighborhood": "Capitol Hill",
    "neighborhoodGroup": "East",
    "units": "E25"
  },
  {
    "id_str": "F210083746",
    "created_at": "8/5/2021 1:48:00 AM",
    "timestamp": 1628153280000,
    "description": "Medic Response, 7 per Rule",
    "address": "107 Eastlake Ave E",
    "active": false,
    "unitCount": 3,
    "severity": 0,
    "lat": 47.618617,
    "long": -122.329128,
    "neighborhood": "Cascade/Eastlake",
    "neighborhoodGroup": "Lake Union",
    "units": "A2 E2 M10"
  },
  {
    "id_str": "F210083745",
    "created_at": "8/5/2021 1:35:27 AM",
    "timestamp": 1628152527000,
    "description": "Aid Response",
    "address": "419 21ST AVE",
    "active": false,
    "unitCount": 2,
    "severity": 0,
    "lat": 47.599024,
    "long": -122.331579,
    "neighborhood": "Duwamish/SODO",
    "neighborhoodGroup": "Greater Duwamish",
    "units": "A5 E6"
  },
  {
    "id_str": "F210083744",
    "created_at": "8/5/2021 1:28:26 AM",
    "timestamp": 1628152106000,
    "description": "Aid Response",
    "address": "223 Yesler Way",
    "active": false,
    "unitCount": 1,
    "severity": 0,
    "lat": 47.601718,
    "long": -122.331581,
    "neighborhood": "Downtown Commercial Core",
    "neighborhoodGroup": "Downtown",
    "units": "A10"
  },
  {
    "id_str": "F210083742",
    "created_at": "8/5/2021 1:17:35 AM",
    "timestamp": 1628151455000,
    "description": "Aid Response",
    "address": "3025 Ne 137th St",
    "active": false,
    "unitCount": 1,
    "severity": 0,
    "lat": 47.727922,
    "long": -122.296068,
    "neighborhood": "Cedar Park/Meadowbrook",
    "neighborhoodGroup": "North",
    "units": "E39"
  },
  {
    "id_str": "F210083741",
    "created_at": "8/5/2021 1:15:54 AM",
    "timestamp": 1628151354000,
    "description": "Aid Response",
    "address": "1818 E Madison St",
    "active": false,
    "unitCount": 1,
    "severity": 0,
    "lat": 47.616245,
    "long": -122.308579,
    "neighborhood": "Central Area/Squire Park",
    "neighborhoodGroup": "Central",
    "units": "A25"
  },
  {
    "id_str": "F210083740",
    "created_at": "8/5/2021 1:14:41 AM",
    "timestamp": 1628151281000,
    "description": "Medic Response",
    "address": "1245 10th Ave E",
    "active": false,
    "unitCount": 2,
    "severity": 0,
    "lat": 47.630887,
    "long": -122.320208,
    "neighborhood": "Cascade/Eastlake",
    "neighborhoodGroup": "Lake Union",
    "units": "E22 M1"
  },
  {
    "id_str": "F210083739",
    "created_at": "8/5/2021 1:13:37 AM",
    "timestamp": 1628151217000,
    "description": "Aid Response",
    "address": "1924 24TH AVE S",
    "active": false,
    "unitCount": 3,
    "severity": 0,
    "lat": 47.585489,
    "long": -122.301493,
    "neighborhood": "Mt. Baker/North Rainier",
    "neighborhoodGroup": "Southeast",
    "units": "E30 E6 M10"
  },
  {
    "id_str": "F210083738",
    "created_at": "8/5/2021 1:09:27 AM",
    "timestamp": 1628150967000,
    "description": "Aid Response",
    "address": "10500 51st Ave S",
    "active": false,
    "unitCount": 1,
    "severity": 0,
    "lat": 47.506583,
    "long": -122.270133,
    "units": "E33"
  },
  {
    "id_str": "F210083737",
    "created_at": "8/5/2021 1:05:17 AM",
    "timestamp": 1628150717000,
    "description": "Aid Response",
    "address": "Columbia St / Alaskan Way",
    "active": false,
    "unitCount": 1,
    "severity": 0,
    "lat": 47.602348,
    "long": -122.337148,
    "neighborhood": "Downtown Commercial Core",
    "neighborhoodGroup": "Downtown",
    "units": "E5"
  },
  {
    "id_str": "F210083736",
    "created_at": "8/5/2021 12:57:23 AM",
    "timestamp": 1628150243000,
    "description": "Aid Response",
    "address": "NE 125TH ST / 26TH AVE NE",
    "active": false,
    "unitCount": 1,
    "severity": 0,
    "lat": 47.719307,
    "long": -122.300395,
    "neighborhood": "Olympic Hills/Victory Heights",
    "neighborhoodGroup": "North",
    "units": "L5"
  },
  {
    "id_str": "F210083735",
    "created_at": "8/5/2021 12:53:35 AM",
    "timestamp": 1628150015000,
    "description": "Aid Response",
    "address": "505 Ne 70th St",
    "active": false,
    "unitCount": 1,
    "severity": 0,
    "lat": 47.679478,
    "long": -122.322726,
    "neighborhood": "Green Lake",
    "neighborhoodGroup": "Northwest",
    "units": "E16"
  },
  {
    "id_str": "F210083734",
    "created_at": "8/5/2021 12:50:46 AM",
    "timestamp": 1628149846000,
    "description": "Aid Response",
    "address": "2614 4th Ave",
    "active": false,
    "unitCount": 1,
    "severity": 0,
    "lat": 47.617316,
    "long": -122.347229,
    "neighborhood": "Cascade/Eastlake",
    "neighborhoodGroup": "Lake Union",
    "units": "A2"
  },
  {
    "id_str": "F210083733",
    "created_at": "8/5/2021 12:49:14 AM",
    "timestamp": 1628149754000,
    "description": "Medic Response",
    "address": "12701 Palatine Ave N",
    "active": false,
    "unitCount": 2,
    "severity": 0,
    "lat": 47.721425,
    "long": -122.356883,
    "neighborhood": "Broadview/Bitter Lake",
    "neighborhoodGroup": "Northwest",
    "units": "E35 M18"
  },
  {
    "id_str": "F210083730",
    "created_at": "8/5/2021 12:32:57 AM",
    "timestamp": 1628148777000,
    "description": "Medic Response",
    "address": "12503 Greenwood Ave N",
    "active": false,
    "unitCount": 2,
    "severity": 0,
    "lat": 47.719619,
    "long": -122.355539,
    "neighborhood": "Broadview/Bitter Lake",
    "neighborhoodGroup": "Northwest",
    "units": "E24 M31"
  },
  {
    "id_str": "F210083727",
    "created_at": "8/5/2021 12:21:36 AM",
    "timestamp": 1628148096000,
    "description": "Medic Response",
    "address": "3503 S Hudson St",
    "active": false,
    "unitCount": 2,
    "severity": 0,
    "lat": 47.557052,
    "long": -122.288774,
    "neighborhood": "Columbia City",
    "neighborhoodGroup": "Southeast",
    "units": "E28 M28"
  },
  {
    "id_str": "F210083726",
    "created_at": "8/5/2021 12:21:10 AM",
    "timestamp": 1628148070000,
    "description": "Aid Response",
    "address": "Seneca St / 2nd Ave",
    "active": false,
    "unitCount": 1,
    "severity": 0,
    "lat": 47.606586,
    "long": -122.336434,
    "neighborhood": "Downtown Commercial Core",
    "neighborhoodGroup": "Downtown",
    "units": "A5"
  },
  {
    "id_str": "F210083725",
    "created_at": "8/5/2021 12:19:41 AM",
    "timestamp": 1628147981000,
    "description": "Aid Response",
    "address": "1818 E Madison St",
    "active": false,
    "unitCount": 1,
    "severity": 0,
    "lat": 47.616245,
    "long": -122.308579,
    "neighborhood": "Central Area/Squire Park",
    "neighborhoodGroup": "Central",
    "units": "A25"
  },
  {
    "id_str": "F210083722",
    "created_at": "8/5/2021 12:12:58 AM",
    "timestamp": 1628147578000,
    "description": "Medic Response, 7 per Rule",
    "address": "2106 5th Ave",
    "active": false,
    "unitCount": 3,
    "severity": 0,
    "lat": 47.614535,
    "long": -122.34054,
    "neighborhood": "Cascade/Eastlake",
    "neighborhoodGroup": "Lake Union",
    "units": "A2 E2 M10"
  },
  {
    "id_str": "F210083721",
    "created_at": "8/5/2021 12:08:22 AM",
    "timestamp": 1628147302000,
    "description": "Medic Response",
    "address": "11TH AVE NE / NE 145TH ST",
    "active": false,
    "unitCount": 2,
    "severity": 0,
    "lat": 47.733952,
    "long": -122.312749,
    "units": "E39 M17"
  },
  {
    "id_str": "F210083719",
    "created_at": "8/4/2021 11:55:46 PM",
    "timestamp": 1628146546000,
    "description": "Automatic Fire Alarm False",
    "address": "3512 S Juneau St",
    "active": false,
    "unitCount": 1,
    "severity": 0,
    "lat": 47.549772,
    "long": -122.288795,
    "neighborhood": "Beacon Hill",
    "neighborhoodGroup": "Greater Duwamish",
    "units": "E28"
  },
  {
    "id_str": "F210083718",
    "created_at": "8/4/2021 11:53:42 PM",
    "timestamp": 1628146422000,
    "description": "Aid Response",
    "address": "4408 Delridge Way Sw",
    "active": false,
    "unitCount": 1,
    "severity": 0,
    "lat": 47.564579,
    "long": -122.363318,
    "neighborhood": "North Delridge",
    "neighborhoodGroup": "Delridge Neighborhoods",
    "units": "E32"
  },
  {
    "id_str": "F210083713",
    "created_at": "8/4/2021 11:47:36 PM",
    "timestamp": 1628146056000,
    "description": "Automatic Fire Alarm False",
    "address": "1600 Melrose Ave",
    "active": false,
    "unitCount": 2,
    "severity": 0,
    "lat": 47.615238,
    "long": -122.327904,
    "neighborhood": "Capitol Hill",
    "neighborhoodGroup": "East",
    "units": "E25 L10"
  },
  {
    "id_str": "F210083712",
    "created_at": "8/4/2021 11:41:01 PM",
    "timestamp": 1628145661000,
    "description": "Aid Response",
    "address": "10511 23rd Ave Ne",
    "active": false,
    "unitCount": 1,
    "severity": 0,
    "lat": 47.704905,
    "long": -122.304322,
    "neighborhood": "Olympic Hills/Victory Heights",
    "neighborhoodGroup": "North",
    "units": "E40"
  },
  {
    "id_str": "F210083711",
    "created_at": "8/4/2021 11:38:03 PM",
    "timestamp": 1628145483000,
    "description": "Aid Response",
    "address": "5220 23rd Ave Sw",
    "active": false,
    "unitCount": 1,
    "severity": 0,
    "lat": 47.554727,
    "long": -122.361745,
    "neighborhood": "Riverview",
    "neighborhoodGroup": "Delridge Neighborhoods",
    "units": "E36"
  },
  {
    "id_str": "F210083710",
    "created_at": "8/4/2021 11:32:37 PM",
    "timestamp": 1628145157000,
    "description": "Aid Response",
    "address": "9th Ave / Seneca St",
    "active": false,
    "unitCount": 1,
    "severity": 0,
    "lat": 47.609836,
    "long": -122.328666,
    "neighborhood": "First Hill",
    "neighborhoodGroup": "East",
    "units": "A10"
  },
  {
    "id_str": "F210083709",
    "created_at": "8/4/2021 11:31:17 PM",
    "timestamp": 1628145077000,
    "description": "Aid Response",
    "address": "1705 Belmont Ave",
    "active": false,
    "unitCount": 1,
    "severity": 0,
    "lat": 47.616405,
    "long": -122.324488,
    "neighborhood": "Capitol Hill",
    "neighborhoodGroup": "East",
    "units": "A25"
  },
  {
    "id_str": "F210083708",
    "created_at": "8/4/2021 11:24:15 PM",
    "timestamp": 1628144655000,
    "description": "Investigate Out Of Service",
    "address": "Pontius Ave N / Harrison St",
    "active": false,
    "unitCount": 1,
    "severity": 0,
    "lat": 47.621968,
    "long": -122.331711,
    "neighborhood": "Cascade/Eastlake",
    "neighborhoodGroup": "Lake Union",
    "units": "E2"
  },
  {
    "id_str": "F210083706",
    "created_at": "8/4/2021 11:18:39 PM",
    "timestamp": 1628144319000,
    "description": "Aid Response",
    "address": "4545 Sand Point Way Ne",
    "active": false,
    "unitCount": 1,
    "severity": 0,
    "lat": 47.661626,
    "long": -122.28653,
    "neighborhood": "Laurelhurst/Sand Point",
    "neighborhoodGroup": "Northeast",
    "units": "E38"
  },
  {
    "id_str": "F210083704",
    "created_at": "8/4/2021 11:13:10 PM",
    "timestamp": 1628143990000,
    "description": "Aid Response",
    "address": "Ne 70th St / 8th Ave Ne",
    "active": false,
    "unitCount": 3,
    "severity": 0,
    "lat": 47.679495,
    "long": -122.319968,
    "neighborhood": "Green Lake",
    "neighborhoodGroup": "Northwest",
    "units": "E16 E17 M17"
  },
  {
    "id_str": "F210083703",
    "created_at": "8/4/2021 11:12:23 PM",
    "timestamp": 1628143943000,
    "description": "Auto Fire Alarm",
    "address": "1529 Queen Anne Ave N",
    "active": false,
    "unitCount": 2,
    "severity": 0,
    "lat": 47.632635,
    "long": -122.356991,
    "neighborhood": "Queen Anne",
    "neighborhoodGroup": "Magnolia/Queen Anne",
    "units": "E8 L6"
  },
  {
    "id_str": "F210083702",
    "created_at": "8/4/2021 10:57:02 PM",
    "timestamp": 1628143022000,
    "description": "Aid Response",
    "address": "N 90th St / Aurora Ave N",
    "active": false,
    "unitCount": 1,
    "severity": 0,
    "lat": 47.694186,
    "long": -122.344565,
    "neighborhood": "Licton Springs",
    "neighborhoodGroup": "Northwest",
    "units": "E21"
  },
  {
    "id_str": "F210083701",
    "created_at": "8/4/2021 10:50:10 PM",
    "timestamp": 1628142610000,
    "description": "Aid Response",
    "address": "5020 California Ave Sw",
    "active": false,
    "unitCount": 1,
    "severity": 0,
    "lat": 47.557285,
    "long": -122.386889,
    "neighborhood": "West Seattle Junction/Genesee Hill",
    "neighborhoodGroup": "Southwest",
    "units": "E32"
  },
  {
    "id_str": "F210083699",
    "created_at": "8/4/2021 10:44:54 PM",
    "timestamp": 1628142294000,
    "description": "Illegal Burn",
    "address": "5701 22nd Ave Nw",
    "active": false,
    "unitCount": 1,
    "severity": 0,
    "lat": 47.670183,
    "long": -122.384743,
    "neighborhood": "Ballard",
    "neighborhoodGroup": "Ballard",
    "units": "E18"
  },
  {
    "id_str": "F210083698",
    "created_at": "8/4/2021 10:42:35 PM",
    "timestamp": 1628142155000,
    "description": "Aid Response",
    "address": "4502 Sw Wildwood Pl",
    "active": false,
    "unitCount": 1,
    "severity": 0,
    "lat": 47.52079,
    "long": -122.390232,
    "neighborhood": "Fauntleroy/Seaview",
    "neighborhoodGroup": "Southwest",
    "units": "E37"
  },
  {
    "id_str": "F210083697",
    "created_at": "8/4/2021 10:30:02 PM",
    "timestamp": 1628141402000,
    "description": "Aid Response",
    "address": "2435 S Judkins St",
    "active": false,
    "unitCount": 1,
    "severity": 0,
    "lat": 47.592087,
    "long": -122.300897,
    "neighborhood": "Madrona/Leschi",
    "neighborhoodGroup": "Central",
    "units": "E6"
  },
  {
    "id_str": "F210083696",
    "created_at": "8/4/2021 10:25:29 PM",
    "timestamp": 1628141129000,
    "description": "Aid Response",
    "address": "1815 N 45TH ST",
    "active": false,
    "unitCount": 1,
    "severity": 0,
    "lat": 47.661386,
    "long": -122.336107,
    "neighborhood": "Wallingford",
    "neighborhoodGroup": "Lake Union",
    "units": "E31"
  },
  {
    "id_str": "F210083695",
    "created_at": "8/4/2021 10:17:13 PM",
    "timestamp": 1628140633000,
    "description": "Aid Response",
    "address": "10209 55th Ave S",
    "active": false,
    "unitCount": 1,
    "severity": 0,
    "lat": 47.509599,
    "long": -122.264745,
    "neighborhood": "Rainier Beach",
    "neighborhoodGroup": "Southeast",
    "units": "E33"
  },
  {
    "id_str": "F210083694",
    "created_at": "8/4/2021 10:15:07 PM",
    "timestamp": 1628140507000,
    "description": "Rubbish Fire",
    "address": "2nd Ave / Bell St",
    "active": false,
    "unitCount": 1,
    "severity": 0,
    "lat": 47.61404,
    "long": -122.345653,
    "neighborhood": "Belltown",
    "neighborhoodGroup": "Downtown",
    "units": "E2"
  },
  {
    "id_str": "F210083693",
    "created_at": "8/4/2021 10:06:48 PM",
    "timestamp": 1628140008000,
    "description": "Aid Response",
    "address": "26 Harrison St",
    "active": false,
    "unitCount": 1,
    "severity": 0,
    "lat": 47.622107,
    "long": -122.356403,
    "neighborhood": "Queen Anne",
    "neighborhoodGroup": "Magnolia/Queen Anne",
    "units": "A2"
  },
  {
    "id_str": "F210083692",
    "created_at": "8/4/2021 10:05:46 PM",
    "timestamp": 1628139946000,
    "description": "Medic Response",
    "address": "6619 RAINIER AVE S",
    "active": false,
    "unitCount": 2,
    "severity": 0,
    "lat": 47.543197,
    "long": -122.27331,
    "neighborhood": "Seward Park",
    "neighborhoodGroup": "Southeast",
    "units": "L12 M28"
  },
  {
    "id_str": "F210083690",
    "created_at": "8/4/2021 9:56:47 PM",
    "timestamp": 1628139407000,
    "description": "Aid Response",
    "address": "6406 28th Ave S",
    "active": false,
    "unitCount": 1,
    "severity": 0,
    "lat": 47.545266,
    "long": -122.296889,
    "neighborhood": "South Beacon Hill/NewHolly",
    "neighborhoodGroup": "Greater Duwamish",
    "units": "E28"
  },
  {
    "id_str": "F210083686",
    "created_at": "8/4/2021 9:52:08 PM",
    "timestamp": 1628139128000,
    "description": "Aid Response",
    "address": "5901 Phinney Ave N",
    "active": false,
    "unitCount": 1,
    "severity": 0,
    "lat": 47.671794,
    "long": -122.354387,
    "neighborhood": "Greenwood/Phinney Ridge",
    "neighborhoodGroup": "Northwest",
    "units": "E18"
  },
  {
    "id_str": "F210083687",
    "created_at": "8/4/2021 9:51:56 PM",
    "timestamp": 1628139116000,
    "description": "Aid Response",
    "address": "100 Broadway E",
    "active": false,
    "unitCount": 1,
    "severity": 0,
    "lat": 47.61874,
    "long": -122.320854,
    "neighborhood": "Capitol Hill",
    "neighborhoodGroup": "East",
    "units": "E25"
  },
  {
    "id_str": "F210083685",
    "created_at": "8/4/2021 9:51:44 PM",
    "timestamp": 1628139104000,
    "description": "MVI - Motor Vehicle Incident",
    "address": "E Hamlin St / Harvard Ave E",
    "active": false,
    "unitCount": 1,
    "severity": 0,
    "lat": 47.64562,
    "long": -122.322106,
    "neighborhood": "Montlake/Portage Bay",
    "neighborhoodGroup": "Northeast",
    "units": "E22"
  },
  {
    "id_str": "F210083684",
    "created_at": "8/4/2021 9:48:00 PM",
    "timestamp": 1628138880000,
    "description": "Activated CO Detector",
    "address": "523 Broadway E",
    "active": false,
    "unitCount": 1,
    "severity": 0,
    "lat": 47.623385,
    "long": -122.320928,
    "neighborhood": "Capitol Hill",
    "neighborhoodGroup": "East",
    "units": "L10"
  },
  {
    "id_str": "F210083682",
    "created_at": "8/4/2021 9:47:55 PM",
    "timestamp": 1628138875000,
    "description": "Aid Response",
    "address": "S Walker St / 4th Ave S",
    "active": false,
    "unitCount": 1,
    "severity": 0,
    "lat": 47.583977,
    "long": -122.329054,
    "neighborhood": "Duwamish/SODO",
    "neighborhoodGroup": "Greater Duwamish",
    "units": "A14"
  },
  {
    "id_str": "F210083683",
    "created_at": "8/4/2021 9:47:38 PM",
    "timestamp": 1628138858000,
    "description": "Medic Response",
    "address": "116 Stewart St",
    "active": false,
    "unitCount": 2,
    "severity": 0,
    "lat": 47.610387,
    "long": -122.341198,
    "neighborhood": "Belltown",
    "neighborhoodGroup": "Downtown",
    "units": "A2 M10"
  },
  {
    "id_str": "F210083680",
    "created_at": "8/4/2021 9:40:00 PM",
    "timestamp": 1628138400000,
    "description": "Single Medic Unit",
    "address": "800 Occidental Ave S",
    "active": false,
    "unitCount": 1,
    "severity": 0,
    "lat": 47.595693,
    "long": -122.333273,
    "neighborhood": "Duwamish/SODO",
    "neighborhoodGroup": "Greater Duwamish",
    "units": "M18"
  },
  {
    "id_str": "F210083679",
    "created_at": "8/4/2021 9:38:32 PM",
    "timestamp": 1628138312000,
    "description": "Aid Response",
    "address": "9548 Palatine Ave N",
    "active": false,
    "unitCount": 1,
    "severity": 0,
    "lat": 47.698272,
    "long": -122.356722,
    "neighborhood": "Greenwood/Phinney Ridge",
    "neighborhoodGroup": "Northwest",
    "units": "E35"
  },
  {
    "id_str": "F210083678",
    "created_at": "8/4/2021 9:34:22 PM",
    "timestamp": 1628138062000,
    "description": "Aid Response",
    "address": "1417 Broadway",
    "active": false,
    "unitCount": 1,
    "severity": 0,
    "lat": 47.613145,
    "long": -122.320765,
    "neighborhood": "Capitol Hill",
    "neighborhoodGroup": "East",
    "units": "A25"
  },
  {
    "id_str": "F210083676",
    "created_at": "8/4/2021 9:28:32 PM",
    "timestamp": 1628137712000,
    "description": "Bark Fire",
    "address": "1120 E Terrace St",
    "active": false,
    "unitCount": 1,
    "severity": 0,
    "lat": 47.605198,
    "long": -122.317837,
    "neighborhood": "First Hill",
    "neighborhoodGroup": "East",
    "units": "E25"
  },
  {
    "id_str": "F210083671",
    "created_at": "8/4/2021 9:25:54 PM",
    "timestamp": 1628137554000,
    "description": "Aid Response",
    "address": "500 Olive Way",
    "active": false,
    "unitCount": 1,
    "severity": 0,
    "lat": 47.612665,
    "long": -122.337394,
    "neighborhood": "Downtown Commercial Core",
    "neighborhoodGroup": "Downtown",
    "units": "A2"
  },
  {
    "id_str": "F210083669",
    "created_at": "8/4/2021 9:24:46 PM",
    "timestamp": 1628137486000,
    "description": "Natural Gas Odor",
    "address": "12016 3rd Ave Ne",
    "active": false,
    "unitCount": 1,
    "severity": 0,
    "lat": 47.715996,
    "long": -122.326147,
    "neighborhood": "Haller Lake",
    "neighborhoodGroup": "Northwest",
    "units": "L5"
  },
  {
    "id_str": "F210083670",
    "created_at": "8/4/2021 9:24:27 PM",
    "timestamp": 1628137467000,
    "description": "2RED - 1 + 1",
    "address": "9548 PALATINE AVE N",
    "active": false,
    "unitCount": 3,
    "severity": 0,
    "lat": 47.698135,
    "long": -122.35672,
    "neighborhood": "Greenwood/Phinney Ridge",
    "neighborhoodGroup": "Northwest",
    "units": "E21 L8 MAR5"
  },
  {
    "id_str": "F210083668",
    "created_at": "8/4/2021 9:22:10 PM",
    "timestamp": 1628137330000,
    "description": "Illegal Burn",
    "address": "1307 W Boston St",
    "active": false,
    "unitCount": 1,
    "severity": 0,
    "lat": 47.638637,
    "long": -122.37395,
    "neighborhood": "Interbay",
    "neighborhoodGroup": "Magnolia/Queen Anne",
    "units": "E20"
  },
  {
    "id_str": "F210083667",
    "created_at": "8/4/2021 9:20:50 PM",
    "timestamp": 1628137250000,
    "description": "Aid Response",
    "address": "2701 15th Ave S",
    "active": false,
    "unitCount": 1,
    "severity": 0,
    "lat": 47.579466,
    "long": -122.313381,
    "neighborhood": "North Beacon Hill/Jefferson Park",
    "neighborhoodGroup": "Greater Duwamish",
    "units": "E13"
  },
  {
    "id_str": "F210083665",
    "created_at": "8/4/2021 9:15:21 PM",
    "timestamp": 1628136921000,
    "description": "Aid Response",
    "address": "12558 22nd Ave Ne",
    "active": false,
    "unitCount": 1,
    "severity": 0,
    "lat": 47.719899,
    "long": -122.305921,
    "neighborhood": "Olympic Hills/Victory Heights",
    "neighborhoodGroup": "North",
    "units": "E39"
  },
  {
    "id_str": "F210083663",
    "created_at": "8/4/2021 9:12:22 PM",
    "timestamp": 1628136742000,
    "description": "Aid Response",
    "address": "810 Virginia St",
    "active": false,
    "unitCount": 1,
    "severity": 0,
    "lat": 47.615789,
    "long": -122.336507,
    "neighborhood": "Cascade/Eastlake",
    "neighborhoodGroup": "Lake Union",
    "units": "E2"
  },
  {
    "id_str": "F210083660",
    "created_at": "8/4/2021 9:06:26 PM",
    "timestamp": 1628136386000,
    "description": "Brush Fire",
    "address": "6th Ave Nw / Nw 42nd St",
    "active": false,
    "unitCount": 1,
    "severity": 0,
    "lat": 47.657763,
    "long": -122.363983,
    "neighborhood": "Fremont",
    "neighborhoodGroup": "Lake Union",
    "units": "E9"
  },
  {
    "id_str": "F210083659",
    "created_at": "8/4/2021 9:04:53 PM",
    "timestamp": 1628136293000,
    "description": "Aid Response",
    "address": "4825 University View Pl Ne",
    "active": false,
    "unitCount": 2,
    "severity": 0,
    "lat": 47.663694,
    "long": -122.292939,
    "neighborhood": "Ravenna/Bryant",
    "neighborhoodGroup": "Northeast",
    "units": "E38 M17"
  },
  {
    "id_str": "F210083657",
    "created_at": "8/4/2021 9:01:07 PM",
    "timestamp": 1628136067000,
    "description": "Aid Response",
    "address": "Midvale Ave N / N 107th St",
    "active": false,
    "unitCount": 1,
    "severity": 0,
    "lat": 47.706877,
    "long": -122.34336,
    "neighborhood": "Haller Lake",
    "neighborhoodGroup": "Northwest",
    "units": "E24"
  },
  {
    "id_str": "F210083656",
    "created_at": "8/4/2021 8:59:06 PM",
    "timestamp": 1628135946000,
    "description": "Illegal Burn",
    "address": "Lake Park Dr S / Lake Washington Blvd S",
    "active": false,
    "unitCount": 2,
    "severity": 0,
    "lat": 47.582955,
    "long": -122.287659,
    "neighborhood": "Mt. Baker/North Rainier",
    "neighborhoodGroup": "Southeast",
    "units": "E13 E30"
  },
  {
    "id_str": "F210083655",
    "created_at": "8/4/2021 8:57:41 PM",
    "timestamp": 1628135861000,
    "description": "Aid Response",
    "address": "2119 3rd Ave",
    "active": false,
    "unitCount": 1,
    "severity": 0,
    "lat": 47.613308,
    "long": -122.342432,
    "neighborhood": "Cascade/Eastlake",
    "neighborhoodGroup": "Lake Union",
    "units": "A2"
  },
  {
    "id_str": "F210083653",
    "created_at": "8/4/2021 8:51:58 PM",
    "timestamp": 1628135518000,
    "description": "Low Acuity Response",
    "address": "6076 52nd Ave S",
    "active": false,
    "unitCount": 1,
    "severity": 0,
    "lat": 47.548014,
    "long": -122.266436,
    "neighborhood": "Seward Park",
    "neighborhoodGroup": "Southeast",
    "units": "E28"
  },
  {
    "id_str": "F210083652",
    "created_at": "8/4/2021 8:50:08 PM",
    "timestamp": 1628135408000,
    "description": "Aid Response",
    "address": "1005 Terrace St",
    "active": false,
    "unitCount": 1,
    "severity": 0,
    "lat": 47.604615,
    "long": -122.32228,
    "neighborhood": "First Hill",
    "neighborhoodGroup": "East",
    "units": "A10"
  },
  {
    "id_str": "F210083650",
    "created_at": "8/4/2021 8:49:36 PM",
    "timestamp": 1628135376000,
    "description": "Medic Response",
    "address": "4745 37th Ave Sw",
    "active": false,
    "unitCount": 2,
    "severity": 0,
    "lat": 47.560241,
    "long": -122.378788,
    "neighborhood": "West Seattle Junction/Genesee Hill",
    "neighborhoodGroup": "Southwest",
    "units": "E32 M26"
  },
  {
    "id_str": "F210083651",
    "created_at": "8/4/2021 8:49:15 PM",
    "timestamp": 1628135355000,
    "description": "Low Acuity Response",
    "address": "415 10th Ave",
    "active": false,
    "unitCount": 1,
    "severity": 0,
    "lat": 47.605346,
    "long": -122.319413,
    "neighborhood": "First Hill",
    "neighborhoodGroup": "East",
    "units": "A25"
  },
  {
    "id_str": "F210083649",
    "created_at": "8/4/2021 8:48:13 PM",
    "timestamp": 1628135293000,
    "description": "Aid Response",
    "address": "46TH AVE SW / SW WILDWOOD PL",
    "active": false,
    "unitCount": 1,
    "severity": 0,
    "lat": 47.523174,
    "long": -122.393181,
    "neighborhood": "Fauntleroy/Seaview",
    "neighborhoodGroup": "Southwest",
    "units": "E37"
  },
  {
    "id_str": "F210083648",
    "created_at": "8/4/2021 8:46:41 PM",
    "timestamp": 1628135201000,
    "description": "Aid Response",
    "address": "4616 M L King Jr Way S",
    "active": false,
    "unitCount": 1,
    "severity": 0,
    "lat": 47.561674,
    "long": -122.293783,
    "neighborhood": "Columbia City",
    "neighborhoodGroup": "Southeast",
    "units": "E30"
  },
  {
    "id_str": "F210083647",
    "created_at": "8/4/2021 8:40:26 PM",
    "timestamp": 1628134826000,
    "description": "Aid Response",
    "address": "937 N 96th St",
    "active": false,
    "unitCount": 1,
    "severity": 0,
    "lat": 47.698721,
    "long": -122.34681,
    "neighborhood": "Licton Springs",
    "neighborhoodGroup": "Northwest",
    "units": "E35"
  },
  {
    "id_str": "F210083645",
    "created_at": "8/4/2021 8:35:20 PM",
    "timestamp": 1628134520000,
    "description": "Illegal Burn",
    "address": "5th Ave Ne / Ne 145th St",
    "active": false,
    "unitCount": 1,
    "severity": 0,
    "lat": 47.734053,
    "long": -122.323484,
    "units": "E24"
  },
  {
    "id_str": "F210083644",
    "created_at": "8/4/2021 8:33:36 PM",
    "timestamp": 1628134416000,
    "description": "Aid Response",
    "address": "1710 Nw 57th St",
    "active": false,
    "unitCount": 1,
    "severity": 0,
    "lat": 47.670175,
    "long": -122.378981,
    "neighborhood": "Ballard",
    "neighborhoodGroup": "Ballard",
    "units": "E18"
  },
  {
    "id_str": "F210083643",
    "created_at": "8/4/2021 8:31:31 PM",
    "timestamp": 1628134291000,
    "description": "Aid Response",
    "address": "6758 Dibble Ave Nw",
    "active": false,
    "unitCount": 2,
    "severity": 0,
    "lat": 47.678091,
    "long": -122.367652,
    "neighborhood": "Whittier Heights",
    "neighborhoodGroup": "Ballard",
    "units": "E18 L8"
  },
  {
    "id_str": "F210083642",
    "created_at": "8/4/2021 8:26:50 PM",
    "timestamp": 1628134010000,
    "description": "Medic Response",
    "address": "9221 Greenwood Ave N",
    "active": false,
    "unitCount": 2,
    "severity": 0,
    "lat": 47.69615,
    "long": -122.355359,
    "neighborhood": "Greenwood/Phinney Ridge",
    "neighborhoodGroup": "Northwest",
    "units": "E21 M31"
  },
  {
    "id_str": "F210083640",
    "created_at": "8/4/2021 8:16:59 PM",
    "timestamp": 1628133419000,
    "description": "Aid Response",
    "address": "2316 Yale Ave E",
    "active": false,
    "unitCount": 1,
    "severity": 0,
    "lat": 47.639902,
    "long": -122.327108,
    "neighborhood": "Montlake/Portage Bay",
    "neighborhoodGroup": "Northeast",
    "units": "E22"
  },
  {
    "id_str": "F210083639",
    "created_at": "8/4/2021 8:16:39 PM",
    "timestamp": 1628133399000,
    "description": "Aid Response",
    "address": "814 Columbia St",
    "active": false,
    "unitCount": 1,
    "severity": 0,
    "lat": 47.606584,
    "long": -122.327007,
    "neighborhood": "First Hill",
    "neighborhoodGroup": "East",
    "units": "A5"
  },
  {
    "id_str": "F210083635",
    "created_at": "8/4/2021 7:57:08 PM",
    "timestamp": 1628132228000,
    "description": "Automatic Fire Alarm Resd",
    "address": "12514 2nd Ave Nw",
    "active": false,
    "unitCount": 1,
    "severity": 0,
    "lat": 47.719746,
    "long": -122.359603,
    "neighborhood": "Broadview/Bitter Lake",
    "neighborhoodGroup": "Northwest",
    "units": "E24"
  },
  {
    "id_str": "F210083634",
    "created_at": "8/4/2021 7:56:11 PM",
    "timestamp": 1628132171000,
    "description": "Illegal Burn",
    "address": "15th Ave Ne / Ne 106th St",
    "active": false,
    "unitCount": 1,
    "severity": 0,
    "lat": 47.706425,
    "long": -122.31243,
    "neighborhood": "Northgate/Maple Leaf",
    "neighborhoodGroup": "North",
    "units": "E39"
  },
  {
    "id_str": "F210083633",
    "created_at": "8/4/2021 7:55:18 PM",
    "timestamp": 1628132118000,
    "description": "Aid Response Yellow",
    "address": "4220 S Othello St",
    "active": false,
    "unitCount": 1,
    "severity": 0,
    "lat": 47.53705,
    "long": -122.280459,
    "neighborhood": "Columbia City",
    "neighborhoodGroup": "Southeast",
    "units": "E28"
  },
  {
    "id_str": "F210083632",
    "created_at": "8/4/2021 7:53:25 PM",
    "timestamp": 1628132005000,
    "description": "Medic Response",
    "address": "111 Cedar St",
    "active": false,
    "unitCount": 2,
    "severity": 0,
    "lat": 47.615877,
    "long": -122.35052,
    "neighborhood": "Belltown",
    "neighborhoodGroup": "Downtown",
    "units": "A4 M10"
  },
  {
    "id_str": "F210083629",
    "created_at": "8/4/2021 7:44:04 PM",
    "timestamp": 1628131444000,
    "description": "Aid Response",
    "address": "12334 31st Ave Ne",
    "active": false,
    "unitCount": 1,
    "severity": 0,
    "lat": 47.71767,
    "long": -122.29517,
    "neighborhood": "Olympic Hills/Victory Heights",
    "neighborhoodGroup": "North",
    "units": "E39"
  },
  {
    "id_str": "F210083628",
    "created_at": "8/4/2021 7:42:54 PM",
    "timestamp": 1628131374000,
    "description": "Aid Response",
    "address": "9061 Seward Park Ave S",
    "active": false,
    "unitCount": 1,
    "severity": 0,
    "lat": 47.521679,
    "long": -122.264284,
    "neighborhood": "Rainier Beach",
    "neighborhoodGroup": "Southeast",
    "units": "L12"
  },
  {
    "id_str": "F210083627",
    "created_at": "8/4/2021 7:42:37 PM",
    "timestamp": 1628131357000,
    "description": "Aid Response",
    "address": "4th Ave S / S Lander St",
    "active": false,
    "unitCount": 1,
    "severity": 0,
    "lat": 47.579809,
    "long": -122.329057,
    "neighborhood": "Duwamish/SODO",
    "neighborhoodGroup": "Greater Duwamish",
    "units": "A14"
  },
  {
    "id_str": "F210083626",
    "created_at": "8/4/2021 7:38:40 PM",
    "timestamp": 1628131120000,
    "description": "Medic Response",
    "address": "9447 58th Ave S",
    "active": false,
    "unitCount": 3,
    "severity": 0,
    "lat": 47.518058,
    "long": -122.260499,
    "neighborhood": "Rainier Beach",
    "neighborhoodGroup": "Southeast",
    "units": "E33 L12 M28"
  },
  {
    "id_str": "F210083624",
    "created_at": "8/4/2021 7:32:33 PM",
    "timestamp": 1628130753000,
    "description": "Aid Response",
    "address": "4th Ave S / S Jackson St",
    "active": false,
    "unitCount": 1,
    "severity": 0,
    "lat": 47.599197,
    "long": -122.328968,
    "neighborhood": "Pioneer Square/International District",
    "neighborhoodGroup": "Downtown",
    "units": "A5"
  },
  {
    "id_str": "F210083625",
    "created_at": "8/4/2021 7:32:32 PM",
    "timestamp": 1628130752000,
    "description": "Low Acuity Response",
    "address": "6076 52nd Ave S",
    "active": false,
    "unitCount": 1,
    "severity": 0,
    "lat": 47.548014,
    "long": -122.266436,
    "neighborhood": "Seward Park",
    "neighborhoodGroup": "Southeast",
    "units": "E28"
  },
  {
    "id_str": "F210083623",
    "created_at": "8/4/2021 7:30:47 PM",
    "timestamp": 1628130647000,
    "description": "Aid Response",
    "address": "5025 California Ave Sw",
    "active": false,
    "unitCount": 1,
    "severity": 0,
    "lat": 47.557232,
    "long": -122.386891,
    "neighborhood": "West Seattle Junction/Genesee Hill",
    "neighborhoodGroup": "Southwest",
    "units": "E32"
  },