[
  {
    "id_str": "F210120741",
    "created_at": "10/31/2021 4:57:19 PM",
    "timestamp": 1635724639000,
    "description": "Aid Response",
    "address": "9200 2nd Ave Sw",
    "active": false,
    "unitCount": 1,
    "severity": 0,
    "lat": 47.521244,
    "long": -122.336301,
    "neighborhood": "Highland Park",
    "neighborhoodGroup": "Delridge Neighborhoods",
    "units": "E26"
  },
  {
    "id_str": "F210120740",
    "created_at": "10/31/2021 4:56:57 PM",
    "timestamp": 1635724617000,
    "description": "Automatic Fire Alarm Resd",
    "address": "1641 Windermere Dr E",
    "active": false,
    "unitCount": 1,
    "severity": 0,
    "lat": 47.634109,
    "long": -122.289988,
    "neighborhood": "Madison Park",
    "neighborhoodGroup": "East",
    "units": "E34"
  },
  {
    "id_str": "F210120738",
    "created_at": "10/31/2021 4:56:22 PM",
    "timestamp": 1635724582000,
    "description": "Scenes Of Violence 14",
    "address": "12th Ave S / S Jackson St",
    "active": false,
    "unitCount": 10,
    "severity": 2,
    "lat": 47.599187,
    "long": -122.317225,
    "neighborhood": "Pioneer Square/International District",
    "neighborhoodGroup": "Downtown",
    "units": "A10 A25 B2 E10 L1 L3 M1 M17 M44 SAFT2"
  },
  {
    "id_str": "F210120735",
    "created_at": "10/31/2021 4:50:03 PM",
    "timestamp": 1635724203000,
    "description": "Aid Response",
    "address": "401 Ne Northgate Way",
    "active": false,
    "unitCount": 1,
    "severity": 0,
    "lat": 47.708603,
    "long": -122.324575,
    "neighborhood": "Northgate/Maple Leaf",
    "neighborhoodGroup": "North",
    "units": "E31"
  },
  {
    "id_str": "F210120733",
    "created_at": "10/31/2021 4:41:59 PM",
    "timestamp": 1635723719000,
    "description": "Aid Response",
    "address": "2nd Ave S / S King St",
    "active": false,
    "unitCount": 1,
    "severity": 0,
    "lat": 47.598288,
    "long": -122.331581,
    "neighborhood": "Duwamish/SODO",
    "neighborhoodGroup": "Greater Duwamish",
    "units": "A10"
  },
  {
    "id_str": "F210120731",
    "created_at": "10/31/2021 4:34:54 PM",
    "timestamp": 1635723294000,
    "description": "Aid Response",
    "address": "10405 Renton Ave S",
    "active": false,
    "unitCount": 1,
    "severity": 0,
    "lat": 47.508077,
    "long": -122.256381,
    "neighborhood": "Rainier Beach",
    "neighborhoodGroup": "Southeast",
    "units": "E33"
  },
  {
    "id_str": "F210120730",
    "created_at": "10/31/2021 4:32:22 PM",
    "timestamp": 1635723142000,
    "description": "Auto Fire Alarm",
    "address": "7101 38th Ave S",
    "active": false,
    "unitCount": 1,
    "severity": 0,
    "lat": 47.538872,
    "long": -122.284744,
    "neighborhood": "South Beacon Hill/NewHolly",
    "neighborhoodGroup": "Greater Duwamish",
    "units": "E28"
  },
  {
    "id_str": "F210120729",
    "created_at": "10/31/2021 4:31:16 PM",
    "timestamp": 1635723076000,
    "description": "Car Fire Freeway",
    "address": "Nb I5 At 45",
    "active": false,
    "unitCount": 2,
    "severity": 0,
    "lat": 47.65745,
    "long": -122.322155,
    "neighborhood": "Wallingford",
    "neighborhoodGroup": "Lake Union",
    "units": "E10 E22"
  },
  {
    "id_str": "F210120727",
    "created_at": "10/31/2021 4:21:31 PM",
    "timestamp": 1635722491000,
    "description": "Automatic Fire Alarm Resd",
    "address": "3619 Ashworth Ave N",
    "active": false,
    "unitCount": 1,
    "severity": 0,
    "lat": 47.650713,
    "long": -122.340237,
    "neighborhood": "Fremont",
    "neighborhoodGroup": "Lake Union",
    "units": "L1"
  },
  {
    "id_str": "F210120722",
    "created_at": "10/31/2021 4:17:31 PM",
    "timestamp": 1635722251000,
    "description": "Aid Response",
    "address": "S Jackson St / Maynard Ave S",
    "active": false,
    "unitCount": 1,
    "severity": 0,
    "lat": 47.599191,
    "long": -122.325055,
    "neighborhood": "Pioneer Square/International District",
    "neighborhoodGroup": "Downtown",
    "units": "A14"
  },
  {
    "id_str": "F210120723",
    "created_at": "10/31/2021 4:17:11 PM",
    "timestamp": 1635722231000,
    "description": "Low Acuity Response",
    "address": "1700 E Madison St",
    "active": false,
    "unitCount": 1,
    "severity": 0,
    "lat": 47.61559,
    "long": -122.310151,
    "neighborhood": "Central Area/Squire Park",
    "neighborhoodGroup": "Central",
    "units": "E34"
  },
  {
    "id_str": "F210120721",
    "created_at": "10/31/2021 4:15:54 PM",
    "timestamp": 1635722154000,
    "description": "Aid Response",
    "address": "417 Broadway E",
    "active": false,
    "unitCount": 1,
    "severity": 0,
    "lat": 47.622174,
    "long": -122.320909,
    "neighborhood": "Capitol Hill",
    "neighborhoodGroup": "East",
    "units": "E6"
  },
  {
    "id_str": "F210120719",
    "created_at": "10/31/2021 4:13:10 PM",
    "timestamp": 1635721990000,
    "description": "Aid Response",
    "address": "915 Nw 45th St",
    "active": false,
    "unitCount": 1,
    "severity": 0,
    "lat": 47.661467,
    "long": -122.368768,
    "neighborhood": "Ballard",
    "neighborhoodGroup": "Ballard",
    "units": "E18"
  },
  {
    "id_str": "F210120720",
    "created_at": "10/31/2021 4:12:53 PM",
    "timestamp": 1635721973000,
    "description": "Rescue Elevator",
    "address": "303 S Jackson St",
    "active": false,
    "unitCount": 1,
    "severity": 0,
    "lat": 47.599199,
    "long": -122.330251,
    "neighborhood": "Pioneer Square/International District",
    "neighborhoodGroup": "Downtown",
    "units": "L4"
  },
  {
    "id_str": "F210120715",
    "created_at": "10/31/2021 4:07:20 PM",
    "timestamp": 1635721640000,
    "description": "Aid Response",
    "address": "11753 15th Ave Ne",
    "active": false,
    "unitCount": 1,
    "severity": 0,
    "lat": 47.714647,
    "long": -122.312515,
    "neighborhood": "Olympic Hills/Victory Heights",
    "neighborhoodGroup": "North",
    "units": "E40"
  },
  {
    "id_str": "F210120712",
    "created_at": "10/31/2021 4:01:54 PM",
    "timestamp": 1635721314000,
    "description": "Aid Response",
    "address": "5th Ave S / S Jackson St",
    "active": false,
    "unitCount": 1,
    "severity": 0,
    "lat": 47.599195,
    "long": -122.327667,
    "neighborhood": "Pioneer Square/International District",
    "neighborhoodGroup": "Downtown",
    "units": "A10"
  },
  {
    "id_str": "F210120711",
    "created_at": "10/31/2021 4:01:46 PM",
    "timestamp": 1635721306000,
    "description": "Medic Response, 7 per Rule",
    "address": "925 ALASKAN WAY",
    "active": false,
    "unitCount": 4,
    "severity": 0,
    "lat": 47.603237,
    "long": -122.337944,
    "neighborhood": "Downtown Commercial Core",
    "neighborhoodGroup": "Downtown",
    "units": "E2 L4 M10 M44"
  },
  {
    "id_str": "F210120709",
    "created_at": "10/31/2021 3:57:48 PM",
    "timestamp": 1635721068000,
    "description": "Activated CO Detector",
    "address": "1521 22nd Ave S",
    "active": false,
    "unitCount": 1,
    "severity": 0,
    "lat": 47.589452,
    "long": -122.30388,
    "neighborhood": "North Beacon Hill/Jefferson Park",
    "neighborhoodGroup": "Greater Duwamish",
    "units": "L3"
  },
  {
    "id_str": "F210120710",
    "created_at": "10/31/2021 3:57:40 PM",
    "timestamp": 1635721060000,
    "description": "Rescue Elevator",
    "address": "4016 8th Ave Ne",
    "active": false,
    "unitCount": 1,
    "severity": 0,
    "lat": 47.655984,
    "long": -122.319796,
    "neighborhood": "Wallingford",
    "neighborhoodGroup": "Lake Union",
    "units": "L1"
  },
  {
    "id_str": "F210120708",
    "created_at": "10/31/2021 3:57:18 PM",
    "timestamp": 1635721038000,
    "description": "Natural Gas Odor",
    "address": "520 Ne 82nd St",
    "active": false,
    "unitCount": 1,
    "severity": 0,
    "lat": 47.688229,
    "long": -122.3228,
    "neighborhood": "Green Lake",
    "neighborhoodGroup": "Northwest",
    "units": "L10"
  },
  {
    "id_str": "F210120706",
    "created_at": "10/31/2021 3:56:37 PM",
    "timestamp": 1635720997000,
    "description": "Aid Response",
    "address": "Ne 42nd St / Pasadena Pl Ne",
    "active": false,
    "unitCount": 1,
    "severity": 0,
    "lat": 47.657521,
    "long": -122.321882,
    "neighborhood": "Wallingford",
    "neighborhoodGroup": "Lake Union",
    "units": "E38"
  },
  {
    "id_str": "F210120705",
    "created_at": "10/31/2021 3:46:24 PM",
    "timestamp": 1635720384000,
    "description": "Marine Service Response",
    "address": "Elliott Ave W / W Thomas St",
    "active": false,
    "unitCount": 4,
    "severity": 0,
    "lat": 47.620664,
    "long": -122.360928,
    "neighborhood": "Queen Anne",
    "neighborhoodGroup": "Magnolia/Queen Anne",
    "units": "FB2 FIREBOAT PTRL4 RB5"
  },
  {
    "id_str": "F210120701",
    "created_at": "10/31/2021 3:39:39 PM",
    "timestamp": 1635719979000,
    "description": "Fire in Building",
    "address": "1142 N 92nd St",
    "active": false,
    "unitCount": 21,
    "severity": 2,
    "lat": 47.69563,
    "long": -122.34401,
    "neighborhood": "Licton Springs",
    "neighborhoodGroup": "Northwest",
    "units": "240-260 A25 AIR AIR260 B4 B6 DEP1 E22 E24 E31 E35 E9 L5 L8 L9 M31 M44 MAR5 REHAB1 SAFT2 STAF10"
  },
  {
    "id_str": "F210120698",
    "created_at": "10/31/2021 3:19:14 PM",
    "timestamp": 1635718754000,
    "description": "Aid Response",
    "address": "4215 50th Ave S",
    "active": false,
    "unitCount": 2,
    "severity": 0,
    "lat": 47.565203,
    "long": -122.270733,
    "neighborhood": "Columbia City",
    "neighborhoodGroup": "Southeast",
    "units": "E28 L12"
  },
  {
    "id_str": "F210120697",
    "created_at": "10/31/2021 3:19:07 PM",
    "timestamp": 1635718747000,
    "description": "Aid Response",
    "address": "2nd Ave S / S Washington St",
    "active": false,
    "unitCount": 1,
    "severity": 0,
    "lat": 47.600879,
    "long": -122.331572,
    "neighborhood": "Pioneer Square/International District",
    "neighborhoodGroup": "Downtown",
    "units": "E10"
  },
  {
    "id_str": "F210120696",
    "created_at": "10/31/2021 3:18:04 PM",
    "timestamp": 1635718684000,
    "description": "Automatic Fire Alarm False",
    "address": "2061 15th Ave W",
    "active": false,
    "unitCount": 1,
    "severity": 0,
    "lat": 47.637661,
    "long": -122.376143,
    "neighborhood": "Interbay",
    "neighborhoodGroup": "Magnolia/Queen Anne",
    "units": "E20"
  },
  {
    "id_str": "F210120695",
    "created_at": "10/31/2021 3:16:42 PM",
    "timestamp": 1635718602000,
    "description": "Aid Response",
    "address": "4505 Sw Brandon St",
    "active": false,
    "unitCount": 1,
    "severity": 0,
    "lat": 47.553932,
    "long": -122.389845,
    "neighborhood": "West Seattle Junction/Genesee Hill",
    "neighborhoodGroup": "Southwest",
    "units": "L11"
  },
  {
    "id_str": "F210120693",
    "created_at": "10/31/2021 3:12:34 PM",
    "timestamp": 1635718354000,
    "description": "Rescue Elevator",
    "address": "525 1st Ave W",
    "active": false,
    "unitCount": 1,
    "severity": 0,
    "lat": 47.623593,
    "long": -122.358022,
    "neighborhood": "Queen Anne",
    "neighborhoodGroup": "Magnolia/Queen Anne",
    "units": "L4"
  },
  {
    "id_str": "F210120692",
    "created_at": "10/31/2021 3:11:35 PM",
    "timestamp": 1635718295000,
    "description": "Auto Fire Alarm",
    "address": "8311 15th Ave Nw",
    "active": false,
    "unitCount": 1,
    "severity": 0,
    "lat": 47.68882,
    "long": -122.376799,
    "neighborhood": "Whittier Heights",
    "neighborhoodGroup": "Ballard",
    "units": "E35"
  },
  {
    "id_str": "F210120691",
    "created_at": "10/31/2021 3:10:45 PM",
    "timestamp": 1635718245000,
    "description": "Rescue Elevator",
    "address": "619 5th Ave W",
    "active": false,
    "unitCount": 1,
    "severity": 0,
    "lat": 47.624837,
    "long": -122.363238,
    "neighborhood": "Queen Anne",
    "neighborhoodGroup": "Magnolia/Queen Anne",
    "units": "L6"
  },
  {
    "id_str": "F210120689",
    "created_at": "10/31/2021 3:07:30 PM",
    "timestamp": 1635718050000,
    "description": "Low Acuity Response",
    "address": "2225 4th Ave",
    "active": false,
    "unitCount": 1,
    "severity": 0,
    "lat": 47.614788,
    "long": -122.342952,
    "neighborhood": "Cascade/Eastlake",
    "neighborhoodGroup": "Lake Union",
    "units": "E2"
  },
  {
    "id_str": "F210120688",
    "created_at": "10/31/2021 3:06:36 PM",
    "timestamp": 1635717996000,
    "description": "Low Acuity Response",
    "address": "1431 Minor Ave",
    "active": false,
    "unitCount": 2,
    "severity": 0,
    "lat": 47.613247,
    "long": -122.327187,
    "neighborhood": "Capitol Hill",
    "neighborhoodGroup": "East",
    "units": "E25 L10"
  },
  {
    "id_str": "F210120687",
    "created_at": "10/31/2021 2:58:14 PM",
    "timestamp": 1635717494000,
    "description": "Aid Response",
    "address": "12044 25th Ave Ne",
    "active": false,
    "unitCount": 1,
    "severity": 0,
    "lat": 47.715953,
    "long": -122.301809,
    "neighborhood": "Olympic Hills/Victory Heights",
    "neighborhoodGroup": "North",
    "units": "E39"
  },
  {
    "id_str": "F210120686",
    "created_at": "10/31/2021 2:56:06 PM",
    "timestamp": 1635717366000,
    "description": "Auto Fire Alarm",
    "address": "2061 15th Ave W",
    "active": false,
    "unitCount": 1,
    "severity": 0,
    "lat": 47.637661,
    "long": -122.376143,
    "neighborhood": "Interbay",
    "neighborhoodGroup": "Magnolia/Queen Anne",
    "units": "E20"
  },
  {
    "id_str": "F210120685",
    "created_at": "10/31/2021 2:52:14 PM",
    "timestamp": 1635717134000,
    "description": "Aid Response",
    "address": "5th Ave S / S Jackson St",
    "active": false,
    "unitCount": 1,
    "severity": 0,
    "lat": 47.599195,
    "long": -122.327667,
    "neighborhood": "Pioneer Square/International District",
    "neighborhoodGroup": "Downtown",
    "units": "E10"
  },
  {
    "id_str": "F210120684",
    "created_at": "10/31/2021 2:49:25 PM",
    "timestamp": 1635716965000,
    "description": "Medic Response",
    "address": "715 9th Ave",
    "active": false,
    "unitCount": 3,
    "severity": 0,
    "lat": 47.606371,
    "long": -122.325496,
    "neighborhood": "First Hill",
    "neighborhoodGroup": "East",
    "units": "A10 E10 M1"
  },
  {
    "id_str": "F210120682",
    "created_at": "10/31/2021 2:43:40 PM",
    "timestamp": 1635716620000,
    "description": "MVI - Motor Vehicle Incident",
    "address": "19th Ave E / E Thomas St",
    "active": false,
    "unitCount": 1,
    "severity": 0,
    "lat": 47.620487,
    "long": -122.30735,
    "neighborhood": "Miller Park",
    "neighborhoodGroup": "East",
    "units": "E25"
  },
  {
    "id_str": "F210120681",
    "created_at": "10/31/2021 2:42:17 PM",
    "timestamp": 1635716537000,
    "description": "Aid Response",
    "address": "1407 2nd Ave W",
    "active": false,
    "unitCount": 1,
    "severity": 0,
    "lat": 47.631378,
    "long": -122.359203,
    "neighborhood": "Queen Anne",
    "neighborhoodGroup": "Magnolia/Queen Anne",
    "units": "L6"
  },
  {
    "id_str": "F210120680",
    "created_at": "10/31/2021 2:39:22 PM",
    "timestamp": 1635716362000,
    "description": "Aid Response",
    "address": "3228 Sw Westbridge Pl",
    "active": false,
    "unitCount": 1,
    "severity": 0,
    "lat": 47.571782,
    "long": -122.373726,
    "neighborhood": "North Delridge",
    "neighborhoodGroup": "Delridge Neighborhoods",
    "units": "E36"
  },
  {
    "id_str": "F210120678",
    "created_at": "10/31/2021 2:28:05 PM",
    "timestamp": 1635715685000,
    "description": "Fast Back Up",
    "address": "1021 OCCIDENTAL AVE S",
    "active": false,
    "unitCount": 2,
    "severity": 0,
    "lat": 47.593861,
    "long": -122.333269,
    "neighborhood": "Duwamish/SODO",
    "neighborhoodGroup": "Greater Duwamish",
    "units": "B2 SAFT2"
  },
  {
    "id_str": "F210120677",
    "created_at": "10/31/2021 2:17:02 PM",
    "timestamp": 1635715022000,
    "description": "Aid Response",
    "address": "14th Ave S / S Jackson St",
    "active": false,
    "unitCount": 1,
    "severity": 0,
    "lat": 47.59921,
    "long": -122.314137,
    "neighborhood": "Judkins Park",
    "neighborhoodGroup": "Central",
    "units": "E6"
  },
  {
    "id_str": "F210120675",
    "created_at": "10/31/2021 2:10:48 PM",
    "timestamp": 1635714648000,
    "description": "Medic Response",
    "address": "3621 33rd Ave S",
    "active": false,
    "unitCount": 2,
    "severity": 0,
    "lat": 47.571408,
    "long": -122.291001,
    "neighborhood": "Columbia City",
    "neighborhoodGroup": "Southeast",
    "units": "E30 M28"
  },
  {
    "id_str": "F210120674",
    "created_at": "10/31/2021 2:08:56 PM",
    "timestamp": 1635714536000,
    "description": "Aid Response",
    "address": "202 6TH AVE S",
    "active": false,
    "unitCount": 1,
    "severity": 0,
    "lat": 47.600854,
    "long": -122.326354,
    "neighborhood": "Pioneer Square/International District",
    "neighborhoodGroup": "Downtown",
    "units": "E10"
  },
  {
    "id_str": "F210120673",
    "created_at": "10/31/2021 2:06:02 PM",
    "timestamp": 1635714362000,
    "description": "Aid Response",
    "address": "12509 GREENWOOD AVE N",
    "active": false,
    "unitCount": 1,
    "severity": 0,
    "lat": 47.719674,
    "long": -122.355539,
    "neighborhood": "Broadview/Bitter Lake",
    "neighborhoodGroup": "Northwest",
    "units": "E24"
  },
  {
    "id_str": "F210120672",
    "created_at": "10/31/2021 2:03:09 PM",
    "timestamp": 1635714189000,
    "description": "Medic Response",
    "address": "8616 45th Ave S",
    "active": false,
    "unitCount": 2,
    "severity": 0,
    "lat": 47.52597,
    "long": -122.275843,
    "neighborhood": "Rainier Beach",
    "neighborhoodGroup": "Southeast",
    "units": "E33 M28"
  },
  {
    "id_str": "F210120671",
    "created_at": "10/31/2021 2:00:29 PM",
    "timestamp": 1635714029000,
    "description": "Aid Response",
    "address": "1021 OCCIDENTAL AVE S",
    "active": false,
    "unitCount": 1,
    "severity": 0,
    "lat": 47.593861,
    "long": -122.333269,
    "neighborhood": "Duwamish/SODO",
    "neighborhoodGroup": "Greater Duwamish",
    "units": "A25"
  },
  {
    "id_str": "F210120670",
    "created_at": "10/31/2021 1:59:07 PM",
    "timestamp": 1635713947000,
    "description": "Aid Response",
    "address": "11501 15th Ave Ne",
    "active": false,
    "unitCount": 1,
    "severity": 0,
    "lat": 47.712167,
    "long": -122.312433,
    "neighborhood": "Olympic Hills/Victory Heights",
    "neighborhoodGroup": "North",
    "units": "E39"
  },
  {
    "id_str": "F210120669",
    "created_at": "10/31/2021 1:58:19 PM",
    "timestamp": 1635713899000,
    "description": "Aid Response",
    "address": "400 10th Ave",
    "active": false,
    "unitCount": 1,
    "severity": 0,
    "lat": 47.605202,
    "long": -122.319413,
    "neighborhood": "First Hill",
    "neighborhoodGroup": "East",
    "units": "A10"
  },
  {
    "id_str": "F210120667",
    "created_at": "10/31/2021 1:52:47 PM",
    "timestamp": 1635713567000,
    "description": "Aid Response",
    "address": "4628 S Holly St",
    "active": false,
    "unitCount": 1,
    "severity": 0,
    "lat": 47.542466,
    "long": -122.275011,
    "neighborhood": "Columbia City",
    "neighborhoodGroup": "Southeast",
    "units": "E28"
  },
  {
    "id_str": "F210120666",
    "created_at": "10/31/2021 1:45:30 PM",
    "timestamp": 1635713130000,
    "description": "Aid Response",
    "address": "315 Ward St",
    "active": false,
    "unitCount": 1,
    "severity": 0,
    "lat": 47.627963,
    "long": -122.351079,
    "neighborhood": "Queen Anne",
    "neighborhoodGroup": "Magnolia/Queen Anne",
    "units": "L6"
  },
  {
    "id_str": "F210120662",
    "created_at": "10/31/2021 1:42:56 PM",
    "timestamp": 1635712976000,
    "description": "Aid Response",
    "address": "8014 Lake City Way Ne",
    "active": false,
    "unitCount": 2,
    "severity": 0,
    "lat": 47.686913,
    "long": -122.313036,
    "neighborhood": "Ravenna/Bryant",
    "neighborhoodGroup": "Northeast",
    "units": "E22 E40"
  },
  {
    "id_str": "F210120663",
    "created_at": "10/31/2021 1:42:45 PM",
    "timestamp": 1635712965000,
    "description": "Encampment Aid",
    "address": "8th Ave Nw / Nw 43rd St",
    "active": false,
    "unitCount": 1,
    "severity": 0,
    "lat": 47.658939,
    "long": -122.366112,
    "neighborhood": "Ballard",
    "neighborhoodGroup": "Ballard",
    "units": "E18"
  },
  {
    "id_str": "F210120659",
    "created_at": "10/31/2021 1:32:16 PM",
    "timestamp": 1635712336000,
    "description": "Medic Response",
    "address": "3218 21st Ave W",
    "active": false,
    "unitCount": 2,
    "severity": 0,
    "lat": 47.648617,
    "long": -122.383359,
    "neighborhood": "Interbay",
    "neighborhoodGroup": "Magnolia/Queen Anne",
    "units": "E20 M17"
  },
  {
    "id_str": "F210120658",
    "created_at": "10/31/2021 1:27:06 PM",
    "timestamp": 1635712026000,
    "description": "Illegal Burn",
    "address": "WEST GREEN LAKE WAY N / EAST GREEN LAKE WAY N",
    "active": false,
    "unitCount": 1,
    "severity": 0,
    "lat": 47.669403,
    "long": -122.340017,
    "neighborhood": "Green Lake",
    "neighborhoodGroup": "Northwest",
    "units": "E16"
  },
  {
    "id_str": "F210120657",
    "created_at": "10/31/2021 1:24:46 PM",
    "timestamp": 1635711886000,
    "description": "Medic Response",
    "address": "2024 3rd Ave",
    "active": false,
    "unitCount": 2,
    "severity": 0,
    "lat": 47.612578,
    "long": -122.341197,
    "neighborhood": "Cascade/Eastlake",
    "neighborhoodGroup": "Lake Union",
    "units": "E2 M10"
  },
  {
    "id_str": "F210120656",
    "created_at": "10/31/2021 1:15:12 PM",
    "timestamp": 1635711312000,
    "description": "Low Acuity Response",
    "address": "317 Marion St",
    "active": false,
    "unitCount": 1,
    "severity": 0,
    "lat": 47.604991,
    "long": -122.333174,
    "neighborhood": "Downtown Commercial Core",
    "neighborhoodGroup": "Downtown",
    "units": "A10"
  },
  {
    "id_str": "F210120655",
    "created_at": "10/31/2021 12:43:45 PM",
    "timestamp": 1635709425000,
    "description": "Aid Response",
    "address": "1922 9th Ave",
    "active": false,
    "unitCount": 1,
    "severity": 0,
    "lat": 47.615781,
    "long": -122.334715,
    "neighborhood": "Cascade/Eastlake",
    "neighborhoodGroup": "Lake Union",
    "units": "E2"
  },
  {
    "id_str": "F210120651",
    "created_at": "10/31/2021 12:39:07 PM",
    "timestamp": 1635709147000,
    "description": "Investigate Out Of Service",
    "address": "4015 5th Ave Ne",
    "active": false,
    "unitCount": 1,
    "severity": 0,
    "lat": 47.655956,
    "long": -122.323501,
    "neighborhood": "Wallingford",
    "neighborhoodGroup": "Lake Union",
    "units": "E22"
  },
  {
    "id_str": "F210120650",
    "created_at": "10/31/2021 12:27:12 PM",
    "timestamp": 1635708432000,
    "description": "Medic Response",
    "address": "Terry Ave / Cherry St",
    "active": false,
    "unitCount": 3,
    "severity": 0,
    "lat": 47.606733,
    "long": -122.324294,
    "neighborhood": "First Hill",
    "neighborhoodGroup": "East",
    "units": "A10 E22 M1"
  },
  {
    "id_str": "F210120647",
    "created_at": "10/31/2021 12:07:30 PM",
    "timestamp": 1635707250000,
    "description": "Medic Response, 6 per Rule",
    "address": "504 5th Ave",
    "active": false,
    "unitCount": 4,
    "severity": 0,
    "lat": 47.603007,
    "long": -122.328555,
    "neighborhood": "First Hill",
    "neighborhoodGroup": "East",
    "units": "B2 E10 L1 M10"
  },
  {
    "id_str": "F210120646",
    "created_at": "10/31/2021 12:03:31 PM",
    "timestamp": 1635707011000,
    "description": "Aid Response",
    "address": "725 9th Ave",
    "active": false,
    "unitCount": 1,
    "severity": 0,
    "lat": 47.606444,
    "long": -122.325563,
    "neighborhood": "First Hill",
    "neighborhoodGroup": "East",
    "units": "A10"
  },
  {
    "id_str": "F210120645",
    "created_at": "10/31/2021 12:02:54 PM",
    "timestamp": 1635706974000,
    "description": "Aid Response",
    "address": "326 9th Ave",
    "active": false,
    "unitCount": 1,
    "severity": 0,
    "lat": 47.603593,
    "long": -122.322954,
    "neighborhood": "First Hill",
    "neighborhoodGroup": "East",
    "units": "E25"
  },
  {
    "id_str": "F210120643",
    "created_at": "10/31/2021 11:58:18 AM",
    "timestamp": 1635706698000,
    "description": "Rescue Elevator",
    "address": "1915 2nd Ave",
    "active": false,
    "unitCount": 1,
    "severity": 0,
    "lat": 47.611074,
    "long": -122.340638,
    "neighborhood": "Belltown",
    "neighborhoodGroup": "Downtown",
    "units": "L4"
  },
  {
    "id_str": "F210120641",
    "created_at": "10/31/2021 11:55:52 AM",
    "timestamp": 1635706552000,
    "description": "Aid Response",
    "address": "3041 43rd Ave W",
    "active": false,
    "unitCount": 1,
    "severity": 0,
    "lat": 47.647168,
    "long": -122.411953,
    "neighborhood": "Magnolia",
    "neighborhoodGroup": "Magnolia/Queen Anne",
    "units": "E41"
  },
  {
    "id_str": "F210120635",
    "created_at": "10/31/2021 11:46:23 AM",
    "timestamp": 1635705983000,
    "description": "Encampment Fire",
    "address": "SHILSHOLE AVE NW / NW 45TH ST",
    "active": false,
    "unitCount": 4,
    "severity": 0,
    "lat": 47.661533,
    "long": -122.376104,
    "neighborhood": "Ballard",
    "neighborhoodGroup": "Ballard",
    "units": "B4 E18 E20 L8"
  },
  {
    "id_str": "F210120634",
    "created_at": "10/31/2021 11:45:13 AM",
    "timestamp": 1635705913000,
    "description": "Brush Fire",
    "address": "4th Ave S / S Royal Brougham Way",
    "active": false,
    "unitCount": 1,
    "severity": 0,
    "lat": 47.592394,
    "long": -122.329049,
    "neighborhood": "Duwamish/SODO",
    "neighborhoodGroup": "Greater Duwamish",
    "units": "E10"
  },
  {
    "id_str": "F210120633",
    "created_at": "10/31/2021 11:43:32 AM",
    "timestamp": 1635705812000,
    "description": "Aid Response",
    "address": "4719 12th Ave Ne",
    "active": false,
    "unitCount": 1,
    "severity": 0,
    "lat": 47.663215,
    "long": -122.315262,
    "neighborhood": "University District",
    "neighborhoodGroup": "Northeast",
    "units": "E22"
  },
  {
    "id_str": "F210120632",
    "created_at": "10/31/2021 11:41:36 AM",
    "timestamp": 1635705696000,
    "description": "Medic Response",
    "address": "4225 11th Ave S",
    "active": false,
    "unitCount": 3,
    "severity": 0,
    "lat": 47.566323,
    "long": -122.318134,
    "neighborhood": "Duwamish/SODO",
    "neighborhoodGroup": "Greater Duwamish",
    "units": "E13 M10 M28"
  },
  {
    "id_str": "F210120631",
    "created_at": "10/31/2021 11:31:58 AM",
    "timestamp": 1635705118000,
    "description": "Medic Response",
    "address": "3700 E Superior St",
    "active": false,
    "unitCount": 2,
    "severity": 0,
    "lat": 47.602769,
    "long": -122.286545,
    "neighborhood": "Madrona/Leschi",
    "neighborhoodGroup": "Central",
    "units": "E6 M1"
  },
  {
    "id_str": "F210120628",
    "created_at": "10/31/2021 11:10:55 AM",
    "timestamp": 1635703855000,
    "description": "Aid Response Yellow",
    "address": "2204 California Ave Sw",
    "active": false,
    "unitCount": 1,
    "severity": 0,
    "lat": 47.58396,
    "long": -122.386425,
    "neighborhood": "Alki/Admiral",
    "neighborhoodGroup": "Southwest",
    "units": "E29"
  },
  {
    "id_str": "F210120625",
    "created_at": "10/31/2021 11:06:37 AM",
    "timestamp": 1635703597000,
    "description": "Aid Response",
    "address": "725 N 88th St",
    "active": false,
    "unitCount": 1,
    "severity": 0,
    "lat": 47.692752,
    "long": -122.349592,
    "neighborhood": "Licton Springs",
    "neighborhoodGroup": "Northwest",
    "units": "E31"
  },
  {
    "id_str": "F210120626",
    "created_at": "10/31/2021 11:06:15 AM",
    "timestamp": 1635703575000,
    "description": "Aid Response",
    "address": "711 E Union St",
    "active": false,
    "unitCount": 1,
    "severity": 0,
    "lat": 47.612987,
    "long": -122.322823,
    "neighborhood": "Capitol Hill",
    "neighborhoodGroup": "East",
    "units": "E25"
  },
  {
    "id_str": "F210120624",
    "created_at": "10/31/2021 10:53:53 AM",
    "timestamp": 1635702833000,
    "description": "Natural Gas Odor",
    "address": "1819 Ne 47th St",
    "active": false,
    "unitCount": 1,
    "severity": 0,
    "lat": 47.663057,
    "long": -122.308134,
    "neighborhood": "University District",
    "neighborhoodGroup": "Northeast",
    "units": "L9"
  },
  {
    "id_str": "F210120623",
    "created_at": "10/31/2021 10:47:42 AM",
    "timestamp": 1635702462000,
    "description": "Aid Response",
    "address": "1455 Nw Leary Way",
    "active": false,
    "unitCount": 1,
    "severity": 0,
    "lat": 47.663663,
    "long": -122.374988,
    "neighborhood": "Ballard",
    "neighborhoodGroup": "Ballard",
    "units": "E18"
  },
  {
    "id_str": "F210120622",
    "created_at": "10/31/2021 10:45:04 AM",
    "timestamp": 1635702304000,
    "description": "Aid Response",
    "address": "7520 15th Ave Nw",
    "active": false,
    "unitCount": 1,
    "severity": 0,
    "lat": 47.683413,
    "long": -122.376781,
    "neighborhood": "Whittier Heights",
    "neighborhoodGroup": "Ballard",
    "units": "E35"
  },
  {
    "id_str": "F210120620",
    "created_at": "10/31/2021 10:37:46 AM",
    "timestamp": 1635701866000,
    "description": "Aid Response",
    "address": "212 Alaskan Way S",
    "active": false,
    "unitCount": 1,
    "severity": 0,
    "lat": 47.600591,
    "long": -122.335915,
    "neighborhood": "Pioneer Square/International District",
    "neighborhoodGroup": "Downtown",
    "units": "E5"
  },
  {
    "id_str": "F210120619",
    "created_at": "10/31/2021 10:35:50 AM",
    "timestamp": 1635701750000,
    "description": "Aid Response Yellow",
    "address": "8856 29th Ave Sw",
    "active": false,
    "unitCount": 1,
    "severity": 0,
    "lat": 47.524157,
    "long": -122.36992,
    "neighborhood": "Roxhill/Westwood",
    "neighborhoodGroup": "Delridge Neighborhoods",
    "units": "L13"
  },
  {
    "id_str": "F210120618",
    "created_at": "10/31/2021 10:32:48 AM",
    "timestamp": 1635701568000,
    "description": "Encampment Fire",
    "address": "700 QUEEN ANNE AVE N",
    "active": false,
    "unitCount": 1,
    "severity": 0,
    "lat": 47.625454,
    "long": -122.356703,
    "neighborhood": "Queen Anne",
    "neighborhoodGroup": "Magnolia/Queen Anne",
    "units": "E2"
  },
  {
    "id_str": "F210120611",
    "created_at": "10/31/2021 10:07:45 AM",
    "timestamp": 1635700065000,
    "description": "Aid Response",
    "address": "7916 16th Ave Sw",
    "active": false,
    "unitCount": 1,
    "severity": 0,
    "lat": 47.531723,
    "long": -122.355046,
    "neighborhood": "Roxhill/Westwood",
    "neighborhoodGroup": "Delridge Neighborhoods",
    "units": "E37"
  },
  {
    "id_str": "F210120610",
    "created_at": "10/31/2021 10:05:23 AM",
    "timestamp": 1635699923000,
    "description": "Aid Response",
    "address": "9516 Evanston Ave N",
    "active": false,
    "unitCount": 1,
    "severity": 0,
    "lat": 47.697964,
    "long": -122.351257,
    "neighborhood": "Greenwood/Phinney Ridge",
    "neighborhoodGroup": "Northwest",
    "units": "E31"
  },
  {
    "id_str": "F210120608",
    "created_at": "10/31/2021 9:45:17 AM",
    "timestamp": 1635698717000,
    "description": "Aid Response",
    "address": "2132 Boyer Ave E",
    "active": false,
    "unitCount": 1,
    "severity": 0,
    "lat": 47.638567,
    "long": -122.308651,
    "neighborhood": "Montlake/Portage Bay",
    "neighborhoodGroup": "Northeast",
    "units": "E34"
  },
  {
    "id_str": "F210120607",
    "created_at": "10/31/2021 9:44:31 AM",
    "timestamp": 1635698671000,
    "description": "Medic Response",
    "address": "6011 24th Ave S",
    "active": false,
    "unitCount": 3,
    "severity": 0,
    "lat": 47.548325,
    "long": -122.302274,
    "neighborhood": "Beacon Hill",
    "neighborhoodGroup": "Greater Duwamish",
    "units": "E28 M26 M28"
  },
  {
    "id_str": "F210120606",
    "created_at": "10/31/2021 9:30:21 AM",
    "timestamp": 1635697821000,
    "description": "Aid Response",
    "address": "Terry Ave / Seneca St",
    "active": false,
    "unitCount": 1,
    "severity": 0,
    "lat": 47.610301,
    "long": -122.327555,
    "neighborhood": "First Hill",
    "neighborhoodGroup": "East",
    "units": "E25"
  },
  {
    "id_str": "F210120604",
    "created_at": "10/31/2021 9:28:20 AM",
    "timestamp": 1635697700000,
    "description": "Medic Response, 6 per Rule",
    "address": "1st Ave Nw / Nw 85th St",
    "active": false,
    "unitCount": 3,
    "severity": 0,
    "lat": 47.69061,
    "long": -122.357982,
    "neighborhood": "Greenwood/Phinney Ridge",
    "neighborhoodGroup": "Northwest",
    "units": "E31 E35 M31"
  },
  {
    "id_str": "F210120603",
    "created_at": "10/31/2021 9:24:01 AM",
    "timestamp": 1635697441000,
    "description": "Rescue Elevator",
    "address": "515 Madison St",
    "active": false,
    "unitCount": 1,
    "severity": 0,
    "lat": 47.606624,
    "long": -122.331628,
    "neighborhood": "First Hill",
    "neighborhoodGroup": "East",
    "units": "L1"
  },
  {
    "id_str": "F210120601",
    "created_at": "10/31/2021 9:18:35 AM",
    "timestamp": 1635697115000,
    "description": "Auto Fire Alarm",
    "address": "925 Seneca St",
    "active": false,
    "unitCount": 2,
    "severity": 0,
    "lat": 47.609955,
    "long": -122.328383,
    "neighborhood": "First Hill",
    "neighborhoodGroup": "East",
    "units": "E25 L10"
  },
  {
    "id_str": "F210120598",
    "created_at": "10/31/2021 9:06:33 AM",
    "timestamp": 1635696393000,
    "description": "Low Acuity Response",
    "address": "3619 Gilman Ave W",
    "active": false,
    "unitCount": 1,
    "severity": 0,
    "lat": 47.65232,
    "long": -122.383357,
    "neighborhood": "Interbay",
    "neighborhoodGroup": "Magnolia/Queen Anne",
    "units": "E20"
  },
  {
    "id_str": "F210120593",
    "created_at": "10/31/2021 8:51:36 AM",
    "timestamp": 1635695496000,
    "description": "Aid Response",
    "address": "2nd Ave / Pike St",
    "active": false,
    "unitCount": 1,
    "severity": 0,
    "lat": 47.609285,
    "long": -122.338904,
    "neighborhood": "Downtown Commercial Core",
    "neighborhoodGroup": "Downtown",
    "units": "E2"
  },
  {
    "id_str": "F210120592",
    "created_at": "10/31/2021 8:51:35 AM",
    "timestamp": 1635695495000,
    "description": "Medic Response",
    "address": "6543 32nd Ave Sw",
    "active": false,
    "unitCount": 2,
    "severity": 0,
    "lat": 47.544274,
    "long": -122.373765,
    "neighborhood": "High Point",
    "neighborhoodGroup": "Delridge Neighborhoods",
    "units": "E37 M32"
  },
  {
    "id_str": "F210120589",
    "created_at": "10/31/2021 8:32:59 AM",
    "timestamp": 1635694379000,
    "description": "Aid Response",
    "address": "7740 Ridge Dr Ne",
    "active": false,
    "unitCount": 2,
    "severity": 0,
    "lat": 47.684496,
    "long": -122.275258,
    "neighborhood": "Wedgwood/View Ridge",
    "neighborhoodGroup": "Northeast",
    "units": "E11 E16"
  },
  {
    "id_str": "F210120587",
    "created_at": "10/31/2021 8:18:30 AM",
    "timestamp": 1635693510000,
    "description": "Aid Response Yellow",
    "address": "2600 2nd Ave",
    "active": false,
    "unitCount": 1,
    "severity": 0,
    "lat": 47.615914,
    "long": -122.348823,
    "neighborhood": "Belltown",
    "neighborhoodGroup": "Downtown",
    "units": "E2"
  },
  {
    "id_str": "F210120585",
    "created_at": "10/31/2021 8:10:23 AM",
    "timestamp": 1635693023000,
    "description": "Aid Response",
    "address": "6038 44th Ave Ne",
    "active": false,
    "unitCount": 1,
    "severity": 0,
    "lat": 47.672488,
    "long": -122.28084,
    "neighborhood": "Ravenna/Bryant",
    "neighborhoodGroup": "Northeast",
    "units": "E40"
  },
  {
    "id_str": "F210120583",
    "created_at": "10/31/2021 8:02:54 AM",
    "timestamp": 1635692574000,
    "description": "Investigate Out Of Service",
    "address": "1011 Pike St",
    "active": false,
    "unitCount": 1,
    "severity": 0,
    "lat": 47.613053,
    "long": -122.3299,
    "neighborhood": "First Hill",
    "neighborhoodGroup": "East",
    "units": "L10"
  },
  {
    "id_str": "F210120582",
    "created_at": "10/31/2021 7:58:56 AM",
    "timestamp": 1635692336000,
    "description": "Aid Response",
    "address": "6905 58th Ave Ne",
    "active": false,
    "unitCount": 1,
    "severity": 0,
    "lat": 47.67868,
    "long": -122.265882,
    "neighborhood": "Laurelhurst/Sand Point",
    "neighborhoodGroup": "Northeast",
    "units": "E38"
  },
  {
    "id_str": "F210120581",
    "created_at": "10/31/2021 7:54:59 AM",
    "timestamp": 1635692099000,
    "description": "Aid Response",
    "address": "1507 Nw 61st St",
    "active": false,
    "unitCount": 1,
    "severity": 0,
    "lat": 47.673089,
    "long": -122.376292,
    "neighborhood": "Whittier Heights",
    "neighborhoodGroup": "Ballard",
    "units": "E18"
  },
  {
    "id_str": "F210120580",
    "created_at": "10/31/2021 7:53:17 AM",
    "timestamp": 1635691997000,
    "description": "Low Acuity Response",
    "address": "2500 E Union St",
    "active": false,
    "unitCount": 1,
    "severity": 0,
    "lat": 47.612937,
    "long": -122.300111,
    "neighborhood": "Central Area/Squire Park",
    "neighborhoodGroup": "Central",
    "units": "E25"
  },
  {
    "id_str": "F210120579",
    "created_at": "10/31/2021 7:50:19 AM",
    "timestamp": 1635691819000,
    "description": "Rubbish Fire",
    "address": "603 Stewart St",
    "active": false,
    "unitCount": 1,
    "severity": 0,
    "lat": 47.613642,
    "long": -122.336989,
    "neighborhood": "Cascade/Eastlake",
    "neighborhoodGroup": "Lake Union",
    "units": "E2"
  },
  {
    "id_str": "F210120576",
    "created_at": "10/31/2021 7:33:01 AM",
    "timestamp": 1635690781000,
    "description": "Aid Response",
    "address": "5311 Phinney Ave N",
    "active": false,
    "unitCount": 1,
    "severity": 0,
    "lat": 47.667143,
    "long": -122.35442,
    "neighborhood": "Greenwood/Phinney Ridge",
    "neighborhoodGroup": "Northwest",
    "units": "E21"
  },
  {
    "id_str": "F210120575",
    "created_at": "10/31/2021 7:20:49 AM",
    "timestamp": 1635690049000,
    "description": "Auto Fire Alarm",
    "address": "220 11th Ave",
    "active": false,
    "unitCount": 1,
    "severity": 0,
    "lat": 47.60368,
    "long": -122.318103,
    "neighborhood": "First Hill",
    "neighborhoodGroup": "East",
    "units": "E25"
  },
  {
    "id_str": "F210120573",
    "created_at": "10/31/2021 6:59:06 AM",
    "timestamp": 1635688746000,
    "description": "Auto Fire Alarm",
    "address": "800 Jefferson St",
    "active": false,
    "unitCount": 2,
    "severity": 0,
    "lat": 47.604377,
    "long": -122.325207,
    "neighborhood": "First Hill",
    "neighborhoodGroup": "East",
    "units": "E10 L1"
  },
  {
    "id_str": "F210120572",
    "created_at": "10/31/2021 6:58:40 AM",
    "timestamp": 1635688720000,
    "description": "Aid Response",
    "address": "500 5th Ave",
    "active": false,
    "unitCount": 1,
    "severity": 0,
    "lat": 47.602985,
    "long": -122.328535,
    "neighborhood": "First Hill",
    "neighborhoodGroup": "East",
    "units": "A10"
  },
  {
    "id_str": "F210120571",
    "created_at": "10/31/2021 6:58:28 AM",
    "timestamp": 1635688708000,
    "description": "Medic Response",
    "address": "1603 E Union St",
    "active": false,
    "unitCount": 3,
    "severity": 0,
    "lat": 47.612908,
    "long": -122.311434,
    "neighborhood": "Central Area/Squire Park",
    "neighborhoodGroup": "Central",
    "units": "A25 M1 M10"
  },
  {
    "id_str": "F210120570",
    "created_at": "10/31/2021 6:49:39 AM",
    "timestamp": 1635688179000,
    "description": "Aid Response",
    "address": "12221 8th Ave Nw",
    "active": false,
    "unitCount": 1,
    "severity": 0,
    "lat": 47.717971,
    "long": -122.366341,
    "neighborhood": "Broadview/Bitter Lake",
    "neighborhoodGroup": "Northwest",
    "units": "E24"
  },
  {
    "id_str": "F210120569",
    "created_at": "10/31/2021 6:39:35 AM",
    "timestamp": 1635687575000,
    "description": "Aid Response",
    "address": "1519 12th Ave",
    "active": false,
    "unitCount": 1,
    "severity": 0,
    "lat": 47.614317,
    "long": -122.316839,
    "neighborhood": "Capitol Hill",
    "neighborhoodGroup": "East",
    "units": "A25"
  },
  {
    "id_str": "F210120565",
    "created_at": "10/31/2021 6:08:04 AM",
    "timestamp": 1635685684000,
    "description": "Aid Response",
    "address": "1315 Ne Campus Pkwy",
    "active": false,
    "unitCount": 1,
    "severity": 0,
    "lat": 47.655998,
    "long": -122.31426,
    "neighborhood": "University District",
    "neighborhoodGroup": "Northeast",
    "units": "E17"
  },
  {
    "id_str": "F210120564",
    "created_at": "10/31/2021 6:07:10 AM",
    "timestamp": 1635685630000,
    "description": "Low Acuity Response",
    "address": "2555 10th Ave W",
    "active": false,
    "unitCount": 1,
    "severity": 0,
    "lat": 47.642085,
    "long": -122.370062,
    "neighborhood": "Queen Anne",
    "neighborhoodGroup": "Magnolia/Queen Anne",
    "units": "E20"
  },
  {
    "id_str": "F210120562",
    "created_at": "10/31/2021 6:04:29 AM",
    "timestamp": 1635685469000,
    "description": "Aid Response",
    "address": "710 Cherry St",
    "active": false,
    "unitCount": 1,
    "severity": 0,
    "lat": 47.605387,
    "long": -122.327511,
    "neighborhood": "First Hill",
    "neighborhoodGroup": "East",
    "units": "A10"
  },
  {
    "id_str": "F210120563",
    "created_at": "10/31/2021 6:03:11 AM",
    "timestamp": 1635685391000,
    "description": "MVI - Motor Vehicle Incident",
    "address": "Nb I5 At Mercer",
    "active": false,
    "unitCount": 3,
    "severity": 0,
    "lat": 47.620184,
    "long": -122.328213,
    "neighborhood": "Cascade/Eastlake",
    "neighborhoodGroup": "Lake Union",
    "units": "A25 E10 E2"
  },
  {
    "id_str": "F210120561",
    "created_at": "10/31/2021 5:48:20 AM",
    "timestamp": 1635684500000,
    "description": "Aid Response",
    "address": "6656 Corson Ave S",
    "active": false,
    "unitCount": 1,
    "severity": 0,
    "lat": 47.543889,
    "long": -122.322604,
    "neighborhood": "Georgetown",
    "neighborhoodGroup": "Greater Duwamish",
    "units": "E27"
  },
  {
    "id_str": "F210120560",
    "created_at": "10/31/2021 5:47:18 AM",
    "timestamp": 1635684438000,
    "description": "Auto Fire Alarm",
    "address": "6420 California Ave Sw",
    "active": false,
    "unitCount": 1,
    "severity": 0,
    "lat": 47.545436,
    "long": -122.387209,
    "neighborhood": "Fauntleroy/Seaview",
    "neighborhoodGroup": "Southwest",
    "units": "E32"
  },
  {
    "id_str": "F210120558",
    "created_at": "10/31/2021 5:44:22 AM",
    "timestamp": 1635684262000,
    "description": "MVI - Motor Vehicle Incident",
    "address": "320 Melrose Ave E",
    "active": false,
    "unitCount": 1,
    "severity": 0,
    "lat": 47.62105,
    "long": -122.327862,
    "neighborhood": "Capitol Hill",
    "neighborhoodGroup": "East",
    "units": "E25"
  },
  {
    "id_str": "F210120555",
    "created_at": "10/31/2021 5:29:27 AM",
    "timestamp": 1635683367000,
    "description": "Medic Response",
    "address": "500 5th Ave",
    "active": false,
    "unitCount": 2,
    "severity": 0,
    "lat": 47.602985,
    "long": -122.328535,
    "neighborhood": "First Hill",
    "neighborhoodGroup": "East",
    "units": "A10 M1"
  },
  {
    "id_str": "F210120554",
    "created_at": "10/31/2021 5:21:51 AM",
    "timestamp": 1635682911000,
    "description": "Aid Response",
    "address": "2340 N 130th St",
    "active": false,
    "unitCount": 1,
    "severity": 0,
    "lat": 47.723176,
    "long": -122.330167,
    "neighborhood": "Haller Lake",
    "neighborhoodGroup": "Northwest",
    "units": "E31"
  },
  {
    "id_str": "F210120553",
    "created_at": "10/31/2021 5:19:21 AM",
    "timestamp": 1635682761000,
    "description": "Aid Response",
    "address": "Dexter Ave N / 4th Ave N",
    "active": false,
    "unitCount": 1,
    "severity": 0,
    "lat": 47.64571,
    "long": -122.349488,
    "neighborhood": "Queen Anne",
    "neighborhoodGroup": "Magnolia/Queen Anne",
    "units": "E9"
  },
  {
    "id_str": "F210120552",
    "created_at": "10/31/2021 5:10:16 AM",
    "timestamp": 1635682216000,
    "description": "Aid Response",
    "address": "2401 S Jackson St",
    "active": false,
    "unitCount": 2,
    "severity": 0,
    "lat": 47.599288,
    "long": -122.301125,
    "neighborhood": "Madrona/Leschi",
    "neighborhoodGroup": "Central",
    "units": "E6 M10"
  },
  {
    "id_str": "F210120551",
    "created_at": "10/31/2021 5:08:37 AM",
    "timestamp": 1635682117000,
    "description": "Aid Response",
    "address": "1620 43rd Ave E",
    "active": false,
    "unitCount": 1,
    "severity": 0,
    "lat": 47.633463,
    "long": -122.277157,
    "neighborhood": "Madison Park",
    "neighborhoodGroup": "East",
    "units": "E34"
  },
  {
    "id_str": "F210120549",
    "created_at": "10/31/2021 5:07:28 AM",
    "timestamp": 1635682048000,
    "description": "Low Acuity Response",
    "address": "12238 9th Ave Nw",
    "active": false,
    "unitCount": 1,
    "severity": 0,
    "lat": 47.71808,
    "long": -122.36768,
    "neighborhood": "Broadview/Bitter Lake",
    "neighborhoodGroup": "Northwest",
    "units": "E24"
  },
  {
    "id_str": "F210120550",
    "created_at": "10/31/2021 5:06:49 AM",
    "timestamp": 1635682009000,
    "description": "Aid Response",
    "address": "Yale Ave / Stewart St",
    "active": false,
    "unitCount": 1,
    "severity": 0,
    "lat": 47.618274,
    "long": -122.330999,
    "neighborhood": "Cascade/Eastlake",
    "neighborhoodGroup": "Lake Union",
    "units": "A25"
  },
  {
    "id_str": "F210120548",
    "created_at": "10/31/2021 4:40:10 AM",
    "timestamp": 1635680410000,
    "description": "Aid Response",
    "address": "15 W Boston St",
    "active": false,
    "unitCount": 1,
    "severity": 0,
    "lat": 47.638383,
    "long": -122.357118,
    "neighborhood": "Queen Anne",
    "neighborhoodGroup": "Magnolia/Queen Anne",
    "units": "E8"
  },
  {
    "id_str": "F210120546",
    "created_at": "10/31/2021 4:29:29 AM",
    "timestamp": 1635679769000,
    "description": "Aid Response",
    "address": "5501 Airport Way S",
    "active": false,
    "unitCount": 1,
    "severity": 0,
    "lat": 47.553338,
    "long": -122.320991,
    "neighborhood": "Beacon Hill",
    "neighborhoodGroup": "Greater Duwamish",
    "units": "E27"
  },
  {
    "id_str": "F210120545",
    "created_at": "10/31/2021 4:28:33 AM",
    "timestamp": 1635679713000,
    "description": "Auto Fire Alarm",
    "address": "934 N 98th St",
    "active": false,
    "unitCount": 2,
    "severity": 0,
    "lat": 47.700531,
    "long": -122.346871,
    "neighborhood": "Licton Springs",
    "neighborhoodGroup": "Northwest",
    "units": "E31 L5"
  },
  {
    "id_str": "F210120544",
    "created_at": "10/31/2021 4:11:36 AM",
    "timestamp": 1635678696000,
    "description": "Aid Response",
    "address": "601 Pine St",
    "active": false,
    "unitCount": 1,
    "severity": 0,
    "lat": 47.612141,
    "long": -122.335362,
    "neighborhood": "First Hill",
    "neighborhoodGroup": "East",
    "units": "A25"
  },
  {
    "id_str": "F210120543",
    "created_at": "10/31/2021 3:54:48 AM",
    "timestamp": 1635677688000,
    "description": "Aid Response",
    "address": "803 Sw Henderson St",
    "active": false,
    "unitCount": 1,
    "severity": 0,
    "lat": 47.5228,
    "long": -122.345479,
    "neighborhood": "Highland Park",
    "neighborhoodGroup": "Delridge Neighborhoods",
    "units": "E11"
  },
  {
    "id_str": "F210120542",
    "created_at": "10/31/2021 3:37:51 AM",
    "timestamp": 1635676671000,
    "description": "AFA4 - Auto Alarm 2 + 1 + 1",
    "address": "3801 Latona Ave Ne",
    "active": false,
    "unitCount": 2,
    "severity": 0,
    "lat": 47.653778,
    "long": -122.325718,
    "neighborhood": "Wallingford",
    "neighborhoodGroup": "Lake Union",
    "units": "E17 L9"
  },
  {
    "id_str": "F210120541",
    "created_at": "10/31/2021 3:18:47 AM",
    "timestamp": 1635675527000,
    "description": "Aid Response",
    "address": "1500 Broadway",
    "active": false,
    "unitCount": 1,
    "severity": 0,
    "lat": 47.614076,
    "long": -122.32078,
    "neighborhood": "Capitol Hill",
    "neighborhoodGroup": "East",
    "units": "A25"
  },
  {
    "id_str": "F210120539",
    "created_at": "10/31/2021 3:11:54 AM",
    "timestamp": 1635675114000,
    "description": "Aid Response",
    "address": "9431 49th Ave S",
    "active": false,
    "unitCount": 1,
    "severity": 0,
    "lat": 47.517776,
    "long": -122.272133,
    "neighborhood": "South Beacon Hill/NewHolly",
    "neighborhoodGroup": "Greater Duwamish",
    "units": "E33"
  },
  {
    "id_str": "F210120540",
    "created_at": "10/31/2021 3:10:48 AM",
    "timestamp": 1635675048000,
    "description": "Automatic Fire Alarm False",
    "address": "3501 Rainier Ave S",
    "active": false,
    "unitCount": 1,
    "severity": 0,
    "lat": 47.571853,
    "long": -122.293193,
    "neighborhood": "Columbia City",
    "neighborhoodGroup": "Southeast",
    "units": "E30"
  },
  {
    "id_str": "F210120537",
    "created_at": "10/31/2021 3:02:39 AM",
    "timestamp": 1635674559000,
    "description": "Aid Response",
    "address": "6105 Roosevelt Way Ne",
    "active": false,
    "unitCount": 1,
    "severity": 0,
    "lat": 47.672761,
    "long": -122.317364,
    "neighborhood": "University District",
    "neighborhoodGroup": "Northeast",
    "units": "E16"
  },
  {
    "id_str": "F210120536",
    "created_at": "10/31/2021 3:00:47 AM",
    "timestamp": 1635674447000,
    "description": "Auto Fire Alarm",
    "address": "3801 Ne 77th St",
    "active": false,
    "unitCount": 1,
    "severity": 0,
    "lat": 47.684854,
    "long": -122.287361,
    "neighborhood": "Wedgwood/View Ridge",
    "neighborhoodGroup": "Northeast",
    "units": "E40"
  },
  {
    "id_str": "F210120535",
    "created_at": "10/31/2021 2:48:28 AM",
    "timestamp": 1635673708000,
    "description": "Aid Response",
    "address": "Broadway / E Pine St",
    "active": false,
    "unitCount": 1,
    "severity": 0,
    "lat": 47.615235,
    "long": -122.320799,
    "neighborhood": "Capitol Hill",
    "neighborhoodGroup": "East",
    "units": "L10"
  },
  {
    "id_str": "F210120534",
    "created_at": "10/31/2021 2:42:51 AM",
    "timestamp": 1635673371000,
    "description": "Aid Response",
    "address": "1503 18th Ave",
    "active": false,
    "unitCount": 1,
    "severity": 0,
    "lat": 47.614127,
    "long": -122.308854,
    "neighborhood": "Central Area/Squire Park",
    "neighborhoodGroup": "Central",
    "units": "E25"
  },
  {
    "id_str": "F210120533",
    "created_at": "10/31/2021 2:41:42 AM",
    "timestamp": 1635673302000,
    "description": "Rubbish Fire",
    "address": "1902 2nd Ave",
    "active": false,
    "unitCount": 1,
    "severity": 0,
    "lat": 47.610972,
    "long": -122.340465,
    "neighborhood": "Belltown",
    "neighborhoodGroup": "Downtown",
    "units": "E2"
  },
  {
    "id_str": "F210120532",
    "created_at": "10/31/2021 2:34:20 AM",
    "timestamp": 1635672860000,
    "description": "Automatic Fire Alarm False",
    "address": "3501 Rainier Ave S",
    "active": false,
    "unitCount": 1,
    "severity": 0,
    "lat": 47.571853,
    "long": -122.293193,
    "neighborhood": "Columbia City",
    "neighborhoodGroup": "Southeast",
    "units": "E30"
  },
  {
    "id_str": "F210120531",
    "created_at": "10/31/2021 2:32:04 AM",
    "timestamp": 1635672724000,
    "description": "Aid Response",
    "address": "4755 Fauntleroy Way Sw",
    "active": false,
    "unitCount": 1,
    "severity": 0,
    "lat": 47.560074,
    "long": -122.381457,
    "neighborhood": "West Seattle Junction/Genesee Hill",
    "neighborhoodGroup": "Southwest",
    "units": "E32"
  },
  {
    "id_str": "F210120530",
    "created_at": "10/31/2021 2:24:32 AM",
    "timestamp": 1635672272000,
    "description": "Aid Response",
    "address": "2nd Ave S / S Washington St",
    "active": false,
    "unitCount": 1,
    "severity": 0,
    "lat": 47.600879,
    "long": -122.331572,
    "neighborhood": "Pioneer Square/International District",
    "neighborhoodGroup": "Downtown",
    "units": "A25"
  },
  {
    "id_str": "F210120528",
    "created_at": "10/31/2021 2:21:51 AM",
    "timestamp": 1635672111000,
    "description": "Aid Response",
    "address": "900 S Jackson St",
    "active": false,
    "unitCount": 1,
    "severity": 0,
    "lat": 47.599191,
    "long": -122.321025,
    "neighborhood": "Pioneer Square/International District",
    "neighborhoodGroup": "Downtown",
    "units": "E10"
  },
  {
    "id_str": "F210120527",
    "created_at": "10/31/2021 2:18:24 AM",
    "timestamp": 1635671904000,
    "description": "Aid Response",
    "address": "1035 Ne Campus Pkwy",
    "active": false,
    "unitCount": 1,
    "severity": 0,
    "lat": 47.65602,
    "long": -122.317458,
    "neighborhood": "University District",
    "neighborhoodGroup": "Northeast",
    "units": "E17"
  },
  {
    "id_str": "F210120526",
    "created_at": "10/31/2021 2:16:14 AM",
    "timestamp": 1635671774000,
    "description": "Auto Fire Alarm",
    "address": "3801 Ne 77th St",
    "active": false,
    "unitCount": 1,
    "severity": 0,
    "lat": 47.684854,
    "long": -122.287361,
    "neighborhood": "Wedgwood/View Ridge",
    "neighborhoodGroup": "Northeast",
    "units": "E40"
  },
  {
    "id_str": "F210120523",
    "created_at": "10/31/2021 2:14:15 AM",
    "timestamp": 1635671655000,
    "description": "Investigate Out Of Service",
    "address": "1400 6th Ave",
    "active": false,
    "unitCount": 1,
    "severity": 0,
    "lat": 47.61015,
    "long": -122.333556,
    "neighborhood": "First Hill",
    "neighborhoodGroup": "East",
    "units": "L1"
  },
  {
    "id_str": "F210120524",
    "created_at": "10/31/2021 2:13:23 AM",
    "timestamp": 1635671603000,
    "description": "MVI - Motor Vehicle Incident",
    "address": "2nd Ave / Blanchard St",
    "active": false,
    "unitCount": 1,
    "severity": 0,
    "lat": 47.613271,
    "long": -122.344353,
    "neighborhood": "Belltown",
    "neighborhoodGroup": "Downtown",
    "units": "E5"
  },
  {
    "id_str": "F210120521",
    "created_at": "10/31/2021 2:06:34 AM",
    "timestamp": 1635671194000,
    "description": "Aid Response",
    "address": "110 6th Ave N",
    "active": false,
    "unitCount": 1,
    "severity": 0,
    "lat": 47.618668,
    "long": -122.345006,
    "neighborhood": "Cascade/Eastlake",
    "neighborhoodGroup": "Lake Union",
    "units": "L4"
  },
  {
    "id_str": "F210120520",
    "created_at": "10/31/2021 2:06:05 AM",
    "timestamp": 1635671165000,
    "description": "Aid Response",
    "address": "Blanchard St / 1st Ave",
    "active": false,
    "unitCount": 1,
    "severity": 0,
    "lat": 47.612606,
    "long": -122.345213,
    "neighborhood": "Belltown",
    "neighborhoodGroup": "Downtown",
    "units": "E2"
  },
  {
    "id_str": "F210120519",
    "created_at": "10/31/2021 2:04:19 AM",
    "timestamp": 1635671059000,
    "description": "Aid Response",
    "address": "Ne 50th St / 11th Ave Ne",
    "active": false,
    "unitCount": 1,
    "severity": 0,
    "lat": 47.664928,
    "long": -122.316335,
    "neighborhood": "University District",
    "neighborhoodGroup": "Northeast",
    "units": "L9"
  },
  {
    "id_str": "F210120517",
    "created_at": "10/31/2021 2:02:32 AM",
    "timestamp": 1635670952000,
    "description": "Aid Response Yellow",
    "address": "204 3rd Ave S",
    "active": false,
    "unitCount": 1,
    "severity": 0,
    "lat": 47.600843,
    "long": -122.330271,
    "neighborhood": "Pioneer Square/International District",
    "neighborhoodGroup": "Downtown",
    "units": "A10"
  },
  {
    "id_str": "F210120515",
    "created_at": "10/31/2021 1:59:24 AM",
    "timestamp": 1635670764000,
    "description": "Aid Response",
    "address": "1501 17th Ave",
    "active": false,
    "unitCount": 1,
    "severity": 0,
    "lat": 47.614106,
    "long": -122.310161,
    "neighborhood": "Central Area/Squire Park",
    "neighborhoodGroup": "Central",
    "units": "E25"
  },
  {
    "id_str": "F210120516",
    "created_at": "10/31/2021 1:59:03 AM",
    "timestamp": 1635670743000,
    "description": "Alarm Bell",
    "address": "114 James St",
    "active": false,
    "unitCount": 1,
    "severity": 0,
    "lat": 47.601806,
    "long": -122.333703,
    "neighborhood": "Downtown Commercial Core",
    "neighborhoodGroup": "Downtown",
    "units": "E10"
  },
  {
    "id_str": "F210120514",
    "created_at": "10/31/2021 1:47:46 AM",
    "timestamp": 1635670066000,
    "description": "Aid Response",
    "address": "912 12th Ave",
    "active": false,
    "unitCount": 1,
    "severity": 0,
    "lat": 47.61046,
    "long": -122.316779,
    "neighborhood": "First Hill",
    "neighborhoodGroup": "East",
    "units": "A25"
  },
  {
    "id_str": "F210120512",
    "created_at": "10/31/2021 1:45:11 AM",
    "timestamp": 1635669911000,
    "description": "Aid Response",
    "address": "205 Roy St",
    "active": false,
    "unitCount": 1,
    "severity": 0,
    "lat": 47.625443,
    "long": -122.352718,
    "neighborhood": "Queen Anne",
    "neighborhoodGroup": "Magnolia/Queen Anne",
    "units": "E8"
  },
  {
    "id_str": "F210120511",
    "created_at": "10/31/2021 1:43:10 AM",
    "timestamp": 1635669790000,
    "description": "Aid Response",
    "address": "607 3rd Ave",
    "active": false,
    "unitCount": 1,
    "severity": 0,
    "lat": 47.602813,
    "long": -122.331449,
    "neighborhood": "Downtown Commercial Core",
    "neighborhoodGroup": "Downtown",
    "units": "L1"
  },
  {
    "id_str": "F210120510",
    "created_at": "10/31/2021 1:42:31 AM",
    "timestamp": 1635669751000,
    "description": "Rubbish Fire",
    "address": "6th Ave S / S Dearborn St",
    "active": false,
    "unitCount": 1,
    "severity": 0,
    "lat": 47.595837,
    "long": -122.326374,
    "neighborhood": "Pioneer Square/International District",
    "neighborhoodGroup": "Downtown",
    "units": "E10"
  },
  {
    "id_str": "F210120509",
    "created_at": "10/31/2021 1:41:26 AM",
    "timestamp": 1635669686000,
    "description": "Aid Response",
    "address": "4520 7th Ave Ne",
    "active": false,
    "unitCount": 1,
    "severity": 0,
    "lat": 47.661828,
    "long": -122.320725,
    "neighborhood": "Wallingford",
    "neighborhoodGroup": "Lake Union",
    "units": "L9"
  },
  {
    "id_str": "F210120508",
    "created_at": "10/31/2021 1:40:42 AM",
    "timestamp": 1635669642000,
    "description": "Aid Response",
    "address": "5540 30th Ave Ne",
    "active": false,
    "unitCount": 2,
    "severity": 0,
    "lat": 47.668874,
    "long": -122.295063,
    "neighborhood": "Ravenna/Bryant",
    "neighborhoodGroup": "Northeast",
    "units": "E17 L9"
  },
  {
    "id_str": "F210120505",
    "created_at": "10/31/2021 1:36:30 AM",
    "timestamp": 1635669390000,
    "description": "Aid Response",
    "address": "2415 Western Ave",
    "active": false,
    "unitCount": 1,
    "severity": 0,
    "lat": 47.613559,
    "long": -122.348806,
    "neighborhood": "Belltown",
    "neighborhoodGroup": "Downtown",
    "units": "E5"
  },
  {
    "id_str": "F210120503",
    "created_at": "10/31/2021 1:34:36 AM",
    "timestamp": 1635669276000,
    "description": "Low Acuity Response",
    "address": "6240 26th Ave Ne",
    "active": false,
    "unitCount": 1,
    "severity": 0,
    "lat": 47.674209,
    "long": -122.299591,
    "neighborhood": "Ravenna/Bryant",
    "neighborhoodGroup": "Northeast",
    "units": "E38"
  },
  {
    "id_str": "F210120502",
    "created_at": "10/31/2021 1:28:57 AM",
    "timestamp": 1635668937000,
    "description": "Automatic Fire Alarm Resd",
    "address": "715 Mcgilvra Blvd E",
    "active": false,
    "unitCount": 1,
    "severity": 0,
    "lat": 47.625903,
    "long": -122.28376,
    "neighborhood": "Madison Park",
    "neighborhoodGroup": "East",
    "units": "E34"
  },
  {
    "id_str": "F210120499",
    "created_at": "10/31/2021 1:25:59 AM",
    "timestamp": 1635668759000,
    "description": "Aid Response",
    "address": "1218 Ne Campus Pkwy",
    "active": false,
    "unitCount": 1,
    "severity": 0,
    "lat": 47.656233,
    "long": -122.315363,
    "neighborhood": "University District",
    "neighborhoodGroup": "Northeast",
    "units": "E17"
  },
  {
    "id_str": "F210120497",
    "created_at": "10/31/2021 1:25:07 AM",
    "timestamp": 1635668707000,
    "description": "Aid Response",
    "address": "2020 S Jackson St",
    "active": false,
    "unitCount": 1,
    "severity": 0,
    "lat": 47.599261,
    "long": -122.305258,
    "neighborhood": "Judkins Park",
    "neighborhoodGroup": "Central",
    "units": "E6"
  },
  {
    "id_str": "F210120498",
    "created_at": "10/31/2021 1:24:40 AM",
    "timestamp": 1635668680000,
    "description": "Scenes Of Violence Aid",
    "address": "2762 4th Ave S",
    "active": false,
    "unitCount": 3,
    "severity": 0,
    "lat": 47.579157,
    "long": -122.329057,
    "neighborhood": "Duwamish/SODO",
    "neighborhoodGroup": "Greater Duwamish",
    "units": "B5 M10 R1"
  },
  {
    "id_str": "F210120496",
    "created_at": "10/31/2021 1:23:25 AM",
    "timestamp": 1635668605000,
    "description": "Aid Response",
    "address": "301 Pine St",
    "active": false,
    "unitCount": 1,
    "severity": 0,
    "lat": 47.610748,
    "long": -122.338691,
    "neighborhood": "Downtown Commercial Core",
    "neighborhoodGroup": "Downtown",
    "units": "A10"
  },
  {
    "id_str": "F210120495",
    "created_at": "10/31/2021 1:21:55 AM",
    "timestamp": 1635668515000,
    "description": "Advised Incident",
    "address": "6236 S Fountain St",
    "active": false,
    "unitCount": 1,
    "severity": 0,
    "units": "E33"
  },
  {
    "id_str": "F210120493",
    "created_at": "10/31/2021 1:19:48 AM",
    "timestamp": 1635668388000,
    "description": "Auto Fire Alarm",
    "address": "2101 4th Ave",
    "active": false,
    "unitCount": 2,
    "severity": 0,
    "lat": 47.613831,
    "long": -122.341333,
    "neighborhood": "Cascade/Eastlake",
    "neighborhoodGroup": "Lake Union",
    "units": "E2 L4"
  },
  {
    "id_str": "F210120491",
    "created_at": "10/31/2021 1:12:00 AM",
    "timestamp": 1635667920000,
    "description": "Encampment Fire",
    "address": "1649 W BARRETT ST",
    "active": false,
    "unitCount": 1,
    "severity": 0,
    "lat": 47.647471,
    "long": -122.378161,
    "neighborhood": "Interbay",
    "neighborhoodGroup": "Magnolia/Queen Anne",
    "units": "E20"
  },
  {
    "id_str": "F210120489",
    "created_at": "10/31/2021 1:03:33 AM",
    "timestamp": 1635667413000,
    "description": "Aid Response",
    "address": "12718 Lake City Way Ne",
    "active": false,
    "unitCount": 1,
    "severity": 0,
    "lat": 47.721196,
    "long": -122.294099,
    "neighborhood": "Cedar Park/Meadowbrook",
    "neighborhoodGroup": "North",
    "units": "E39"
  },
  {
    "id_str": "F210120488",
    "created_at": "10/31/2021 1:01:18 AM",
    "timestamp": 1635667278000,
    "description": "Aid Response",
    "address": "4831 35th Ave Sw",
    "active": false,
    "unitCount": 1,
    "severity": 0,
    "lat": 47.558988,
    "long": -122.376234,
    "neighborhood": "West Seattle Junction/Genesee Hill",
    "neighborhoodGroup": "Southwest",
    "units": "E32"
  },
  {
    "id_str": "F210120487",
    "created_at": "10/31/2021 12:59:46 AM",
    "timestamp": 1635667186000,
    "description": "Aid Response",
    "address": "115 Crockett St",
    "active": false,
    "unitCount": 1,
    "severity": 0,
    "lat": 47.637415,
    "long": -122.355218,
    "neighborhood": "Queen Anne",
    "neighborhoodGroup": "Magnolia/Queen Anne",
    "units": "E8"
  },
  {
    "id_str": "F210120485",
    "created_at": "10/31/2021 12:53:04 AM",
    "timestamp": 1635666784000,
    "description": "Aid Response",
    "address": "999 Nw Leary Way",
    "active": false,
    "unitCount": 1,
    "severity": 0,
    "lat": 47.663657,
    "long": -122.37045,
    "neighborhood": "Ballard",
    "neighborhoodGroup": "Ballard",
    "units": "E18"
  },
  {
    "id_str": "F210120484",
    "created_at": "10/31/2021 12:52:45 AM",
    "timestamp": 1635666765000,
    "description": "MVI - Motor Vehicle Incident",
    "address": "4th Ave S / S Jackson St",
    "active": false,
    "unitCount": 1,
    "severity": 0,
    "lat": 47.599197,
    "long": -122.328968,
    "neighborhood": "Pioneer Square/International District",
    "neighborhoodGroup": "Downtown",
    "units": "E10"
  },
  {
    "id_str": "F210120483",
    "created_at": "10/31/2021 12:33:00 AM",
    "timestamp": 1635665580000,
    "description": "Aid Response",
    "address": "4255 9th Ave Ne",
    "active": false,
    "unitCount": 1,
    "severity": 0,
    "lat": 47.658604,
    "long": -122.318791,
    "neighborhood": "Wallingford",
    "neighborhoodGroup": "Lake Union",
    "units": "E17"
  },
  {
    "id_str": "F210120482",
    "created_at": "10/31/2021 12:25:32 AM",
    "timestamp": 1635665132000,
    "description": "Low Acuity Response",
    "address": "1111 E PINE ST",
    "active": false,
    "unitCount": 1,
    "severity": 0,
    "lat": 47.615255,
    "long": -122.318013,
    "neighborhood": "Capitol Hill",
    "neighborhoodGroup": "East",
    "units": "L10"
  },
  {
    "id_str": "F210120480",
    "created_at": "10/31/2021 12:19:31 AM",
    "timestamp": 1635664771000,
    "description": "Aid Response",
    "address": "325 7th Ave N",
    "active": false,
    "unitCount": 1,
    "severity": 0,
    "lat": 47.621775,
    "long": -122.343677,
    "neighborhood": "Cascade/Eastlake",
    "neighborhoodGroup": "Lake Union",
    "units": "L4"
  },
  {
    "id_str": "F210120479",
    "created_at": "10/31/2021 12:18:51 AM",
    "timestamp": 1635664731000,
    "description": "Aid Response",
    "address": "2330 1ST AVE",
    "active": false,
    "unitCount": 1,
    "severity": 0,
    "lat": 47.613603,
    "long": -122.346898,
    "neighborhood": "Belltown",
    "neighborhoodGroup": "Downtown",
    "units": "E2"
  },
  {
    "id_str": "F210120476",
    "created_at": "10/31/2021 12:02:15 AM",
    "timestamp": 1635663735000,
    "description": "Aid Response",
    "address": "1206 Sw Myrtle St",
    "active": false,
    "unitCount": 1,
    "severity": 0,
    "lat": 47.539092,
    "long": -122.350666,
    "neighborhood": "Riverview",
    "neighborhoodGroup": "Delridge Neighborhoods",
    "units": "E11"
  },
  {
    "id_str": "F210120475",
    "created_at": "10/30/2021 11:59:29 PM",
    "timestamp": 1635663569000,
    "description": "Aid Response",
    "address": "8325 Dallas Ave S",
    "active": false,
    "unitCount": 1,
    "severity": 0,
    "lat": 47.528797,
    "long": -122.318588,
    "neighborhood": "South Park",
    "neighborhoodGroup": "Greater Duwamish",
    "units": "E26"
  },
  {
    "id_str": "F210120474",
    "created_at": "10/30/2021 11:59:25 PM",
    "timestamp": 1635663565000,
    "description": "Medic Response, 6 per Rule",
    "address": "Pike St / Terry Ave",
    "active": false,
    "unitCount": 3,
    "severity": 0,
    "lat": 47.613001,
    "long": -122.330025,
    "neighborhood": "First Hill",
    "neighborhoodGroup": "East",
    "units": "E25 L10 M1"
  },
  {
    "id_str": "F210120471",
    "created_at": "10/30/2021 11:48:05 PM",
    "timestamp": 1635662885000,
    "description": "Auto Fire Alarm",
    "address": "1011 Pike St",
    "active": false,
    "unitCount": 2,
    "severity": 0,
    "lat": 47.613053,
    "long": -122.3299,
    "neighborhood": "First Hill",
    "neighborhoodGroup": "East",
    "units": "E25 L10"
  },
  {
    "id_str": "F210120470",
    "created_at": "10/30/2021 11:46:36 PM",
    "timestamp": 1635662796000,
    "description": "Investigate Out Of Service",
    "address": "11050 8th Ave Ne",
    "active": false,
    "unitCount": 1,
    "severity": 0,
    "lat": 47.708935,
    "long": -122.320569,
    "neighborhood": "Northgate/Maple Leaf",
    "neighborhoodGroup": "North",
    "units": "E31"
  },
  {
    "id_str": "F210120467",
    "created_at": "10/30/2021 11:41:31 PM",
    "timestamp": 1635662491000,
    "description": "Aid Response",
    "address": "1823 Minor Ave",
    "active": false,
    "unitCount": 1,
    "severity": 0,
    "lat": 47.617013,
    "long": -122.330851,
    "neighborhood": "Cascade/Eastlake",
    "neighborhoodGroup": "Lake Union",
    "units": "A25"
  },
  {
    "id_str": "F210120465",
    "created_at": "10/30/2021 11:36:46 PM",
    "timestamp": 1635662206000,
    "description": "Illegal Burn",
    "address": "1st Ave / Pine St",
    "active": false,
    "unitCount": 1,
    "severity": 0,
    "lat": 47.609814,
    "long": -122.340922,
    "neighborhood": "Downtown Commercial Core",
    "neighborhoodGroup": "Downtown",
    "units": "E5"
  },
  {
    "id_str": "F210120464",
    "created_at": "10/30/2021 11:36:30 PM",
    "timestamp": 1635662190000,
    "description": "Rubbish Fire",
    "address": "Pine St / Boren Ave",
    "active": false,
    "unitCount": 1,
    "severity": 0,
    "lat": 47.614457,
    "long": -122.329822,
    "neighborhood": "First Hill",
    "neighborhoodGroup": "East",
    "units": "E25"
  },
  {
    "id_str": "F210120462",
    "created_at": "10/30/2021 11:32:41 PM",
    "timestamp": 1635661961000,
    "description": "Aid Response",
    "address": "7742 30th Ave Sw",
    "active": false,
    "unitCount": 1,
    "severity": 0,
    "lat": 47.533337,
    "long": -122.371164,
    "neighborhood": "Roxhill/Westwood",
    "neighborhoodGroup": "Delridge Neighborhoods",
    "units": "E37"
  },
  {
    "id_str": "F210120461",
    "created_at": "10/30/2021 11:30:45 PM",
    "timestamp": 1635661845000,
    "description": "Aid Response",
    "address": "5945 33rd Ave S",
    "active": false,
    "unitCount": 1,
    "severity": 0,
    "lat": 47.548609,
    "long": -122.290341,
    "neighborhood": "Beacon Hill",
    "neighborhoodGroup": "Greater Duwamish",
    "units": "E28"
  },
  {
    "id_str": "F210120460",
    "created_at": "10/30/2021 11:27:48 PM",
    "timestamp": 1635661668000,
    "description": "Illegal Burn",
    "address": "12248 AURORA AVE N",
    "active": false,
    "unitCount": 1,
    "severity": 0,
    "lat": 47.718065,
    "long": -122.344911,
    "neighborhood": "Broadview/Bitter Lake",
    "neighborhoodGroup": "Northwest",
    "units": "E24"
  },
  {
    "id_str": "F210120459",
    "created_at": "10/30/2021 11:21:37 PM",
    "timestamp": 1635661297000,
    "description": "Medic Response",
    "address": "10532 35th Ave Ne",
    "active": false,
    "unitCount": 2,
    "severity": 0,
    "lat": 47.705007,
    "long": -122.290868,
    "neighborhood": "Cedar Park/Meadowbrook",
    "neighborhoodGroup": "North",
    "units": "E40 M31"
  },
  {
    "id_str": "F210120458",
    "created_at": "10/30/2021 11:19:00 PM",
    "timestamp": 1635661140000,
    "description": "Aid Response",
    "address": "611 W Comstock St",
    "active": false,
    "unitCount": 1,
    "severity": 0,
    "lat": 47.630468,
    "long": -122.364694,
    "neighborhood": "Queen Anne",
    "neighborhoodGroup": "Magnolia/Queen Anne",
    "units": "L6"
  },
  {
    "id_str": "F210120457",
    "created_at": "10/30/2021 10:44:26 PM",
    "timestamp": 1635659066000,
    "description": "Low Acuity Response",
    "address": "3400 Ne 110th St",
    "active": false,
    "unitCount": 1,
    "severity": 0,
    "lat": 47.708379,
    "long": -122.29211,
    "neighborhood": "Cedar Park/Meadowbrook",
    "neighborhoodGroup": "North",
    "units": "E40"
  },
  {
    "id_str": "F210120456",
    "created_at": "10/30/2021 10:41:34 PM",
    "timestamp": 1635658894000,
    "description": "Auto Fire Alarm",
    "address": "1311 S Massachusetts St",
    "active": false,
    "unitCount": 2,
    "severity": 0,
    "lat": 47.588437,
    "long": -122.315855,
    "neighborhood": "North Beacon Hill/Jefferson Park",
    "neighborhoodGroup": "Greater Duwamish",
    "units": "E13 R1"
  },
  {
    "id_str": "F210120455",
    "created_at": "10/30/2021 10:39:02 PM",
    "timestamp": 1635658742000,
    "description": "Illegal Burn",
    "address": "N 45th St / Wallingford Ave N",
    "active": false,
    "unitCount": 1,
    "severity": 0,
    "lat": 47.661386,
    "long": -122.336294,
    "neighborhood": "Wallingford",
    "neighborhoodGroup": "Lake Union",
    "units": "E9"
  },
  {
    "id_str": "F210120454",
    "created_at": "10/30/2021 10:36:46 PM",
    "timestamp": 1635658606000,
    "description": "Medic Response",
    "address": "5210 12th Ave Ne",
    "active": false,
    "unitCount": 2,
    "severity": 0,
    "lat": 47.666509,
    "long": -122.315218,
    "neighborhood": "University District",
    "neighborhoodGroup": "Northeast",
    "units": "L9 M31"
  },
  {
    "id_str": "F210120453",
    "created_at": "10/30/2021 10:31:02 PM",
    "timestamp": 1635658262000,
    "description": "Medic Response",
    "address": "4514 18th Ave Ne",
    "active": false,
    "unitCount": 2,
    "severity": 0,
    "lat": 47.661375,
    "long": -122.308381,
    "neighborhood": "University District",
    "neighborhoodGroup": "Northeast",
    "units": "E17 M17"
  },
  {
    "id_str": "F210120451",
    "created_at": "10/30/2021 10:16:52 PM",
    "timestamp": 1635657412000,
    "description": "Aid Response",
    "address": "62 Cedar St",
    "active": false,
    "unitCount": 1,
    "severity": 0,
    "lat": 47.615116,
    "long": -122.351504,
    "neighborhood": "Belltown",
    "neighborhoodGroup": "Downtown",
    "units": "E2"
  },
  {
    "id_str": "F210120450",
    "created_at": "10/30/2021 10:15:02 PM",
    "timestamp": 1635657302000,
    "description": "Dumpster Fire",
    "address": "1420 E Madison St",
    "active": false,
    "unitCount": 2,
    "severity": 0,
    "lat": 47.614115,
    "long": -122.313693,
    "neighborhood": "Capitol Hill",
    "neighborhoodGroup": "East",
    "units": "E25 E34"
  },
  {
    "id_str": "F210120448",
    "created_at": "10/30/2021 10:04:02 PM",
    "timestamp": 1635656642000,
    "description": "Single Medic Unit",
    "address": "800 Occidental Ave S",
    "active": false,
    "unitCount": 2,
    "severity": 0,
    "lat": 47.595693,
    "long": -122.333273,
    "neighborhood": "Duwamish/SODO",
    "neighborhoodGroup": "Greater Duwamish",
    "units": "M10 M17"
  },
  {
    "id_str": "F210120447",
    "created_at": "10/30/2021 9:55:31 PM",
    "timestamp": 1635656131000,
    "description": "Aid Response",
    "address": "Broadway / E Pine St",
    "active": false,
    "unitCount": 1,
    "severity": 0,
    "lat": 47.615235,
    "long": -122.320799,
    "neighborhood": "Capitol Hill",
    "neighborhoodGroup": "East",
    "units": "E25"
  },
  {
    "id_str": "F210120446",
    "created_at": "10/30/2021 9:52:33 PM",
    "timestamp": 1635655953000,
    "description": "Aid Response",
    "address": "2121 6th Ave",
    "active": false,
    "unitCount": 1,
    "severity": 0,
    "lat": 47.615317,
    "long": -122.33988,
    "neighborhood": "Cascade/Eastlake",
    "neighborhoodGroup": "Lake Union",
    "units": "E2"
  },
  {
    "id_str": "F210120445",
    "created_at": "10/30/2021 9:50:17 PM",
    "timestamp": 1635655817000,
    "description": "Automatic Fire Alarm False",
    "address": "4509 19th Ave Ne",
    "active": false,
    "unitCount": 1,
    "severity": 0,
    "lat": 47.66133,
    "long": -122.307244,
    "neighborhood": "University District",
    "neighborhoodGroup": "Northeast",
    "units": "E17"
  },
  {
    "id_str": "F210120443",
    "created_at": "10/30/2021 9:45:19 PM",
    "timestamp": 1635655519000,
    "description": "Medic Response",
    "address": "301 Mercer St",
    "active": false,
    "unitCount": 4,
    "severity": 0,
    "lat": 47.62457,
    "long": -122.351461,
    "neighborhood": "Cascade/Eastlake",
    "neighborhoodGroup": "Lake Union",
    "units": "B2 L6 M1 M44"
  },
  {
    "id_str": "F210120441",
    "created_at": "10/30/2021 9:40:28 PM",
    "timestamp": 1635655228000,
    "description": "Encampment Fire",
    "address": "1207 Thomas St",
    "active": false,
    "unitCount": 1,
    "severity": 0,
    "lat": 47.620814,
    "long": -122.332799,
    "neighborhood": "Cascade/Eastlake",
    "neighborhoodGroup": "Lake Union",
    "units": "E2"
  },
  {
    "id_str": "F210120440",
    "created_at": "10/30/2021 9:33:08 PM",
    "timestamp": 1635654788000,
    "description": "Aid Response",
    "address": "4508 19th Ave Ne",
    "active": false,
    "unitCount": 1,
    "severity": 0,
    "lat": 47.661321,
    "long": -122.307244,
    "neighborhood": "University District",
    "neighborhoodGroup": "Northeast",
    "units": "E17"
  },
  {
    "id_str": "F210120439",
    "created_at": "10/30/2021 9:27:58 PM",
    "timestamp": 1635654478000,
    "description": "Single Medic Unit",
    "address": "800 Occidental Ave S",
    "active": false,
    "unitCount": 1,
    "severity": 0,
    "lat": 47.595693,
    "long": -122.333273,
    "neighborhood": "Duwamish/SODO",
    "neighborhoodGroup": "Greater Duwamish",
    "units": "M10"
  },
  {
    "id_str": "F210120438",
    "created_at": "10/30/2021 9:11:43 PM",
    "timestamp": 1635653503000,
    "description": "Aid Response",
    "address": "610 5th Ave S",
    "active": false,
    "unitCount": 1,
    "severity": 0,
    "lat": 47.59743,
    "long": -122.327676,
    "neighborhood": "Pioneer Square/International District",
    "neighborhoodGroup": "Downtown",
    "units": "A10"
  },
  {
    "id_str": "F210120437",
    "created_at": "10/30/2021 9:06:59 PM",
    "timestamp": 1635653219000,
    "description": "Aid Response",
    "address": "5601 S Augusta St",
    "active": false,
    "unitCount": 2,
    "severity": 0,
    "lat": 47.500196,
    "long": -122.262425,
    "neighborhood": "Rainier Beach",
    "neighborhoodGroup": "Southeast",
    "units": "E33 M28"
  },
  {
    "id_str": "F210120436",
    "created_at": "10/30/2021 9:05:37 PM",
    "timestamp": 1635653137000,
    "description": "Aid Response",
    "address": "2201 E Aloha St",
    "active": false,
    "unitCount": 1,
    "severity": 0,
    "lat": 47.626825,
    "long": -122.303563,
    "neighborhood": "Miller Park",
    "neighborhoodGroup": "East",
    "units": "A25"
  },
  {
    "id_str": "F210120434",
    "created_at": "10/30/2021 9:04:42 PM",
    "timestamp": 1635653082000,
    "description": "Aid Response",
    "address": "3407 Airport Way S",
    "active": false,
    "unitCount": 1,
    "severity": 0,
    "lat": 47.573412,
    "long": -122.321756,
    "neighborhood": "Duwamish/SODO",
    "neighborhoodGroup": "Greater Duwamish",
    "units": "A14"
  },
  {
    "id_str": "F210120435",
    "created_at": "10/30/2021 9:04:03 PM",
    "timestamp": 1635653043000,
    "description": "Aid Response",
    "address": "11039 17th Ave Ne",
    "active": false,
    "unitCount": 1,
    "severity": 0,
    "lat": 47.709397,
    "long": -122.309982,
    "neighborhood": "Olympic Hills/Victory Heights",
    "neighborhoodGroup": "North",
    "units": "E39"
  },
  {
    "id_str": "F210120433",
    "created_at": "10/30/2021 9:02:39 PM",
    "timestamp": 1635652959000,
    "description": "Medic Response",
    "address": "8724 Jones Pl Nw",
    "active": false,
    "unitCount": 2,
    "severity": 0,
    "lat": 47.691946,
    "long": -122.38608,
    "neighborhood": "North Beach/Blue Ridge",
    "neighborhoodGroup": "Ballard",
    "units": "E35 M18"
  },
  {
    "id_str": "F210120432",
    "created_at": "10/30/2021 9:02:05 PM",
    "timestamp": 1635652925000,
    "description": "Aid Response",
    "address": "301 2ND AVE S",
    "active": false,
    "unitCount": 1,
    "severity": 0,
    "lat": 47.600032,
    "long": -122.331573,
    "neighborhood": "Pioneer Square/International District",
    "neighborhoodGroup": "Downtown",
    "units": "A10"
  },
  {
    "id_str": "F210120430",
    "created_at": "10/30/2021 8:59:18 PM",
    "timestamp": 1635652758000,
    "description": "Aid Response",
    "address": "4210 26th Ave Sw",
    "active": false,
    "unitCount": 1,
    "severity": 0,
    "lat": 47.566099,
    "long": -122.365462,
    "neighborhood": "North Delridge",
    "neighborhoodGroup": "Delridge Neighborhoods",
    "units": "E36"
  },
  {
    "id_str": "F210120428",
    "created_at": "10/30/2021 8:44:52 PM",
    "timestamp": 1635651892000,
    "description": "Aid Response",
    "address": "4503 Woodland Park Ave N",
    "active": false,
    "unitCount": 1,
    "severity": 0,
    "lat": 47.6614,
    "long": -122.344559,
    "neighborhood": "Wallingford",
    "neighborhoodGroup": "Lake Union",
    "units": "E9"
  },
  {
    "id_str": "F210120427",
    "created_at": "10/30/2021 8:39:57 PM",
    "timestamp": 1635651597000,
    "description": "Aid Response Yellow",
    "address": "11241 Dayton Ave N",
    "active": false,
    "unitCount": 1,
    "severity": 0,
    "lat": 47.710766,
    "long": -122.352837,
    "neighborhood": "North Beach/Blue Ridge",
    "neighborhoodGroup": "Ballard",
    "units": "E24"
  },
  {
    "id_str": "F210120426",
    "created_at": "10/30/2021 8:30:40 PM",
    "timestamp": 1635651040000,
    "description": "Aid Response",
    "address": "4316 S Genesee St",
    "active": false,
    "unitCount": 1,
    "severity": 0,
    "lat": 47.564086,
    "long": -122.279299,
    "neighborhood": "Columbia City",
    "neighborhoodGroup": "Southeast",
    "units": "E28"
  },
  {
    "id_str": "F210120424",
    "created_at": "10/30/2021 8:18:10 PM",
    "timestamp": 1635650290000,
    "description": "Aid Response",
    "address": "4018 Sw 106th St",
    "active": false,
    "unitCount": 1,
    "severity": 0,
    "lat": 47.508253,
    "long": -122.383143,
    "neighborhood": "Arbor Heights",
    "neighborhoodGroup": "Southwest",
    "units": "E37"
  },
  {
    "id_str": "F210120423",
    "created_at": "10/30/2021 8:14:21 PM",
    "timestamp": 1635650061000,
    "description": "Aid Response",
    "address": "1430 Nw 64th St",
    "active": false,
    "unitCount": 1,
    "severity": 0,
    "lat": 47.675275,
    "long": -122.374353,
    "neighborhood": "Whittier Heights",
    "neighborhoodGroup": "Ballard",
    "units": "E18"
  },
  {
    "id_str": "F210120422",
    "created_at": "10/30/2021 8:11:01 PM",
    "timestamp": 1635649861000,
    "description": "Unk Odor",
    "address": "5037 Brooklyn Ave Ne",
    "active": false,
    "unitCount": 1,
    "severity": 0,
    "lat": 47.665187,
    "long": -122.314206,
    "neighborhood": "University District",
    "neighborhoodGroup": "Northeast",
    "units": "E17"
  },
  {
    "id_str": "F210120421",
    "created_at": "10/30/2021 8:10:15 PM",
    "timestamp": 1635649815000,
    "description": "Aid Response",
    "address": "2119 3rd Ave",
    "active": false,
    "unitCount": 1,
    "severity": 0,
    "lat": 47.613308,
    "long": -122.342432,
    "neighborhood": "Cascade/Eastlake",
    "neighborhoodGroup": "Lake Union",
    "units": "L4"
  },
  {
    "id_str": "F210120420",
    "created_at": "10/30/2021 8:09:39 PM",
    "timestamp": 1635649779000,
    "description": "Aid Response",
    "address": "3512 Albion Pl N",
    "active": false,
    "unitCount": 1,
    "severity": 0,
    "lat": 47.649847,
    "long": -122.344754,
    "neighborhood": "Fremont",
    "neighborhoodGroup": "Lake Union",
    "units": "E9"
  },
  {
    "id_str": "F210120419",
    "created_at": "10/30/2021 8:08:45 PM",
    "timestamp": 1635649725000,
    "description": "Aid Response",
    "address": "5207 Sw Jacobsen Rd",
    "active": false,
    "unitCount": 1,
    "severity": 0,
    "lat": 47.557638,
    "long": -122.398925,
    "neighborhood": "Fauntleroy/Seaview",
    "neighborhoodGroup": "Southwest",
    "units": "E32"
  },
  {
    "id_str": "F210120417",
    "created_at": "10/30/2021 8:04:20 PM",
    "timestamp": 1635649460000,
    "description": "Aid Response",
    "address": "7544 M L King Jr Way S",
    "active": false,
    "unitCount": 1,
    "severity": 0,
    "lat": 47.534954,
    "long": -122.280638,
    "neighborhood": "South Beacon Hill/NewHolly",
    "neighborhoodGroup": "Greater Duwamish",
    "units": "E28"
  },
  {
    "id_str": "F210120416",
    "created_at": "10/30/2021 7:56:22 PM",
    "timestamp": 1635648982000,
    "description": "Aid Response",
    "address": "13215 Linden Ave N",
    "active": false,
    "unitCount": 1,
    "severity": 0,
    "lat": 47.724785,
    "long": -122.347969,
    "neighborhood": "Broadview/Bitter Lake",
    "neighborhoodGroup": "Northwest",
    "units": "E24"
  },
  {
    "id_str": "F210120415",
    "created_at": "10/30/2021 7:54:49 PM",
    "timestamp": 1635648889000,
    "description": "Aid Response",
    "address": "5th Ave N / Republican St",
    "active": false,
    "unitCount": 1,
    "severity": 0,
    "lat": 47.623243,
    "long": -122.347583,
    "neighborhood": "Cascade/Eastlake",
    "neighborhoodGroup": "Lake Union",
    "units": "L4"
  },
  {
    "id_str": "F210120414",
    "created_at": "10/30/2021 7:53:53 PM",
    "timestamp": 1635648833000,
    "description": "Aid Response",
    "address": "325 7th Ave N",
    "active": false,
    "unitCount": 2,
    "severity": 0,
    "lat": 47.621775,
    "long": -122.343677,
    "neighborhood": "Cascade/Eastlake",
    "neighborhoodGroup": "Lake Union",
    "units": "E2 M1"
  },
  {
    "id_str": "F210120413",
    "created_at": "10/30/2021 7:52:14 PM",
    "timestamp": 1635648734000,
    "description": "Alarm Bell",
    "address": "13730 15th Ave Ne",
    "active": false,
    "unitCount": 1,
    "severity": 0,
    "lat": 47.728658,
    "long": -122.312678,
    "neighborhood": "Olympic Hills/Victory Heights",
    "neighborhoodGroup": "North",
    "units": "E39"
  },
  {
    "id_str": "F210120406",
    "created_at": "10/30/2021 7:35:50 PM",
    "timestamp": 1635647750000,
    "description": "Medic Response",
    "address": "1500 Nw Market St",
    "active": false,
    "unitCount": 3,
    "severity": 0,
    "lat": 47.668667,
    "long": -122.376214,
    "neighborhood": "Ballard",
    "neighborhoodGroup": "Ballard",
    "units": "E18 M17 M18"
  },
  {
    "id_str": "F210120405",
    "created_at": "10/30/2021 7:34:55 PM",
    "timestamp": 1635647695000,
    "description": "Auto Fire Alarm",
    "address": "509 3rd Ave",
    "active": false,
    "unitCount": 2,
    "severity": 0,
    "lat": 47.602114,
    "long": -122.330809,
    "neighborhood": "Downtown Commercial Core",
    "neighborhoodGroup": "Downtown",
    "units": "E10 L1"
  },
  {
    "id_str": "F210120404",
    "created_at": "10/30/2021 7:34:14 PM",
    "timestamp": 1635647654000,
    "description": "Illegal Burn",
    "address": "12th Ave S / S King St",
    "active": false,
    "unitCount": 1,
    "severity": 0,
    "lat": 47.598338,
    "long": -122.317228,
    "neighborhood": "Pioneer Square/International District",
    "neighborhoodGroup": "Downtown",
    "units": "E6"
  },
  {
    "id_str": "F210120403",
    "created_at": "10/30/2021 7:31:50 PM",
    "timestamp": 1635647510000,
    "description": "Aid Response",
    "address": "1400 S Lane St",
    "active": false,
    "unitCount": 1,
    "severity": 0,
    "lat": 47.596654,
    "long": -122.314056,
    "neighborhood": "Judkins Park",
    "neighborhoodGroup": "Central",
    "units": "A10"
  },
  {
    "id_str": "F210120402",
    "created_at": "10/30/2021 7:31:17 PM",
    "timestamp": 1635647477000,
    "description": "Aid Response",
    "address": "7544 M L King Jr Way S",
    "active": false,
    "unitCount": 1,
    "severity": 0,
    "lat": 47.534954,
    "long": -122.280638,
    "neighborhood": "South Beacon Hill/NewHolly",
    "neighborhoodGroup": "Greater Duwamish",
    "units": "E28"
  },
  {
    "id_str": "F210120400",
    "created_at": "10/30/2021 7:26:41 PM",
    "timestamp": 1635647201000,
    "description": "Encampment Aid",
    "address": "700 S Myrtle St",
    "active": false,
    "unitCount": 1,
    "severity": 0,
    "lat": 47.539435,
    "long": -122.325143,
    "neighborhood": "Georgetown",
    "neighborhoodGroup": "Greater Duwamish",
    "units": "E27"
  },
  {
    "id_str": "F210120399",
    "created_at": "10/30/2021 7:23:51 PM",
    "timestamp": 1635647031000,
    "description": "Water Job Minor",
    "address": "855 W Nickerson St",
    "active": false,
    "unitCount": 1,
    "severity": 0,
    "lat": 47.65273,
    "long": -122.368155,
    "neighborhood": "Queen Anne",
    "neighborhoodGroup": "Magnolia/Queen Anne",
    "units": "L8"
  },
  {
    "id_str": "F210120398",
    "created_at": "10/30/2021 7:23:41 PM",
    "timestamp": 1635647021000,
    "description": "Rubbish Fire",
    "address": "Terry Ave N / John St",
    "active": false,
    "unitCount": 1,
    "severity": 0,
    "lat": 47.6197,
    "long": -122.33717,
    "neighborhood": "Cascade/Eastlake",
    "neighborhoodGroup": "Lake Union",
    "units": "E2"
  },
  {
    "id_str": "F210120397",
    "created_at": "10/30/2021 7:16:36 PM",
    "timestamp": 1635646596000,
    "description": "Aid Response",
    "address": "317 Marion St",
    "active": false,
    "unitCount": 1,
    "severity": 0,
    "lat": 47.604991,
    "long": -122.333174,
    "neighborhood": "Downtown Commercial Core",
    "neighborhoodGroup": "Downtown",
    "units": "A5"
  },
  {
    "id_str": "F210120396",
    "created_at": "10/30/2021 7:11:03 PM",
    "timestamp": 1635646263000,
    "description": "Aid Response",
    "address": "3127 Nw 85th St",
    "active": false,
    "unitCount": 1,
    "severity": 0,
    "lat": 47.69057,
    "long": -122.397301,
    "neighborhood": "North Beach/Blue Ridge",
    "neighborhoodGroup": "Ballard",
    "units": "E35"
  },
  {
    "id_str": "F210120395",
    "created_at": "10/30/2021 7:04:39 PM",
    "timestamp": 1635645879000,
    "description": "Aid Response",
    "address": "10th Ave S / S King St",
    "active": false,
    "unitCount": 1,
    "severity": 0,
    "lat": 47.598348,
    "long": -122.319644,
    "neighborhood": "Pioneer Square/International District",
    "neighborhoodGroup": "Downtown",
    "units": "A10"
  },
  {
    "id_str": "F210120394",
    "created_at": "10/30/2021 7:03:25 PM",
    "timestamp": 1635645805000,
    "description": "Activated CO Detector",
    "address": "2720 W Galer St",
    "active": false,
    "unitCount": 1,
    "severity": 0,
    "lat": 47.632314,
    "long": -122.392098,
    "neighborhood": "Magnolia",
    "neighborhoodGroup": "Magnolia/Queen Anne",
    "units": "L6"
  },
  {
    "id_str": "F210120393",
    "created_at": "10/30/2021 7:01:24 PM",
    "timestamp": 1635645684000,
    "description": "Aid Response",
    "address": "Linden Ave N / N 137th St",
    "active": false,
    "unitCount": 1,
    "severity": 0,
    "lat": 47.72777,
    "long": -122.347725,
    "neighborhood": "Broadview/Bitter Lake",
    "neighborhoodGroup": "Northwest",
    "units": "E24"
  },
  {
    "id_str": "F210120392",
    "created_at": "10/30/2021 7:00:12 PM",
    "timestamp": 1635645612000,
    "description": "Aid Response",
    "address": "3801 Stone Way N",
    "active": false,
    "unitCount": 2,
    "severity": 0,
    "lat": 47.652707,
    "long": -122.342575,
    "neighborhood": "Fremont",
    "neighborhoodGroup": "Lake Union",
    "units": "E9 M18"
  },
  {
    "id_str": "F210120391",
    "created_at": "10/30/2021 6:59:53 PM",
    "timestamp": 1635645593000,
    "description": "Medic Response",
    "address": "1510 1st Ave",
    "active": false,
    "unitCount": 2,
    "severity": 0,
    "lat": 47.608912,
    "long": -122.340096,
    "neighborhood": "Downtown Commercial Core",
    "neighborhoodGroup": "Downtown",
    "units": "E5 M10"
  },
  {
    "id_str": "F210120390",
    "created_at": "10/30/2021 6:59:07 PM",
    "timestamp": 1635645547000,
    "description": "Aid Response",
    "address": "9262 Rainier Ave S",
    "active": false,
    "unitCount": 1,
    "severity": 0,
    "lat": 47.519853,
    "long": -122.268364,
    "neighborhood": "Rainier Beach",
    "neighborhoodGroup": "Southeast",
    "units": "E33"
  },
  {
    "id_str": "F210120389",
    "created_at": "10/30/2021 6:54:47 PM",
    "timestamp": 1635645287000,
    "description": "Aid Response",
    "address": "E Pike St / Summit Ave",
    "active": false,
    "unitCount": 1,
    "severity": 0,
    "lat": 47.614089,
    "long": -122.325514,
    "neighborhood": "Capitol Hill",
    "neighborhoodGroup": "East",
    "units": "A25"
  },
  {
    "id_str": "F210120388",
    "created_at": "10/30/2021 6:53:19 PM",
    "timestamp": 1635645199000,
    "description": "Aid Response",
    "address": "900 Ne 65th St",
    "active": false,
    "unitCount": 2,
    "severity": 0,
    "lat": 47.675841,
    "long": -122.318701,
    "neighborhood": "Green Lake",
    "neighborhoodGroup": "Northwest",
    "units": "E17 L9"
  },
  {
    "id_str": "F210120387",
    "created_at": "10/30/2021 6:53:13 PM",
    "timestamp": 1635645193000,
    "description": "Auto Fire Alarm",
    "address": "909 4th Ave",
    "active": false,
    "unitCount": 1,
    "severity": 0,
    "lat": 47.605432,
    "long": -122.33231,
    "neighborhood": "Downtown Commercial Core",
    "neighborhoodGroup": "Downtown",
    "units": "E10"
  },
  {
    "id_str": "F210120386",
    "created_at": "10/30/2021 6:50:52 PM",
    "timestamp": 1635645052000,
    "description": "Aid Response",
    "address": "7605 Rainier Ave S",
    "active": false,
    "unitCount": 1,
    "severity": 0,
    "lat": 47.534478,
    "long": -122.269989,
    "neighborhood": "Seward Park",
    "neighborhoodGroup": "Southeast",
    "units": "E28"
  },
  {
    "id_str": "F210120385",
    "created_at": "10/30/2021 6:48:57 PM",
    "timestamp": 1635644937000,
    "description": "Medic Response",
    "address": "6415 32nd Ave Nw",
    "active": false,
    "unitCount": 2,
    "severity": 0,
    "lat": 47.675198,
    "long": -122.39838,
    "neighborhood": "Sunset Hill/Loyal Heights",
    "neighborhoodGroup": "Ballard",
    "units": "E18 M18"
  },
  {
    "id_str": "F210120384",
    "created_at": "10/30/2021 6:41:13 PM",
    "timestamp": 1635644473000,
    "description": "Aid Response",
    "address": "900 Ne 65th St",
    "active": false,
    "unitCount": 1,
    "severity": 0,
    "lat": 47.675841,
    "long": -122.318701,
    "neighborhood": "Green Lake",
    "neighborhoodGroup": "Northwest",
    "units": "E17"
  },
  {
    "id_str": "F210120383",
    "created_at": "10/30/2021 6:39:07 PM",
    "timestamp": 1635644347000,
    "description": "Aid Response",
    "address": "100 W Harrison St",
    "active": false,
    "unitCount": 1,
    "severity": 0,
    "lat": 47.622113,
    "long": -122.358035,
    "neighborhood": "Queen Anne",
    "neighborhoodGroup": "Magnolia/Queen Anne",
    "units": "L6"
  },
  {
    "id_str": "F210120382",
    "created_at": "10/30/2021 6:38:21 PM",
    "timestamp": 1635644301000,
    "description": "Natural Gas Odor",
    "address": "6th Ave S / S Michigan St",
    "active": false,
    "unitCount": 1,
    "severity": 0,
    "lat": 47.54625,
    "long": -122.326153,
    "neighborhood": "Georgetown",
    "neighborhoodGroup": "Greater Duwamish",
    "units": "R1"
  },
  {
    "id_str": "F210120379",
    "created_at": "10/30/2021 6:35:47 PM",
    "timestamp": 1635644147000,
    "description": "Car Fire",
    "address": "6356 Delridge Way Sw",
    "active": false,
    "unitCount": 1,
    "severity": 0,
    "lat": 47.545483,
    "long": -122.362059,
    "neighborhood": "Riverview",
    "neighborhoodGroup": "Delridge Neighborhoods",
    "units": "E11"
  },
  {
    "id_str": "F210120378",
    "created_at": "10/30/2021 6:34:35 PM",
    "timestamp": 1635644075000,
    "description": "Aid Response",
    "address": "9242 2nd Ave Nw",
    "active": false,
    "unitCount": 1,
    "severity": 0,
    "lat": 47.69629,
    "long": -122.359382,
    "neighborhood": "Greenwood/Phinney Ridge",
    "neighborhoodGroup": "Northwest",
    "units": "E35"
  },
  {
    "id_str": "F210120376",
    "created_at": "10/30/2021 6:28:55 PM",
    "timestamp": 1635643735000,
    "description": "Low Acuity Response",
    "address": "2008 Westlake Ave",
    "active": false,
    "unitCount": 1,
    "severity": 0,
    "lat": 47.615007,
    "long": -122.337781,
    "neighborhood": "Cascade/Eastlake",
    "neighborhoodGroup": "Lake Union",
    "units": "L4"
  },
  {
    "id_str": "F210120374",
    "created_at": "10/30/2021 6:27:38 PM",
    "timestamp": 1635643658000,
    "description": "Aid Response",
    "address": "Bell St / 6th Ave",
    "active": false,
    "unitCount": 2,
    "severity": 0,
    "lat": 47.616698,
    "long": -122.342214,
    "neighborhood": "Cascade/Eastlake",
    "neighborhoodGroup": "Lake Union",
    "units": "E2 M10"
  },
  {
    "id_str": "F210120373",
    "created_at": "10/30/2021 6:22:37 PM",
    "timestamp": 1635643357000,
    "description": "Auto Fire Alarm",
    "address": "2237 N 106th St",
    "active": false,
    "unitCount": 1,
    "severity": 0,
    "lat": 47.70593,
    "long": -122.332098,
    "neighborhood": "Northgate/Maple Leaf",
    "neighborhoodGroup": "North",
    "units": "L5"
  },
  {
    "id_str": "F210120371",
    "created_at": "10/30/2021 6:20:44 PM",
    "timestamp": 1635643244000,
    "description": "Rubbish Fire",
    "address": "17th Ave Ne / Ne 143rd St",
    "active": false,
    "unitCount": 1,
    "severity": 0,
    "lat": 47.732097,
    "long": -122.310026,
    "neighborhood": "Olympic Hills/Victory Heights",
    "neighborhoodGroup": "North",
    "units": "E24"
  },
  {
    "id_str": "F210120368",
    "created_at": "10/30/2021 6:09:44 PM",
    "timestamp": 1635642584000,
    "description": "Medic Response",
    "address": "13716 Lake City Way Ne",
    "active": false,
    "unitCount": 2,
    "severity": 0,
    "lat": 47.72838,
    "long": -122.292253,
    "neighborhood": "Cedar Park/Meadowbrook",
    "neighborhoodGroup": "North",
    "units": "E39 M1"
  },
  {
    "id_str": "F210120365",
    "created_at": "10/30/2021 6:06:35 PM",
    "timestamp": 1635642395000,
    "description": "Medic Response",
    "address": "8104 23rd Ave Ne",
    "active": false,
    "unitCount": 2,
    "severity": 0,
    "lat": 47.68788,
    "long": -122.302944,
    "neighborhood": "Ravenna/Bryant",
    "neighborhoodGroup": "Northeast",
    "units": "E40 M31"
  },
  {
    "id_str": "F210120367",
    "created_at": "10/30/2021 6:06:05 PM",
    "timestamp": 1635642365000,
    "description": "Auto Fire Alarm",
    "address": "6701 Seaview Ave Nw",
    "active": false,
    "unitCount": 1,
    "severity": 0,
    "lat": 47.677033,
    "long": -122.40629,
    "neighborhood": "Sunset Hill/Loyal Heights",
    "neighborhoodGroup": "Ballard",
    "units": "E20"
  },
  {
    "id_str": "F210120363",
    "created_at": "10/30/2021 6:02:26 PM",
    "timestamp": 1635642146000,
    "description": "Medic Response",
    "address": "128 Ne 57th St",
    "active": false,
    "unitCount": 2,
    "severity": 0,
    "lat": 47.670113,
    "long": -122.327864,
    "neighborhood": "Wallingford",
    "neighborhoodGroup": "Lake Union",
    "units": "E17 M17"
  },