[
  {
    "id_str": "F210096607",
    "created_at": "9/2/2021 4:53:44 PM",
    "timestamp": 1630626824000,
    "description": "Aid Response",
    "address": "3000 Nw Market St",
    "active": false,
    "unitCount": 1,
    "severity": 0,
    "lat": 47.668643,
    "long": -122.395644,
    "neighborhood": "Sunset Hill/Loyal Heights",
    "neighborhoodGroup": "Ballard",
    "units": "E18"
  },
  {
    "id_str": "F210096606",
    "created_at": "9/2/2021 4:50:30 PM",
    "timestamp": 1630626630000,
    "description": "Single Medic Unit",
    "address": "4500 40th Ave Ne",
    "active": false,
    "unitCount": 2,
    "severity": 0,
    "lat": 47.661266,
    "long": -122.284754,
    "neighborhood": "Laurelhurst/Sand Point",
    "neighborhoodGroup": "Northeast",
    "units": "E38 M18"
  },
  {
    "id_str": "F210096600",
    "created_at": "9/2/2021 4:26:03 PM",
    "timestamp": 1630625163000,
    "description": "Medic Response",
    "address": "Sb I5 At 45",
    "active": false,
    "unitCount": 4,
    "severity": 0,
    "lat": 47.65722,
    "long": -122.322633,
    "neighborhood": "Wallingford",
    "neighborhoodGroup": "Lake Union",
    "units": "A25 E16 E31 M17"
  },
  {
    "id_str": "F210096598",
    "created_at": "9/2/2021 4:25:02 PM",
    "timestamp": 1630625102000,
    "description": "Low Acuity Response",
    "address": "3621 33rd Ave S",
    "active": false,
    "unitCount": 1,
    "severity": 0,
    "lat": 47.571408,
    "long": -122.291001,
    "neighborhood": "Columbia City",
    "neighborhoodGroup": "Southeast",
    "units": "E30"
  },
  {
    "id_str": "F210096597",
    "created_at": "9/2/2021 4:24:53 PM",
    "timestamp": 1630625093000,
    "description": "Medic Response",
    "address": "2nd Ave S / S Jackson St",
    "active": false,
    "unitCount": 2,
    "severity": 0,
    "lat": 47.599201,
    "long": -122.331578,
    "neighborhood": "Duwamish/SODO",
    "neighborhoodGroup": "Greater Duwamish",
    "units": "A10 M10"
  },
  {
    "id_str": "F210096596",
    "created_at": "9/2/2021 4:23:37 PM",
    "timestamp": 1630625017000,
    "description": "AFA4 - Auto Alarm 2 + 1 + 1",
    "address": "1001 E James Way",
    "active": false,
    "unitCount": 4,
    "severity": 0,
    "lat": 47.607834,
    "long": -122.319302,
    "neighborhood": "First Hill",
    "neighborhoodGroup": "East",
    "units": "B2 E10 E25 L10"
  },
  {
    "id_str": "F210096595",
    "created_at": "9/2/2021 4:22:59 PM",
    "timestamp": 1630624979000,
    "description": "Aid Response",
    "address": "3rd Ave W / W Fulton St",
    "active": false,
    "unitCount": 1,
    "severity": 0,
    "lat": 47.645803,
    "long": -122.360896,
    "neighborhood": "Queen Anne",
    "neighborhoodGroup": "Magnolia/Queen Anne",
    "units": "E20"
  },
  {
    "id_str": "F210096593",
    "created_at": "9/2/2021 4:19:58 PM",
    "timestamp": 1630624798000,
    "description": "Aid Response",
    "address": "10306 Meridian Ave N",
    "active": false,
    "unitCount": 1,
    "severity": 0,
    "lat": 47.703266,
    "long": -122.333904,
    "neighborhood": "Northgate/Maple Leaf",
    "neighborhoodGroup": "North",
    "units": "A31"
  },
  {
    "id_str": "F210096592",
    "created_at": "9/2/2021 4:18:54 PM",
    "timestamp": 1630624734000,
    "description": "Aid Response",
    "address": "3745 Sw Ida St",
    "active": false,
    "unitCount": 1,
    "severity": 0,
    "lat": 47.534197,
    "long": -122.379889,
    "neighborhood": "Roxhill/Westwood",
    "neighborhoodGroup": "Delridge Neighborhoods",
    "units": "E37"
  },
  {
    "id_str": "F210096591",
    "created_at": "9/2/2021 4:18:16 PM",
    "timestamp": 1630624696000,
    "description": "Auto Fire Alarm",
    "address": "703 Columbia St",
    "active": false,
    "unitCount": 2,
    "severity": 0,
    "lat": 47.606067,
    "long": -122.328243,
    "neighborhood": "First Hill",
    "neighborhoodGroup": "East",
    "units": "E10 L1"
  },
  {
    "id_str": "F210096590",
    "created_at": "9/2/2021 4:12:35 PM",
    "timestamp": 1630624355000,
    "description": "Aid Response",
    "address": "1411 S Concord St",
    "active": false,
    "unitCount": 1,
    "severity": 0,
    "lat": 47.523892,
    "long": -122.314927,
    "neighborhood": "South Park",
    "neighborhoodGroup": "Greater Duwamish",
    "units": "E26"
  },
  {
    "id_str": "F210096589",
    "created_at": "9/2/2021 4:11:37 PM",
    "timestamp": 1630624297000,
    "description": "Medic Response",
    "address": "1800 9th Ave",
    "active": false,
    "unitCount": 2,
    "severity": 0,
    "lat": 47.614821,
    "long": -122.333167,
    "neighborhood": "Cascade/Eastlake",
    "neighborhoodGroup": "Lake Union",
    "units": "A4 M1"
  },
  {
    "id_str": "F210096588",
    "created_at": "9/2/2021 4:08:45 PM",
    "timestamp": 1630624125000,
    "description": "Aid Response",
    "address": "1423 3rd Ave",
    "active": false,
    "unitCount": 1,
    "severity": 0,
    "lat": 47.608979,
    "long": -122.337089,
    "neighborhood": "Downtown Commercial Core",
    "neighborhoodGroup": "Downtown",
    "units": "A5"
  },
  {
    "id_str": "F210096587",
    "created_at": "9/2/2021 4:05:49 PM",
    "timestamp": 1630623949000,
    "description": "Aid Response",
    "address": "2418 Nw 56th St",
    "active": false,
    "unitCount": 1,
    "severity": 0,
    "lat": 47.669458,
    "long": -122.387807,
    "neighborhood": "Sunset Hill/Loyal Heights",
    "neighborhoodGroup": "Ballard",
    "units": "E18"
  },
  {
    "id_str": "F210096586",
    "created_at": "9/2/2021 4:01:02 PM",
    "timestamp": 1630623662000,
    "description": "Aid Response",
    "address": "5010 14th Ave Nw",
    "active": false,
    "unitCount": 1,
    "severity": 0,
    "lat": 47.665106,
    "long": -122.373592,
    "neighborhood": "Ballard",
    "neighborhoodGroup": "Ballard",
    "units": "E9"
  },
  {
    "id_str": "F210096585",
    "created_at": "9/2/2021 3:54:48 PM",
    "timestamp": 1630623288000,
    "description": "Medic Response",
    "address": "4745 17th Ave Ne",
    "active": false,
    "unitCount": 3,
    "severity": 0,
    "lat": 47.663326,
    "long": -122.309682,
    "neighborhood": "University District",
    "neighborhoodGroup": "Northeast",
    "units": "E31 L9 M17"
  },
  {
    "id_str": "F210096584",
    "created_at": "9/2/2021 3:39:47 PM",
    "timestamp": 1630622387000,
    "description": "Low Acuity Response",
    "address": "1004 W Armour St",
    "active": false,
    "unitCount": 1,
    "severity": 0,
    "lat": 47.645031,
    "long": -122.370511,
    "neighborhood": "Queen Anne",
    "neighborhoodGroup": "Magnolia/Queen Anne",
    "units": "H2"
  },
  {
    "id_str": "F210096581",
    "created_at": "9/2/2021 3:32:09 PM",
    "timestamp": 1630621929000,
    "description": "Auto Fire Alarm",
    "address": "412 Broadway",
    "active": false,
    "unitCount": 2,
    "severity": 0,
    "lat": 47.605336,
    "long": -122.32075,
    "neighborhood": "First Hill",
    "neighborhoodGroup": "East",
    "units": "E25 L1"
  },
  {
    "id_str": "F210096582",
    "created_at": "9/2/2021 3:31:52 PM",
    "timestamp": 1630621912000,
    "description": "Water Rescue Response",
    "address": "4401 West Point Ave W",
    "active": false,
    "unitCount": 15,
    "severity": 2,
    "lat": 47.661289,
    "long": -122.430783,
    "neighborhood": "Magnolia",
    "neighborhoodGroup": "Magnolia/Queen Anne",
    "units": "A14 B4 B6 E18 E20 E41 E5 FB2 FIREBOAT FRB5 L8 M18 PTRL4 R1 SAFT2"
  },
  {
    "id_str": "F210096580",
    "created_at": "9/2/2021 3:30:30 PM",
    "timestamp": 1630621830000,
    "description": "Aid Response",
    "address": "4800 Sand Point Way Ne",
    "active": false,
    "unitCount": 1,
    "severity": 0,
    "lat": 47.664275,
    "long": -122.283475,
    "neighborhood": "Laurelhurst/Sand Point",
    "neighborhoodGroup": "Northeast",
    "units": "E31"
  },
  {
    "id_str": "F210096579",
    "created_at": "9/2/2021 3:29:42 PM",
    "timestamp": 1630621782000,
    "description": "Aid Response",
    "address": "2519 1st Ave",
    "active": false,
    "unitCount": 1,
    "severity": 0,
    "lat": 47.614798,
    "long": -122.348918,
    "neighborhood": "Belltown",
    "neighborhoodGroup": "Downtown",
    "units": "A4"
  },
  {
    "id_str": "F210096578",
    "created_at": "9/2/2021 3:25:11 PM",
    "timestamp": 1630621511000,
    "description": "Aid Response",
    "address": "5300 24th Ave Ne",
    "active": false,
    "unitCount": 1,
    "severity": 0,
    "lat": 47.66707,
    "long": -122.301946,
    "neighborhood": "Ravenna/Bryant",
    "neighborhoodGroup": "Northeast",
    "units": "E38"
  },
  {
    "id_str": "F210096576",
    "created_at": "9/2/2021 3:18:56 PM",
    "timestamp": 1630621136000,
    "description": "Auto Fire Alarm",
    "address": "1035 Ne Campus Pkwy",
    "active": false,
    "unitCount": 2,
    "severity": 0,
    "lat": 47.65602,
    "long": -122.317458,
    "neighborhood": "University District",
    "neighborhoodGroup": "Northeast",
    "units": "E17 L9"
  },
  {
    "id_str": "F210096575",
    "created_at": "9/2/2021 3:18:18 PM",
    "timestamp": 1630621098000,
    "description": "Aid Response",
    "address": "500 5th Ave",
    "active": false,
    "unitCount": 1,
    "severity": 0,
    "lat": 47.602985,
    "long": -122.328535,
    "neighborhood": "First Hill",
    "neighborhoodGroup": "East",
    "units": "A10"
  },
  {
    "id_str": "F210096573",
    "created_at": "9/2/2021 3:13:27 PM",
    "timestamp": 1630620807000,
    "description": "Medic Response",
    "address": "9410 51st Ave S",
    "active": false,
    "unitCount": 3,
    "severity": 0,
    "lat": 47.517867,
    "long": -122.270011,
    "neighborhood": "Rainier Beach",
    "neighborhoodGroup": "Southeast",
    "units": "E33 M28 M44"
  },
  {
    "id_str": "F210096572",
    "created_at": "9/2/2021 3:10:05 PM",
    "timestamp": 1630620605000,
    "description": "Medic Response",
    "address": "1145 Broadway",
    "active": false,
    "unitCount": 2,
    "severity": 0,
    "lat": 47.611511,
    "long": -122.32076,
    "neighborhood": "Capitol Hill",
    "neighborhoodGroup": "East",
    "units": "A25 M10"
  },
  {
    "id_str": "F210096571",
    "created_at": "9/2/2021 3:08:36 PM",
    "timestamp": 1630620516000,
    "description": "Aid Response",
    "address": "611 12th Ave S",
    "active": false,
    "unitCount": 2,
    "severity": 0,
    "lat": 47.597409,
    "long": -122.317227,
    "neighborhood": "Pioneer Square/International District",
    "neighborhoodGroup": "Downtown",
    "units": "A5 H1"
  },
  {
    "id_str": "F210096570",
    "created_at": "9/2/2021 3:07:47 PM",
    "timestamp": 1630620467000,
    "description": "Aid Response",
    "address": "5801 East Marginal Way S",
    "active": false,
    "unitCount": 1,
    "severity": 0,
    "lat": 47.551197,
    "long": -122.335845,
    "neighborhood": "Georgetown",
    "neighborhoodGroup": "Greater Duwamish",
    "units": "E27"
  },
  {
    "id_str": "F210096569",
    "created_at": "9/2/2021 3:03:40 PM",
    "timestamp": 1630620220000,
    "description": "Aid Response",
    "address": "1901 Western Ave",
    "active": false,
    "unitCount": 1,
    "severity": 0,
    "lat": 47.610056,
    "long": -122.34329,
    "neighborhood": "Downtown Commercial Core",
    "neighborhoodGroup": "Downtown",
    "units": "E5"
  },
  {
    "id_str": "F210096568",
    "created_at": "9/2/2021 3:02:26 PM",
    "timestamp": 1630620146000,
    "description": "Low Acuity Response",
    "address": "300 Nw 80th St",
    "active": false,
    "unitCount": 1,
    "severity": 0,
    "lat": 47.686939,
    "long": -122.36065,
    "neighborhood": "Greenwood/Phinney Ridge",
    "neighborhoodGroup": "Northwest",
    "units": "E21"
  },
  {
    "id_str": "F210096567",
    "created_at": "9/2/2021 2:57:31 PM",
    "timestamp": 1630619851000,
    "description": "Aid Response",
    "address": "4502 Sw Wildwood Pl",
    "active": false,
    "unitCount": 1,
    "severity": 0,
    "lat": 47.52079,
    "long": -122.390232,
    "neighborhood": "Fauntleroy/Seaview",
    "neighborhoodGroup": "Southwest",
    "units": "L13"
  },
  {
    "id_str": "F210096566",
    "created_at": "9/2/2021 2:54:08 PM",
    "timestamp": 1630619648000,
    "description": "Aid Response",
    "address": "9430 30th Ave Sw",
    "active": false,
    "unitCount": 1,
    "severity": 0,
    "lat": 47.517943,
    "long": -122.371386,
    "neighborhood": "Roxhill/Westwood",
    "neighborhoodGroup": "Delridge Neighborhoods",
    "units": "E37"
  },
  {
    "id_str": "F210096565",
    "created_at": "9/2/2021 2:53:24 PM",
    "timestamp": 1630619604000,
    "description": "Aid Response",
    "address": "9416 Rainier Ave S",
    "active": false,
    "unitCount": 1,
    "severity": 0,
    "lat": 47.519928,
    "long": -122.264319,
    "neighborhood": "Rainier Beach",
    "neighborhoodGroup": "Southeast",
    "units": "E28"
  },
  {
    "id_str": "F210096564",
    "created_at": "9/2/2021 2:51:47 PM",
    "timestamp": 1630619507000,
    "description": "Aid Response",
    "address": "9410 51st Ave S",
    "active": false,
    "unitCount": 1,
    "severity": 0,
    "lat": 47.517867,
    "long": -122.270011,
    "neighborhood": "Rainier Beach",
    "neighborhoodGroup": "Southeast",
    "units": "E33"
  },
  {
    "id_str": "F210096563",
    "created_at": "9/2/2021 2:51:12 PM",
    "timestamp": 1630619472000,
    "description": "Aid Response",
    "address": "23rd Ave / E Cherry St",
    "active": false,
    "unitCount": 1,
    "severity": 0,
    "lat": 47.608009,
    "long": -122.30277,
    "neighborhood": "Central Area/Squire Park",
    "neighborhoodGroup": "Central",
    "units": "E6"
  },
  {
    "id_str": "F210096559",
    "created_at": "9/2/2021 2:44:26 PM",
    "timestamp": 1630619066000,
    "description": "Auto Fire Alarm",
    "address": "201 Yesler Way",
    "active": false,
    "unitCount": 2,
    "severity": 0,
    "lat": 47.601719,
    "long": -122.331966,
    "neighborhood": "Downtown Commercial Core",
    "neighborhoodGroup": "Downtown",
    "units": "E10 L1"
  },
  {
    "id_str": "F210096558",
    "created_at": "9/2/2021 2:41:49 PM",
    "timestamp": 1630618909000,
    "description": "Low Acuity Response",
    "address": "11501 15th Ave Ne",
    "active": false,
    "unitCount": 1,
    "severity": 0,
    "lat": 47.712167,
    "long": -122.312433,
    "neighborhood": "Olympic Hills/Victory Heights",
    "neighborhoodGroup": "North",
    "units": "E39"
  },
  {
    "id_str": "F210096556",
    "created_at": "9/2/2021 2:38:48 PM",
    "timestamp": 1630618728000,
    "description": "Aid Response",
    "address": "1533 Western Ave",
    "active": false,
    "unitCount": 1,
    "severity": 0,
    "lat": 47.608682,
    "long": -122.341421,
    "neighborhood": "Downtown Commercial Core",
    "neighborhoodGroup": "Downtown",
    "units": "E5"
  },
  {
    "id_str": "F210096555",
    "created_at": "9/2/2021 2:38:29 PM",
    "timestamp": 1630618709000,
    "description": "Aid Response",
    "address": "7322 Rainier Ave S",
    "active": false,
    "unitCount": 1,
    "severity": 0,
    "lat": 47.536727,
    "long": -122.27022,
    "neighborhood": "Seward Park",
    "neighborhoodGroup": "Southeast",
    "units": "E28"
  },
  {
    "id_str": "F210096554",
    "created_at": "9/2/2021 2:37:19 PM",
    "timestamp": 1630618639000,
    "description": "Auto Fire Alarm",
    "address": "100 Melrose Ave E",
    "active": false,
    "unitCount": 2,
    "severity": 0,
    "lat": 47.618497,
    "long": -122.327854,
    "neighborhood": "Capitol Hill",
    "neighborhoodGroup": "East",
    "units": "E25 L10"
  },
  {
    "id_str": "F210096553",
    "created_at": "9/2/2021 2:37:00 PM",
    "timestamp": 1630618620000,
    "description": "Medic Response, 6 per Rule",
    "address": "1835 41st Ave E",
    "active": false,
    "unitCount": 3,
    "severity": 0,
    "lat": 47.635098,
    "long": -122.279652,
    "neighborhood": "Madison Park",
    "neighborhoodGroup": "East",
    "units": "A25 E34 M1"
  },
  {
    "id_str": "F210096550",
    "created_at": "9/2/2021 2:22:03 PM",
    "timestamp": 1630617723000,
    "description": "Medic Response",
    "address": "8008 38th Ave Ne",
    "active": false,
    "unitCount": 2,
    "severity": 0,
    "lat": 47.68673,
    "long": -122.28741,
    "neighborhood": "Wedgwood/View Ridge",
    "neighborhoodGroup": "Northeast",
    "units": "E40 M17"
  },
  {
    "id_str": "F210096549",
    "created_at": "9/2/2021 2:21:04 PM",
    "timestamp": 1630617664000,
    "description": "Aid Response",
    "address": "235 Bellevue Ave E",
    "active": false,
    "unitCount": 1,
    "severity": 0,
    "lat": 47.620039,
    "long": -122.326574,
    "neighborhood": "Capitol Hill",
    "neighborhoodGroup": "East",
    "units": "A25"
  },
  {
    "id_str": "F210096547",
    "created_at": "9/2/2021 2:13:24 PM",
    "timestamp": 1630617204000,
    "description": "Aid Response",
    "address": "600 Sw Kenyon St",
    "active": false,
    "unitCount": 1,
    "severity": 0,
    "lat": 47.531953,
    "long": -122.343095,
    "neighborhood": "Highland Park",
    "neighborhoodGroup": "Delridge Neighborhoods",
    "units": "E11"
  },
  {
    "id_str": "F210096546",
    "created_at": "9/2/2021 2:07:48 PM",
    "timestamp": 1630616868000,
    "description": "Aid Response",
    "address": "26th Ave Sw / Sw Andover St",
    "active": false,
    "unitCount": 1,
    "severity": 0,
    "lat": 47.568344,
    "long": -122.365429,
    "neighborhood": "North Delridge",
    "neighborhoodGroup": "Delridge Neighborhoods",
    "units": "E32"
  },
  {
    "id_str": "F210096545",
    "created_at": "9/2/2021 2:06:52 PM",
    "timestamp": 1630616812000,
    "description": "Aid Response",
    "address": "12545 Roosevelt Way Ne",
    "active": false,
    "unitCount": 1,
    "severity": 0,
    "lat": 47.719938,
    "long": -122.318494,
    "neighborhood": "Olympic Hills/Victory Heights",
    "neighborhoodGroup": "North",
    "units": "E39"
  },
  {
    "id_str": "F210096544",
    "created_at": "9/2/2021 1:55:12 PM",
    "timestamp": 1630616112000,
    "description": "Aid Response",
    "address": "112 5th Ave N",
    "active": false,
    "unitCount": 1,
    "severity": 0,
    "lat": 47.618702,
    "long": -122.34762,
    "neighborhood": "Cascade/Eastlake",
    "neighborhoodGroup": "Lake Union",
    "units": "A2"
  },
  {
    "id_str": "F210096543",
    "created_at": "9/2/2021 1:52:41 PM",
    "timestamp": 1630615961000,
    "description": "Low Acuity Response",
    "address": "6727 Beacon Ave S",
    "active": false,
    "unitCount": 1,
    "severity": 0,
    "lat": 47.542554,
    "long": -122.299452,
    "neighborhood": "South Beacon Hill/NewHolly",
    "neighborhoodGroup": "Greater Duwamish",
    "units": "E28"
  },
  {
    "id_str": "F210096542",
    "created_at": "9/2/2021 1:51:36 PM",
    "timestamp": 1630615896000,
    "description": "Advised Incident",
    "address": "1520 Melrose Ave",
    "active": false,
    "unitCount": 2,
    "severity": 0,
    "units": "A25 M1"
  },
  {
    "id_str": "F210096540",
    "created_at": "9/2/2021 1:50:50 PM",
    "timestamp": 1630615850000,
    "description": "Auto Fire Alarm",
    "address": "1704 Ne Columbia Rd",
    "active": false,
    "unitCount": 4,
    "severity": 0,
    "lat": 47.650205,
    "long": -122.310398,
    "neighborhood": "University District",
    "neighborhoodGroup": "Northeast",
    "units": "B6 E17 E31 L9"
  },
  {
    "id_str": "F210096539",
    "created_at": "9/2/2021 1:50:27 PM",
    "timestamp": 1630615827000,
    "description": "Aid Response",
    "address": "1902 2nd Ave",
    "active": false,
    "unitCount": 1,
    "severity": 0,
    "lat": 47.610972,
    "long": -122.340465,
    "neighborhood": "Belltown",
    "neighborhoodGroup": "Downtown",
    "units": "A4"
  },
  {
    "id_str": "F210096535",
    "created_at": "9/2/2021 1:39:37 PM",
    "timestamp": 1630615177000,
    "description": "Aid Response",
    "address": "9200 2nd Ave Sw",
    "active": false,
    "unitCount": 1,
    "severity": 0,
    "lat": 47.521244,
    "long": -122.336301,
    "neighborhood": "Highland Park",
    "neighborhoodGroup": "Delridge Neighborhoods",
    "units": "E26"
  },
  {
    "id_str": "F210096534",
    "created_at": "9/2/2021 1:38:24 PM",
    "timestamp": 1630615104000,
    "description": "Aid Response",
    "address": "4411 Leary Way Nw",
    "active": false,
    "unitCount": 1,
    "severity": 0,
    "lat": 47.660582,
    "long": -122.366296,
    "neighborhood": "Ballard",
    "neighborhoodGroup": "Ballard",
    "units": "L8"
  },
  {
    "id_str": "F210096537",
    "created_at": "9/2/2021 1:37:55 PM",
    "timestamp": 1630615075000,
    "description": "Medic Response",
    "address": "9TH AVE / FIR ST",
    "active": false,
    "unitCount": 2,
    "severity": 0,
    "lat": 47.601703,
    "long": -122.322447,
    "neighborhood": "First Hill",
    "neighborhoodGroup": "East",
    "units": "A10 M10"
  },
  {
    "id_str": "F210096532",
    "created_at": "9/2/2021 1:32:29 PM",
    "timestamp": 1630614749000,
    "description": "Auto Fire Alarm",
    "address": "431 Boylston Ave E",
    "active": false,
    "unitCount": 2,
    "severity": 0,
    "lat": 47.622348,
    "long": -122.32307,
    "neighborhood": "Capitol Hill",
    "neighborhoodGroup": "East",
    "units": "E25 L10"
  },
  {
    "id_str": "F210096531",
    "created_at": "9/2/2021 1:31:38 PM",
    "timestamp": 1630614698000,
    "description": "Low Acuity Response",
    "address": "13000 Linden Ave N",
    "active": false,
    "unitCount": 1,
    "severity": 0,
    "lat": 47.723218,
    "long": -122.348195,
    "neighborhood": "Broadview/Bitter Lake",
    "neighborhoodGroup": "Northwest",
    "units": "A31"
  },
  {
    "id_str": "F210096530",
    "created_at": "9/2/2021 1:28:50 PM",
    "timestamp": 1630614530000,
    "description": "Investigate Out Of Service",
    "address": "2806 Ne 127th St",
    "active": false,
    "unitCount": 1,
    "severity": 0,
    "lat": 47.721102,
    "long": -122.297679,
    "neighborhood": "Olympic Hills/Victory Heights",
    "neighborhoodGroup": "North",
    "units": "E39"
  },
  {
    "id_str": "F210096529",
    "created_at": "9/2/2021 1:23:09 PM",
    "timestamp": 1630614189000,
    "description": "Auto Fire Alarm",
    "address": "8551 Greenwood Ave N",
    "active": false,
    "unitCount": 2,
    "severity": 0,
    "lat": 47.691539,
    "long": -122.355307,
    "neighborhood": "Greenwood/Phinney Ridge",
    "neighborhoodGroup": "Northwest",
    "units": "E21 L5"
  },
  {
    "id_str": "F210096528",
    "created_at": "9/2/2021 1:21:19 PM",
    "timestamp": 1630614079000,
    "description": "Aid Response",
    "address": "5700 24th Ave Nw",
    "active": false,
    "unitCount": 1,
    "severity": 0,
    "lat": 47.670187,
    "long": -122.387587,
    "neighborhood": "Sunset Hill/Loyal Heights",
    "neighborhoodGroup": "Ballard",
    "units": "E18"
  },
  {
    "id_str": "F210096527",
    "created_at": "9/2/2021 1:19:30 PM",
    "timestamp": 1630613970000,
    "description": "Low Acuity Response",
    "address": "1717 Belmont Ave",
    "active": false,
    "unitCount": 2,
    "severity": 0,
    "lat": 47.616576,
    "long": -122.32449,
    "neighborhood": "Capitol Hill",
    "neighborhoodGroup": "East",
    "units": "H1 H2"
  },
  {
    "id_str": "F210096526",
    "created_at": "9/2/2021 1:18:41 PM",
    "timestamp": 1630613921000,
    "description": "Aid Response",
    "address": "715 SPRING ST",
    "active": false,
    "unitCount": 1,
    "severity": 0,
    "lat": 47.608268,
    "long": -122.330056,
    "neighborhood": "First Hill",
    "neighborhoodGroup": "East",
    "units": "A5"
  },
  {
    "id_str": "F210096524",
    "created_at": "9/2/2021 1:16:35 PM",
    "timestamp": 1630613795000,
    "description": "Aid Response",
    "address": "1715 Harvard Ave",
    "active": false,
    "unitCount": 1,
    "severity": 0,
    "lat": 47.616561,
    "long": -122.322152,
    "neighborhood": "Capitol Hill",
    "neighborhoodGroup": "East",
    "units": "A25"
  },
  {
    "id_str": "F210096523",
    "created_at": "9/2/2021 1:09:09 PM",
    "timestamp": 1630613349000,
    "description": "Low Acuity Response",
    "address": "1405 24th Ave",
    "active": false,
    "unitCount": 2,
    "severity": 0,
    "lat": 47.612995,
    "long": -122.301416,
    "neighborhood": "Central Area/Squire Park",
    "neighborhoodGroup": "Central",
    "units": "E34 H1"
  },
  {
    "id_str": "F210096522",
    "created_at": "9/2/2021 1:06:50 PM",
    "timestamp": 1630613210000,
    "description": "MVI - Motor Vehicle Incident",
    "address": "Ne Pacific St / 15th Ave Ne",
    "active": false,
    "unitCount": 1,
    "severity": 0,
    "lat": 47.652976,
    "long": -122.312464,
    "neighborhood": "University District",
    "neighborhoodGroup": "Northeast",
    "units": "E31"
  },
  {
    "id_str": "F210096521",
    "created_at": "9/2/2021 1:04:12 PM",
    "timestamp": 1630613052000,
    "description": "Aid Response",
    "address": "2352 Nw 67th St",
    "active": false,
    "unitCount": 1,
    "severity": 0,
    "lat": 47.6777,
    "long": -122.386433,
    "neighborhood": "Whittier Heights",
    "neighborhoodGroup": "Ballard",
    "units": "E18"
  },
  {
    "id_str": "F210096520",
    "created_at": "9/2/2021 1:03:20 PM",
    "timestamp": 1630613000000,
    "description": "Aid Response",
    "address": "5727 37th Ave S",
    "active": false,
    "unitCount": 1,
    "severity": 0,
    "lat": 47.551024,
    "long": -122.286266,
    "neighborhood": "Columbia City",
    "neighborhoodGroup": "Southeast",
    "units": "E28"
  },
  {
    "id_str": "F210096518",
    "created_at": "9/2/2021 12:56:22 PM",
    "timestamp": 1630612582000,
    "description": "Auto Fire Alarm",
    "address": "4295 East Stevens Way Ne",
    "active": false,
    "unitCount": 2,
    "severity": 0,
    "lat": 47.659389,
    "long": -122.306902,
    "neighborhood": "University District",
    "neighborhoodGroup": "Northeast",
    "units": "E31 L9"
  },
  {
    "id_str": "F210096514",
    "created_at": "9/2/2021 12:45:48 PM",
    "timestamp": 1630611948000,
    "description": "Rubbish Fire",
    "address": "12513 Lake City Way Ne",
    "active": false,
    "unitCount": 1,
    "severity": 0,
    "lat": 47.719389,
    "long": -122.295168,
    "neighborhood": "Cedar Park/Meadowbrook",
    "neighborhoodGroup": "North",
    "units": "E39"
  },
  {
    "id_str": "F210096513",
    "created_at": "9/2/2021 12:44:41 PM",
    "timestamp": 1630611881000,
    "description": "Aid Response",
    "address": "800 Occidental Ave S",
    "active": false,
    "unitCount": 1,
    "severity": 0,
    "lat": 47.595693,
    "long": -122.333273,
    "neighborhood": "Duwamish/SODO",
    "neighborhoodGroup": "Greater Duwamish",
    "units": "A10"
  },
  {
    "id_str": "F210096511",
    "created_at": "9/2/2021 12:36:05 PM",
    "timestamp": 1630611365000,
    "description": "Medic Response",
    "address": "1517 Pike Pl",
    "active": false,
    "unitCount": 2,
    "severity": 0,
    "lat": 47.608797,
    "long": -122.340755,
    "neighborhood": "Downtown Commercial Core",
    "neighborhoodGroup": "Downtown",
    "units": "E5 M1"
  },
  {
    "id_str": "F210096510",
    "created_at": "9/2/2021 12:33:45 PM",
    "timestamp": 1630611225000,
    "description": "Auto Fire Alarm",
    "address": "4746 19th Ave Ne",
    "active": false,
    "unitCount": 2,
    "severity": 0,
    "lat": 47.663324,
    "long": -122.307214,
    "neighborhood": "University District",
    "neighborhoodGroup": "Northeast",
    "units": "E31 L9"
  },
  {
    "id_str": "F210096509",
    "created_at": "9/2/2021 12:33:17 PM",
    "timestamp": 1630611197000,
    "description": "Automatic Fire Alarm False",
    "address": "1908 E Mercer St",
    "active": false,
    "unitCount": 4,
    "severity": 0,
    "lat": 47.624418,
    "long": -122.307179,
    "neighborhood": "Miller Park",
    "neighborhoodGroup": "East",
    "units": "B2 E25 E34 L3"
  },
  {
    "id_str": "F210096507",
    "created_at": "9/2/2021 12:25:45 PM",
    "timestamp": 1630610745000,
    "description": "Aid Response",
    "address": "Beacon Ave S / S Spokane St",
    "active": false,
    "unitCount": 1,
    "severity": 0,
    "lat": 47.571924,
    "long": -122.308253,
    "neighborhood": "North Beacon Hill/Jefferson Park",
    "neighborhoodGroup": "Greater Duwamish",
    "units": "E27"
  },
  {
    "id_str": "F210096505",
    "created_at": "9/2/2021 12:12:31 PM",
    "timestamp": 1630609951000,
    "description": "Aid Response",
    "address": "2717 DEXTER AVE N",
    "active": false,
    "unitCount": 1,
    "severity": 0,
    "lat": 47.644374,
    "long": -122.346913,
    "neighborhood": "Queen Anne",
    "neighborhoodGroup": "Magnolia/Queen Anne",
    "units": "E9"
  },
  {
    "id_str": "F210096504",
    "created_at": "9/2/2021 12:10:17 PM",
    "timestamp": 1630609817000,
    "description": "Aid Response",
    "address": "531 Ne 112th St",
    "active": false,
    "unitCount": 2,
    "severity": 0,
    "lat": 47.709995,
    "long": -122.32296,
    "neighborhood": "Northgate/Maple Leaf",
    "neighborhoodGroup": "North",
    "units": "A31 M17"
  },
  {
    "id_str": "F210096503",
    "created_at": "9/2/2021 12:10:06 PM",
    "timestamp": 1630609806000,
    "description": "AFA4 - Auto Alarm 2 + 1 + 1",
    "address": "1420 5th Ave",
    "active": false,
    "unitCount": 5,
    "severity": 1,
    "lat": 47.609878,
    "long": -122.334842,
    "neighborhood": "Downtown Commercial Core",
    "neighborhoodGroup": "Downtown",
    "units": "B2 B6 E10 E2 L4"
  },
  {
    "id_str": "F210096500",
    "created_at": "9/2/2021 12:07:24 PM",
    "timestamp": 1630609644000,
    "description": "Auto Fire Alarm",
    "address": "4600 22nd Ave Ne",
    "active": false,
    "unitCount": 2,
    "severity": 0,
    "lat": 47.661806,
    "long": -122.304656,
    "neighborhood": "Ravenna/Bryant",
    "neighborhoodGroup": "Northeast",
    "units": "E31 L9"
  },
  {
    "id_str": "F210096496",
    "created_at": "9/2/2021 11:59:20 AM",
    "timestamp": 1630609160000,
    "description": "Aid Response",
    "address": "2200 4th Ave S",
    "active": false,
    "unitCount": 3,
    "severity": 0,
    "lat": 47.583977,
    "long": -122.329054,
    "neighborhood": "Duwamish/SODO",
    "neighborhoodGroup": "Greater Duwamish",
    "units": "A14 A5 L1"
  },
  {
    "id_str": "F210096494",
    "created_at": "9/2/2021 11:48:31 AM",
    "timestamp": 1630608511000,
    "description": "Aid Response",
    "address": "710 Cherry St",
    "active": false,
    "unitCount": 2,
    "severity": 0,
    "lat": 47.605387,
    "long": -122.327511,
    "neighborhood": "First Hill",
    "neighborhoodGroup": "East",
    "units": "A10 E10"
  },
  {
    "id_str": "F210096492",
    "created_at": "9/2/2021 11:41:43 AM",
    "timestamp": 1630608103000,
    "description": "Low Acuity Response",
    "address": "801 ALOHA ST",
    "active": false,
    "unitCount": 3,
    "severity": 0,
    "lat": 47.626845,
    "long": -122.322343,
    "neighborhood": "North Capitol Hill",
    "neighborhoodGroup": "East",
    "units": "A2 A25 A4"
  },
  {
    "id_str": "F210096486",
    "created_at": "9/2/2021 11:27:01 AM",
    "timestamp": 1630607221000,
    "description": "Alarm Bell",
    "address": "805 Marion St",
    "active": false,
    "unitCount": 2,
    "severity": 0,
    "lat": 47.607255,
    "long": -122.327761,
    "neighborhood": "First Hill",
    "neighborhoodGroup": "East",
    "units": "E5 L4"
  },
  {
    "id_str": "F210096484",
    "created_at": "9/2/2021 11:25:06 AM",
    "timestamp": 1630607106000,
    "description": "Alarm Bell",
    "address": "202 6th Ave S",
    "active": false,
    "unitCount": 2,
    "severity": 0,
    "lat": 47.600854,
    "long": -122.326354,
    "neighborhood": "Pioneer Square/International District",
    "neighborhoodGroup": "Downtown",
    "units": "E10 L1"
  },
  {
    "id_str": "F210096483",
    "created_at": "9/2/2021 11:22:55 AM",
    "timestamp": 1630606975000,
    "description": "Aid Response Yellow",
    "address": "820 Yesler Way",
    "active": false,
    "unitCount": 1,
    "severity": 0,
    "lat": 47.601702,
    "long": -122.322098,
    "neighborhood": "First Hill",
    "neighborhoodGroup": "East",
    "units": "A10"
  },
  {
    "id_str": "F210096482",
    "created_at": "9/2/2021 11:19:30 AM",
    "timestamp": 1630606770000,
    "description": "Aid Response",
    "address": "1531 1st Ave W",
    "active": false,
    "unitCount": 1,
    "severity": 0,
    "lat": 47.63269,
    "long": -122.358336,
    "neighborhood": "Queen Anne",
    "neighborhoodGroup": "Magnolia/Queen Anne",
    "units": "L6"
  },
  {
    "id_str": "F210096481",
    "created_at": "9/2/2021 11:16:54 AM",
    "timestamp": 1630606614000,
    "description": "Aid Response",
    "address": "800 Fairview Ave N",
    "active": false,
    "unitCount": 1,
    "severity": 0,
    "lat": 47.625969,
    "long": -122.334344,
    "neighborhood": "Cascade/Eastlake",
    "neighborhoodGroup": "Lake Union",
    "units": "A4"
  },
  {
    "id_str": "F210096480",
    "created_at": "9/2/2021 11:15:56 AM",
    "timestamp": 1630606556000,
    "description": "Aid Response",
    "address": "123 Queen Anne Ave N",
    "active": false,
    "unitCount": 1,
    "severity": 0,
    "lat": 47.618869,
    "long": -122.356754,
    "neighborhood": "Queen Anne",
    "neighborhoodGroup": "Magnolia/Queen Anne",
    "units": "A2"
  },
  {
    "id_str": "F210096477",
    "created_at": "9/2/2021 11:12:15 AM",
    "timestamp": 1630606335000,
    "description": "Automatic Fire Alarm Resd",
    "address": "7549 1st Ave Ne",
    "active": false,
    "unitCount": 1,
    "severity": 0,
    "lat": 47.683678,
    "long": -122.328301,
    "neighborhood": "Green Lake",
    "neighborhoodGroup": "Northwest",
    "units": "E16"
  },
  {
    "id_str": "F210096474",
    "created_at": "9/2/2021 11:09:44 AM",
    "timestamp": 1630606184000,
    "description": "Aid Response",
    "address": "1701 18th Ave S",
    "active": false,
    "unitCount": 1,
    "severity": 0,
    "lat": 47.588414,
    "long": -122.309467,
    "neighborhood": "North Beacon Hill/Jefferson Park",
    "neighborhoodGroup": "Greater Duwamish",
    "units": "E6"
  },
  {
    "id_str": "F210096473",
    "created_at": "9/2/2021 11:08:41 AM",
    "timestamp": 1630606121000,
    "description": "Rubbish Fire",
    "address": "11 W Aloha St",
    "active": false,
    "unitCount": 1,
    "severity": 0,
    "lat": 47.627192,
    "long": -122.356823,
    "neighborhood": "Queen Anne",
    "neighborhoodGroup": "Magnolia/Queen Anne",
    "units": "E2"
  },
  {
    "id_str": "F210096471",
    "created_at": "9/2/2021 11:03:08 AM",
    "timestamp": 1630605788000,
    "description": "Aid Response",
    "address": "10118 Renton Ave S",
    "active": false,
    "unitCount": 1,
    "severity": 0,
    "lat": 47.510549,
    "long": -122.260042,
    "neighborhood": "Rainier Beach",
    "neighborhoodGroup": "Southeast",
    "units": "E33"
  },
  {
    "id_str": "F210096470",
    "created_at": "9/2/2021 11:00:52 AM",
    "timestamp": 1630605652000,
    "description": "Aid Response",
    "address": "8512 Aurora Ave N",
    "active": false,
    "unitCount": 1,
    "severity": 0,
    "lat": 47.690644,
    "long": -122.344523,
    "neighborhood": "Licton Springs",
    "neighborhoodGroup": "Northwest",
    "units": "E21"
  },
  {
    "id_str": "F210096467",
    "created_at": "9/2/2021 10:54:16 AM",
    "timestamp": 1630605256000,
    "description": "Aid Response",
    "address": "S Henderson St / Seward Park Ave S",
    "active": false,
    "unitCount": 11,
    "severity": 2,
    "lat": 47.523293,
    "long": -122.264555,
    "neighborhood": "Rainier Beach",
    "neighborhoodGroup": "Southeast",
    "units": "A10 A14 B2 B5 E27 E28 L12 M28 M44 R1 SAFT2"
  },
  {
    "id_str": "F210096464",
    "created_at": "9/2/2021 10:52:21 AM",
    "timestamp": 1630605141000,
    "description": "Aid Response",
    "address": "1455 Nw Leary Way",
    "active": false,
    "unitCount": 2,
    "severity": 0,
    "lat": 47.663663,
    "long": -122.374988,
    "neighborhood": "Ballard",
    "neighborhoodGroup": "Ballard",
    "units": "E18 E21"
  },
  {
    "id_str": "F210096463",
    "created_at": "9/2/2021 10:49:26 AM",
    "timestamp": 1630604966000,
    "description": "Aid Response",
    "address": "603 Stewart St",
    "active": false,
    "unitCount": 1,
    "severity": 0,
    "lat": 47.613642,
    "long": -122.336989,
    "neighborhood": "Cascade/Eastlake",
    "neighborhoodGroup": "Lake Union",
    "units": "A4"
  },
  {
    "id_str": "F210096462",
    "created_at": "9/2/2021 10:47:56 AM",
    "timestamp": 1630604876000,
    "description": "Aid Response",
    "address": "Pike Pl / Virginia St",
    "active": false,
    "unitCount": 1,
    "severity": 0,
    "lat": 47.610404,
    "long": -122.343472,
    "neighborhood": "Belltown",
    "neighborhoodGroup": "Downtown",
    "units": "E2"
  },
  {
    "id_str": "F210096459",
    "created_at": "9/2/2021 10:43:39 AM",
    "timestamp": 1630604619000,
    "description": "Low Acuity Response",
    "address": "4550 S Henderson St",
    "active": false,
    "unitCount": 1,
    "severity": 0,
    "lat": 47.523311,
    "long": -122.2753,
    "neighborhood": "Rainier Beach",
    "neighborhoodGroup": "Southeast",
    "units": "E33"
  },
  {
    "id_str": "F210096457",
    "created_at": "9/2/2021 10:39:28 AM",
    "timestamp": 1630604368000,
    "description": "Aid Response",
    "address": "Sw Avalon Way / Sw Bradford St",
    "active": false,
    "unitCount": 3,
    "severity": 0,
    "lat": 47.569241,
    "long": -122.370728,
    "neighborhood": "North Delridge",
    "neighborhoodGroup": "Delridge Neighborhoods",
    "units": "E36 L11 M26"
  },
  {
    "id_str": "F210096455",
    "created_at": "9/2/2021 10:31:34 AM",
    "timestamp": 1630603894000,
    "description": "Aid Response",
    "address": "223 Yesler Way",
    "active": false,
    "unitCount": 1,
    "severity": 0,
    "lat": 47.601718,
    "long": -122.331581,
    "neighborhood": "Downtown Commercial Core",
    "neighborhoodGroup": "Downtown",
    "units": "A5"
  },
  {
    "id_str": "F210096452",
    "created_at": "9/2/2021 10:23:26 AM",
    "timestamp": 1630603406000,
    "description": "Scenes Of Violence 7",
    "address": "15th Ave Ne / Ne 45th St",
    "active": false,
    "unitCount": 5,
    "severity": 1,
    "lat": 47.661262,
    "long": -122.311993,
    "neighborhood": "University District",
    "neighborhoodGroup": "Northeast",
    "units": "B6 E17 E31 M18 M44"
  },
  {
    "id_str": "F210096450",
    "created_at": "9/2/2021 10:20:52 AM",
    "timestamp": 1630603252000,
    "description": "Aid Response",
    "address": "505 W Roy St",
    "active": false,
    "unitCount": 1,
    "severity": 0,
    "lat": 47.625859,
    "long": -122.363284,
    "neighborhood": "Queen Anne",
    "neighborhoodGroup": "Magnolia/Queen Anne",
    "units": "E8"
  },
  {
    "id_str": "F210096449",
    "created_at": "9/2/2021 10:20:30 AM",
    "timestamp": 1630603230000,
    "description": "Aid Response",
    "address": "314 E Pike St",
    "active": false,
    "unitCount": 3,
    "severity": 0,
    "lat": 47.613984,
    "long": -122.327676,
    "neighborhood": "Capitol Hill",
    "neighborhoodGroup": "East",
    "units": "E25 H1 MIH"
  },
  {
    "id_str": "F210096447",
    "created_at": "9/2/2021 10:17:41 AM",
    "timestamp": 1630603061000,
    "description": "Aid Response",
    "address": "100 Nw 85th St",
    "active": false,
    "unitCount": 1,
    "severity": 0,
    "lat": 47.69061,
    "long": -122.357982,
    "neighborhood": "Greenwood/Phinney Ridge",
    "neighborhoodGroup": "Northwest",
    "units": "E21"
  },
  {
    "id_str": "F210096445",
    "created_at": "9/2/2021 10:17:27 AM",
    "timestamp": 1630603047000,
    "description": "Aid Response",
    "address": "6025 Lanham Pl Sw",
    "active": false,
    "unitCount": 1,
    "severity": 0,
    "lat": 47.548171,
    "long": -122.373688,
    "neighborhood": "High Point",
    "neighborhoodGroup": "Delridge Neighborhoods",
    "units": "E37"
  },
  {
    "id_str": "F210096444",
    "created_at": "9/2/2021 10:15:44 AM",
    "timestamp": 1630602944000,
    "description": "Aid Response",
    "address": "1431 Minor Ave",
    "active": false,
    "unitCount": 1,
    "severity": 0,
    "lat": 47.613247,
    "long": -122.327187,
    "neighborhood": "Capitol Hill",
    "neighborhoodGroup": "East",
    "units": "A25"
  },
  {
    "id_str": "F210096443",
    "created_at": "9/2/2021 10:13:09 AM",
    "timestamp": 1630602789000,
    "description": "Aid Response",
    "address": "3415 33rd Ave S",
    "active": false,
    "unitCount": 1,
    "severity": 0,
    "lat": 47.572416,
    "long": -122.290985,
    "neighborhood": "Columbia City",
    "neighborhoodGroup": "Southeast",
    "units": "E30"
  },
  {
    "id_str": "F210096442",
    "created_at": "9/2/2021 10:06:36 AM",
    "timestamp": 1630602396000,
    "description": "Aid Response",
    "address": "2465 E Lake Washington Blvd",
    "active": false,
    "unitCount": 1,
    "severity": 0,
    "lat": 47.644111,
    "long": -122.300273,
    "neighborhood": "Montlake/Portage Bay",
    "neighborhoodGroup": "Northeast",
    "units": "E22"
  },
  {
    "id_str": "F210096441",
    "created_at": "9/2/2021 10:05:31 AM",
    "timestamp": 1630602331000,
    "description": "Aid Response",
    "address": "13737 30th Ave Ne",
    "active": false,
    "unitCount": 1,
    "severity": 0,
    "lat": 47.728181,
    "long": -122.296431,
    "neighborhood": "Cedar Park/Meadowbrook",
    "neighborhoodGroup": "North",
    "units": "E40"
  },
  {
    "id_str": "F210096438",
    "created_at": "9/2/2021 10:00:53 AM",
    "timestamp": 1630602053000,
    "description": "Rescue Elevator",
    "address": "2821 2nd Ave",
    "active": false,
    "unitCount": 1,
    "severity": 0,
    "lat": 47.617134,
    "long": -122.350886,
    "neighborhood": "Belltown",
    "neighborhoodGroup": "Downtown",
    "units": "L4"
  },
  {
    "id_str": "F210096436",
    "created_at": "9/2/2021 9:54:16 AM",
    "timestamp": 1630601656000,
    "description": "Aid Response",
    "address": "14396 30th Ave Ne",
    "active": false,
    "unitCount": 1,
    "severity": 0,
    "lat": 47.732881,
    "long": -122.296531,
    "neighborhood": "Olympic Hills/Victory Heights",
    "neighborhoodGroup": "North",
    "units": "L5"
  },
  {
    "id_str": "F210096435",
    "created_at": "9/2/2021 9:52:34 AM",
    "timestamp": 1630601554000,
    "description": "Aid Response",
    "address": "509 3rd Ave",
    "active": false,
    "unitCount": 1,
    "severity": 0,
    "lat": 47.602114,
    "long": -122.330809,
    "neighborhood": "Downtown Commercial Core",
    "neighborhoodGroup": "Downtown",
    "units": "A10"
  },
  {
    "id_str": "F210096433",
    "created_at": "9/2/2021 9:49:49 AM",
    "timestamp": 1630601389000,
    "description": "Medic Response",
    "address": "2501 Ne 115th St",
    "active": false,
    "unitCount": 2,
    "severity": 0,
    "lat": 47.712065,
    "long": -122.301728,
    "neighborhood": "Olympic Hills/Victory Heights",
    "neighborhoodGroup": "North",
    "units": "E39 M17"
  },
  {
    "id_str": "F210096434",
    "created_at": "9/2/2021 9:49:47 AM",
    "timestamp": 1630601387000,
    "description": "Auto Fire Alarm",
    "address": "118 Broadway E",
    "active": false,
    "unitCount": 2,
    "severity": 0,
    "lat": 47.618943,
    "long": -122.320857,
    "neighborhood": "Capitol Hill",
    "neighborhoodGroup": "East",
    "units": "E25 L10"
  },
  {
    "id_str": "F210096431",
    "created_at": "9/2/2021 9:38:54 AM",
    "timestamp": 1630600734000,
    "description": "Aid Response",
    "address": "2515 Western Ave",
    "active": false,
    "unitCount": 2,
    "severity": 0,
    "lat": 47.61411,
    "long": -122.34974,
    "neighborhood": "Belltown",
    "neighborhoodGroup": "Downtown",
    "units": "A2 A4"
  },
  {
    "id_str": "F210096429",
    "created_at": "9/2/2021 9:27:38 AM",
    "timestamp": 1630600058000,
    "description": "Medic Response",
    "address": "147 N 132nd St",
    "active": false,
    "unitCount": 2,
    "severity": 0,
    "lat": 47.725059,
    "long": -122.357384,
    "neighborhood": "Broadview/Bitter Lake",
    "neighborhoodGroup": "Northwest",
    "units": "A31 M18"
  },
  {
    "id_str": "F210096427",
    "created_at": "9/2/2021 9:21:20 AM",
    "timestamp": 1630599680000,
    "description": "Low Acuity Response",
    "address": "549 N 70th St",
    "active": false,
    "unitCount": 1,
    "severity": 0,
    "lat": 47.679642,
    "long": -122.351936,
    "neighborhood": "Greenwood/Phinney Ridge",
    "neighborhoodGroup": "Northwest",
    "units": "E21"
  },
  {
    "id_str": "F210096426",
    "created_at": "9/2/2021 9:15:22 AM",
    "timestamp": 1630599322000,
    "description": "Medic Response",
    "address": "5271 44th Ave Sw",
    "active": false,
    "unitCount": 2,
    "severity": 0,
    "lat": 47.55558,
    "long": -122.388421,
    "neighborhood": "West Seattle Junction/Genesee Hill",
    "neighborhoodGroup": "Southwest",
    "units": "E32 M32"
  },
  {
    "id_str": "F210096425",
    "created_at": "9/2/2021 9:14:37 AM",
    "timestamp": 1630599277000,
    "description": "Auto Fire Alarm",
    "address": "12505 Greenwood Ave N",
    "active": false,
    "unitCount": 2,
    "severity": 0,
    "lat": 47.719638,
    "long": -122.355539,
    "neighborhood": "Broadview/Bitter Lake",
    "neighborhoodGroup": "Northwest",
    "units": "E24 L5"
  },
  {
    "id_str": "F210096424",
    "created_at": "9/2/2021 9:13:21 AM",
    "timestamp": 1630599201000,
    "description": "Aid Response",
    "address": "700 6th Ave S",
    "active": false,
    "unitCount": 1,
    "severity": 0,
    "lat": 47.596676,
    "long": -122.32637,
    "neighborhood": "Pioneer Square/International District",
    "neighborhoodGroup": "Downtown",
    "units": "E10"
  },
  {
    "id_str": "F210096420",
    "created_at": "9/2/2021 9:06:01 AM",
    "timestamp": 1630598761000,
    "description": "Aid Response Yellow",
    "address": "505 5th Ave S",
    "active": false,
    "unitCount": 1,
    "severity": 0,
    "lat": 47.598313,
    "long": -122.327671,
    "neighborhood": "Pioneer Square/International District",
    "neighborhoodGroup": "Downtown",
    "units": "A5"
  },
  {
    "id_str": "F210096418",
    "created_at": "9/2/2021 9:03:43 AM",
    "timestamp": 1630598623000,
    "description": "Automatic Fire Alarm False",
    "address": "3501 Rainier Ave S",
    "active": false,
    "unitCount": 1,
    "severity": 0,
    "lat": 47.571853,
    "long": -122.293193,
    "neighborhood": "Columbia City",
    "neighborhoodGroup": "Southeast",
    "units": "E30"
  },
  {
    "id_str": "F210096417",
    "created_at": "9/2/2021 9:02:58 AM",
    "timestamp": 1630598578000,
    "description": "Aid Response",
    "address": "3520 Ne 98th St",
    "active": false,
    "unitCount": 1,
    "severity": 0,
    "lat": 47.700204,
    "long": -122.290482,
    "neighborhood": "Wedgwood/View Ridge",
    "neighborhoodGroup": "Northeast",
    "units": "E40"
  },
  {
    "id_str": "F210096415",
    "created_at": "9/2/2021 8:34:56 AM",
    "timestamp": 1630596896000,
    "description": "Aid Response",
    "address": "Swift Ave S / S Warsaw St",
    "active": false,
    "unitCount": 1,
    "severity": 0,
    "lat": 47.543885,
    "long": -122.304515,
    "neighborhood": "South Beacon Hill/NewHolly",
    "neighborhoodGroup": "Greater Duwamish",
    "units": "E27"
  },
  {
    "id_str": "F210096413",
    "created_at": "9/2/2021 8:30:55 AM",
    "timestamp": 1630596655000,
    "description": "Aid Response",
    "address": "9232 21st Ave Nw",
    "active": false,
    "unitCount": 1,
    "severity": 0,
    "lat": 47.696123,
    "long": -122.382586,
    "neighborhood": "North Beach/Blue Ridge",
    "neighborhoodGroup": "Ballard",
    "units": "E35"
  },
  {
    "id_str": "F210096411",
    "created_at": "9/2/2021 8:25:31 AM",
    "timestamp": 1630596331000,
    "description": "Medic Response, 7 per Rule",
    "address": "509 3rd Ave",
    "active": false,
    "unitCount": 4,
    "severity": 0,
    "lat": 47.602114,
    "long": -122.330809,
    "neighborhood": "Downtown Commercial Core",
    "neighborhoodGroup": "Downtown",
    "units": "A10 E10 M10 M17"
  },
  {
    "id_str": "F210096410",
    "created_at": "9/2/2021 8:22:59 AM",
    "timestamp": 1630596179000,
    "description": "Aid Response",
    "address": "7020 18th Ave Sw",
    "active": false,
    "unitCount": 2,
    "severity": 0,
    "lat": 47.539866,
    "long": -122.357245,
    "neighborhood": "Riverview",
    "neighborhoodGroup": "Delridge Neighborhoods",
    "units": "E36 L13"
  },
  {
    "id_str": "F210096409",
    "created_at": "9/2/2021 8:17:15 AM",
    "timestamp": 1630595835000,
    "description": "Medic Response",
    "address": "8424 16th Ave Sw",
    "active": false,
    "unitCount": 2,
    "severity": 0,
    "lat": 47.528082,
    "long": -122.355064,
    "neighborhood": "Highland Park",
    "neighborhoodGroup": "Delridge Neighborhoods",
    "units": "E11 M26"
  },
  {
    "id_str": "F210096407",
    "created_at": "9/2/2021 8:14:22 AM",
    "timestamp": 1630595662000,
    "description": "Rescue Rope",
    "address": "4203 SW OREGON ST",
    "active": false,
    "unitCount": 10,
    "severity": 2,
    "lat": 47.521033,
    "long": -122.36873,
    "neighborhood": "Roxhill/Westwood",
    "neighborhoodGroup": "Delridge Neighborhoods",
    "units": "B5 B7 E29 E32 L11 L13 M32 M44 R1 SAFT2"
  },
  {
    "id_str": "F210096408",
    "created_at": "9/2/2021 8:14:22 AM",
    "timestamp": 1630595662000,
    "description": "Advised Incident",
    "address": "4203 Sw Oregon St",
    "active": false,
    "unitCount": 3,
    "severity": 0,
    "lat": 47.562876,
    "long": -122.385482,
    "neighborhood": "West Seattle Junction/Genesee Hill",
    "neighborhoodGroup": "Southwest",
    "units": "E29 E36 M26"
  },
  {
    "id_str": "F210096406",
    "created_at": "9/2/2021 8:10:08 AM",
    "timestamp": 1630595408000,
    "description": "Aid Response",
    "address": "5921 34th Ave Sw",
    "active": false,
    "unitCount": 1,
    "severity": 0,
    "lat": 47.549746,
    "long": -122.374995,
    "neighborhood": "High Point",
    "neighborhoodGroup": "Delridge Neighborhoods",
    "units": "E37"
  },
  {
    "id_str": "F210096405",
    "created_at": "9/2/2021 8:06:00 AM",
    "timestamp": 1630595160000,
    "description": "Aid Response",
    "address": "Harvard Ave E / E Olive Way",
    "active": false,
    "unitCount": 1,
    "severity": 0,
    "lat": 47.619898,
    "long": -122.322206,
    "neighborhood": "Capitol Hill",
    "neighborhoodGroup": "East",
    "units": "A25"
  },
  {
    "id_str": "F210096402",
    "created_at": "9/2/2021 7:50:37 AM",
    "timestamp": 1630594237000,
    "description": "Aid Response",
    "address": "10415 Greenwood Ave N",
    "active": false,
    "unitCount": 1,
    "severity": 0,
    "lat": 47.704463,
    "long": -122.355446,
    "neighborhood": "Greenwood/Phinney Ridge",
    "neighborhoodGroup": "Northwest",
    "units": "E35"
  },
  {
    "id_str": "F210096401",
    "created_at": "9/2/2021 7:50:00 AM",
    "timestamp": 1630594200000,
    "description": "Auto Fire Alarm",
    "address": "115 Warren Ave N",
    "active": false,
    "unitCount": 2,
    "severity": 0,
    "lat": 47.618764,
    "long": -122.354146,
    "neighborhood": "Queen Anne",
    "neighborhoodGroup": "Magnolia/Queen Anne",
    "units": "E2 L4"
  },
  {
    "id_str": "F210096399",
    "created_at": "9/2/2021 7:46:14 AM",
    "timestamp": 1630593974000,
    "description": "Aid Response",
    "address": "12503 Greenwood Ave N",
    "active": false,
    "unitCount": 1,
    "severity": 0,
    "lat": 47.719619,
    "long": -122.355539,
    "neighborhood": "Broadview/Bitter Lake",
    "neighborhoodGroup": "Northwest",
    "units": "E24"
  },
  {
    "id_str": "F210096398",
    "created_at": "9/2/2021 7:42:57 AM",
    "timestamp": 1630593777000,
    "description": "Aid Response",
    "address": "600 Queen Anne Ave N",
    "active": false,
    "unitCount": 1,
    "severity": 0,
    "lat": 47.624583,
    "long": -122.356709,
    "neighborhood": "Queen Anne",
    "neighborhoodGroup": "Magnolia/Queen Anne",
    "units": "E8"
  },
  {
    "id_str": "F210096396",
    "created_at": "9/2/2021 7:26:56 AM",
    "timestamp": 1630592816000,
    "description": "Aid Response",
    "address": "11039 17th Ave Ne",
    "active": false,
    "unitCount": 1,
    "severity": 0,
    "lat": 47.709397,
    "long": -122.309982,
    "neighborhood": "Olympic Hills/Victory Heights",
    "neighborhoodGroup": "North",
    "units": "E39"
  },
  {
    "id_str": "F210096395",
    "created_at": "9/2/2021 7:22:46 AM",
    "timestamp": 1630592566000,
    "description": "Aid Response",
    "address": "6215 15TH AVE NW",
    "active": false,
    "unitCount": 1,
    "severity": 0,
    "lat": 47.676044,
    "long": -122.376506,
    "neighborhood": "Whittier Heights",
    "neighborhoodGroup": "Ballard",
    "units": "E18"
  },
  {
    "id_str": "F210096392",
    "created_at": "9/2/2021 7:16:21 AM",
    "timestamp": 1630592181000,
    "description": "Medic Response",
    "address": "113 Summit Ave E",
    "active": false,
    "unitCount": 2,
    "severity": 0,
    "lat": 47.618896,
    "long": -122.325288,
    "neighborhood": "Capitol Hill",
    "neighborhoodGroup": "East",
    "units": "A25 M10"
  },
  {
    "id_str": "F210096391",
    "created_at": "9/2/2021 7:16:03 AM",
    "timestamp": 1630592163000,
    "description": "Aid Response",
    "address": "1st Ave / Virginia St",
    "active": false,
    "unitCount": 1,
    "severity": 0,
    "lat": 47.611068,
    "long": -122.342612,
    "neighborhood": "Belltown",
    "neighborhoodGroup": "Downtown",
    "units": "A2"
  },
  {
    "id_str": "F210096389",
    "created_at": "9/2/2021 7:08:43 AM",
    "timestamp": 1630591723000,
    "description": "Medic Response, 7 per Rule",
    "address": "2350 Beacon Ave S",
    "active": false,
    "unitCount": 3,
    "severity": 0,
    "lat": 47.582049,
    "long": -122.316012,
    "neighborhood": "North Beacon Hill/Jefferson Park",
    "neighborhoodGroup": "Greater Duwamish",
    "units": "A14 E13 M1"
  },
  {
    "id_str": "F210096387",
    "created_at": "9/2/2021 6:47:14 AM",
    "timestamp": 1630590434000,
    "description": "Aid Response",
    "address": "105 Pike St",
    "active": false,
    "unitCount": 1,
    "severity": 0,
    "lat": 47.608845,
    "long": -122.339956,
    "neighborhood": "Downtown Commercial Core",
    "neighborhoodGroup": "Downtown",
    "units": "E5"
  },
  {
    "id_str": "F210096384",
    "created_at": "9/2/2021 6:30:56 AM",
    "timestamp": 1630589456000,
    "description": "Illegal Burn",
    "address": "2920 Dexter Ave N",
    "active": false,
    "unitCount": 1,
    "severity": 0,
    "lat": 47.646023,
    "long": -122.349701,
    "neighborhood": "Queen Anne",
    "neighborhoodGroup": "Magnolia/Queen Anne",
    "units": "E9"
  },
  {
    "id_str": "F210096381",
    "created_at": "9/2/2021 6:00:10 AM",
    "timestamp": 1630587610000,
    "description": "Aid Response",
    "address": "1916 E Madison St",
    "active": false,
    "unitCount": 1,
    "severity": 0,
    "lat": 47.61682,
    "long": -122.307201,
    "neighborhood": "Central Area/Squire Park",
    "neighborhoodGroup": "Central",
    "units": "A25"
  },
  {
    "id_str": "F210096379",
    "created_at": "9/2/2021 5:57:11 AM",
    "timestamp": 1630587431000,
    "description": "Aid Response",
    "address": "3501 Rainier Ave S",
    "active": false,
    "unitCount": 1,
    "severity": 0,
    "lat": 47.571853,
    "long": -122.293193,
    "neighborhood": "Columbia City",
    "neighborhoodGroup": "Southeast",
    "units": "E30"
  },
  {
    "id_str": "F210096378",
    "created_at": "9/2/2021 5:50:30 AM",
    "timestamp": 1630587030000,
    "description": "Dumpster Fire",
    "address": "5263 University Way Ne",
    "active": false,
    "unitCount": 1,
    "severity": 0,
    "lat": 47.666875,
    "long": -122.313044,
    "neighborhood": "University District",
    "neighborhoodGroup": "Northeast",
    "units": "E17"
  },
  {
    "id_str": "F210096377",
    "created_at": "9/2/2021 5:47:08 AM",
    "timestamp": 1630586828000,
    "description": "Aid Response",
    "address": "6118 Woodland Pl N",
    "active": false,
    "unitCount": 1,
    "severity": 0,
    "lat": 47.67327,
    "long": -122.347919,
    "neighborhood": "Greenwood/Phinney Ridge",
    "neighborhoodGroup": "Northwest",
    "units": "E21"
  },
  {
    "id_str": "F210096375",
    "created_at": "9/2/2021 5:42:24 AM",
    "timestamp": 1630586544000,
    "description": "Aid Response",
    "address": "111 Cedar St",
    "active": false,
    "unitCount": 1,
    "severity": 0,
    "lat": 47.615877,
    "long": -122.35052,
    "neighborhood": "Belltown",
    "neighborhoodGroup": "Downtown",
    "units": "A2"
  },
  {
    "id_str": "F210096373",
    "created_at": "9/2/2021 5:31:35 AM",
    "timestamp": 1630585895000,
    "description": "Aid Response",
    "address": "7301 35th Ave Ne",
    "active": false,
    "unitCount": 1,
    "severity": 0,
    "lat": 47.681232,
    "long": -122.290428,
    "neighborhood": "Wedgwood/View Ridge",
    "neighborhoodGroup": "Northeast",
    "units": "E40"
  },
  {
    "id_str": "F210096366",
    "created_at": "9/2/2021 5:04:33 AM",
    "timestamp": 1630584273000,
    "description": "Illegal Burn",
    "address": "9226 4th Ave Sw",
    "active": false,
    "unitCount": 1,
    "severity": 0,
    "lat": 47.52068,
    "long": -122.340192,
    "neighborhood": "Highland Park",
    "neighborhoodGroup": "Delridge Neighborhoods",
    "units": "E11"
  },
  {
    "id_str": "F210096360",
    "created_at": "9/2/2021 4:41:24 AM",
    "timestamp": 1630582884000,
    "description": "Low Acuity Response",
    "address": "6820 51ST AVE S",
    "active": false,
    "unitCount": 2,
    "severity": 0,
    "lat": 47.677755,
    "long": -122.27293,
    "neighborhood": "Laurelhurst/Sand Point",
    "neighborhoodGroup": "Northeast",
    "units": "E28 E38"
  },
  {
    "id_str": "F210096357",
    "created_at": "9/2/2021 4:32:00 AM",
    "timestamp": 1630582320000,
    "description": "Aid Response",
    "address": "500 5th Ave",
    "active": false,
    "unitCount": 1,
    "severity": 0,
    "lat": 47.602985,
    "long": -122.328535,
    "neighborhood": "First Hill",
    "neighborhoodGroup": "East",
    "units": "A5"
  },
  {
    "id_str": "F210096355",
    "created_at": "9/2/2021 4:03:28 AM",
    "timestamp": 1630580608000,
    "description": "Low Acuity Response",
    "address": "4127 13th Ave S",
    "active": false,
    "unitCount": 1,
    "severity": 0,
    "lat": 47.566971,
    "long": -122.315963,
    "neighborhood": "North Beacon Hill/Jefferson Park",
    "neighborhoodGroup": "Greater Duwamish",
    "units": "E13"
  },
  {
    "id_str": "F210096354",
    "created_at": "9/2/2021 4:01:07 AM",
    "timestamp": 1630580467000,
    "description": "Aid Response",
    "address": "1661 Harbor Ave Sw",
    "active": false,
    "unitCount": 1,
    "severity": 0,
    "lat": 47.589009,
    "long": -122.38083,
    "neighborhood": "Alki/Admiral",
    "neighborhoodGroup": "Southwest",
    "units": "E29"
  },
  {
    "id_str": "F210096352",
    "created_at": "9/2/2021 3:54:29 AM",
    "timestamp": 1630580069000,
    "description": "Aid Response",
    "address": "7314 Aurora Ave N",
    "active": false,
    "unitCount": 1,
    "severity": 0,
    "lat": 47.682147,
    "long": -122.344365,
    "neighborhood": "Green Lake",
    "neighborhoodGroup": "Northwest",
    "units": "E21"
  },
  {
    "id_str": "F210096341",
    "created_at": "9/2/2021 3:31:18 AM",
    "timestamp": 1630578678000,
    "description": "1RED 1 Unit",
    "address": "8th Ave Ne / Ne 45th St",
    "active": false,
    "unitCount": 1,
    "severity": 0,
    "lat": 47.661311,
    "long": -122.319567,
    "neighborhood": "Wallingford",
    "neighborhoodGroup": "Lake Union",
    "units": "E31"
  },
  {
    "id_str": "F210096339",
    "created_at": "9/2/2021 3:27:12 AM",
    "timestamp": 1630578432000,
    "description": "Low Acuity Response",
    "address": "1110 W Howe St",
    "active": false,
    "unitCount": 1,
    "severity": 0,
    "lat": 47.635955,
    "long": -122.371758,
    "neighborhood": "Interbay",
    "neighborhoodGroup": "Magnolia/Queen Anne",
    "units": "E20"
  },
  {
    "id_str": "F210096338",
    "created_at": "9/2/2021 3:26:26 AM",
    "timestamp": 1630578386000,
    "description": "Medic Response",
    "address": "2821 S Walden St",
    "active": false,
    "unitCount": 2,
    "severity": 0,
    "lat": 47.572163,
    "long": -122.296173,
    "neighborhood": "Columbia City",
    "neighborhoodGroup": "Southeast",
    "units": "E30 M28"
  },
  {
    "id_str": "F210096336",
    "created_at": "9/2/2021 3:25:09 AM",
    "timestamp": 1630578309000,
    "description": "Aid Response",
    "address": "3701 S Hudson St",
    "active": false,
    "unitCount": 1,
    "severity": 0,
    "lat": 47.557045,
    "long": -122.286125,
    "neighborhood": "Columbia City",
    "neighborhoodGroup": "Southeast",
    "units": "E28"
  },
  {
    "id_str": "F210096335",
    "created_at": "9/2/2021 3:23:22 AM",
    "timestamp": 1630578202000,
    "description": "Low Acuity Response",
    "address": "7304 44th Ave Sw",
    "active": false,
    "unitCount": 1,
    "severity": 0,
    "lat": 47.538485,
    "long": -122.387349,
    "neighborhood": "Fauntleroy/Seaview",
    "neighborhoodGroup": "Southwest",
    "units": "L13"
  },
  {
    "id_str": "F210096329",
    "created_at": "9/2/2021 3:09:36 AM",
    "timestamp": 1630577376000,
    "description": "Aid Response",
    "address": "2030 8th Ave",
    "active": false,
    "unitCount": 1,
    "severity": 0,
    "lat": 47.615949,
    "long": -122.336979,
    "neighborhood": "Cascade/Eastlake",
    "neighborhoodGroup": "Lake Union",
    "units": "A2"
  },
  {
    "id_str": "F210096330",
    "created_at": "9/2/2021 3:08:54 AM",
    "timestamp": 1630577334000,
    "description": "Investigate Out Of Service",
    "address": "2837 Franklin Ave E",
    "active": false,
    "unitCount": 1,
    "severity": 0,
    "lat": 47.646116,
    "long": -122.324079,
    "neighborhood": "Montlake/Portage Bay",
    "neighborhoodGroup": "Northeast",
    "units": "E22"
  },
  {
    "id_str": "F210096326",
    "created_at": "9/2/2021 2:54:48 AM",
    "timestamp": 1630576488000,
    "description": "Aid Response",
    "address": "325 9th Ave",
    "active": false,
    "unitCount": 1,
    "severity": 0,
    "lat": 47.603588,
    "long": -122.322949,
    "neighborhood": "First Hill",
    "neighborhoodGroup": "East",
    "units": "A10"
  },
  {
    "id_str": "F210096324",
    "created_at": "9/2/2021 2:48:20 AM",
    "timestamp": 1630576100000,
    "description": "Aid Response",
    "address": "6543 32nd Ave Sw",
    "active": false,
    "unitCount": 1,
    "severity": 0,
    "lat": 47.544274,
    "long": -122.373765,
    "neighborhood": "High Point",
    "neighborhoodGroup": "Delridge Neighborhoods",
    "units": "E37"
  },
  {
    "id_str": "F210096321",
    "created_at": "9/2/2021 2:32:38 AM",
    "timestamp": 1630575158000,
    "description": "Medic Response",
    "address": "S Weller St / 5th Ave S",
    "active": false,
    "unitCount": 2,
    "severity": 0,
    "lat": 47.597517,
    "long": -122.327675,
    "neighborhood": "Pioneer Square/International District",
    "neighborhoodGroup": "Downtown",
    "units": "A5 M1"
  },
  {
    "id_str": "F210096316",
    "created_at": "9/2/2021 2:27:02 AM",
    "timestamp": 1630574822000,
    "description": "Auto Fire Alarm",
    "address": "221 10th Ave S",
    "active": false,
    "unitCount": 2,
    "severity": 0,
    "lat": 47.600694,
    "long": -122.319323,
    "neighborhood": "Pioneer Square/International District",
    "neighborhoodGroup": "Downtown",
    "units": "E10 L1"
  },
  {
    "id_str": "F210096315",
    "created_at": "9/2/2021 2:24:46 AM",
    "timestamp": 1630574686000,
    "description": "Aid Response",
    "address": "555 16th Ave",
    "active": false,
    "unitCount": 1,
    "severity": 0,
    "lat": 47.606687,
    "long": -122.31155,
    "neighborhood": "Central Area/Squire Park",
    "neighborhoodGroup": "Central",
    "units": "A25"
  },
  {
    "id_str": "V210096314",
    "created_at": "9/2/2021 2:22:05 AM",
    "timestamp": 1630574525000,
    "description": "Fire in Building",
    "address": "8607 DALLAS AVE S",
    "active": false,
    "unitCount": 2,
    "severity": 0,
    "lat": 47.526863,
    "long": -122.312848,
    "units": "B5 E26"
  },
  {
    "id_str": "F210096311",
    "created_at": "9/2/2021 2:20:05 AM",
    "timestamp": 1630574405000,
    "description": "Low Acuity Response",
    "address": "1004 W Armour St",
    "active": false,
    "unitCount": 1,
    "severity": 0,
    "lat": 47.645031,
    "long": -122.370511,
    "neighborhood": "Queen Anne",
    "neighborhoodGroup": "Magnolia/Queen Anne",
    "units": "E20"
  },
  {
    "id_str": "F210096310",
    "created_at": "9/2/2021 2:18:33 AM",
    "timestamp": 1630574313000,
    "description": "Aid Response",
    "address": "6543 32ND AVE SW",
    "active": false,
    "unitCount": 1,
    "severity": 0,
    "lat": 47.676611,
    "long": -122.39837,
    "neighborhood": "Sunset Hill/Loyal Heights",
    "neighborhoodGroup": "Ballard",
    "units": "E18"
  },
  {
    "id_str": "F210096308",
    "created_at": "9/2/2021 2:16:10 AM",
    "timestamp": 1630574170000,
    "description": "Aid Response",
    "address": "300 1st Ave W",
    "active": false,
    "unitCount": 1,
    "severity": 0,
    "lat": 47.620946,
    "long": -122.358045,
    "neighborhood": "Queen Anne",
    "neighborhoodGroup": "Magnolia/Queen Anne",
    "units": "A2"
  },
  {
    "id_str": "V210096309",
    "created_at": "9/2/2021 2:15:34 AM",
    "timestamp": 1630574134000,
    "description": "Fire in Building",
    "address": "8606 DALLAS AVE S",
    "active": false,
    "unitCount": 20,
    "severity": 2,
    "units": "A14 AIR10 B5 B7 DEP1 E11 E13 E26 E27 E36 FB2 L12 L13 M26 M44 MAR5 R1 REHAB1 SAFT2 STAF10"
  },
  {
    "id_str": "F210096306",
    "created_at": "9/2/2021 2:12:14 AM",
    "timestamp": 1630573934000,
    "description": "Aid Response",
    "address": "10507 Aurora Ave N",
    "active": false,
    "unitCount": 1,
    "severity": 0,
    "lat": 47.705096,
    "long": -122.344695,
    "neighborhood": "Licton Springs",
    "neighborhoodGroup": "Northwest",
    "units": "E21"
  },
  {
    "id_str": "F210096304",
    "created_at": "9/2/2021 2:03:29 AM",
    "timestamp": 1630573409000,
    "description": "Aid Response",
    "address": "101 W Olympic Pl",
    "active": false,
    "unitCount": 1,
    "severity": 0,
    "lat": 47.626721,
    "long": -122.358,
    "neighborhood": "Queen Anne",
    "neighborhoodGroup": "Magnolia/Queen Anne",
    "units": "E8"
  },
  {
    "id_str": "F210096302",
    "created_at": "9/2/2021 2:01:22 AM",
    "timestamp": 1630573282000,
    "description": "Low Acuity Response",
    "address": "12027 15th Ave Ne",
    "active": false,
    "unitCount": 1,
    "severity": 0,
    "lat": 47.715948,
    "long": -122.312561,
    "neighborhood": "Olympic Hills/Victory Heights",
    "neighborhoodGroup": "North",
    "units": "E39"
  },
  {
    "id_str": "F210096300",
    "created_at": "9/2/2021 1:49:42 AM",
    "timestamp": 1630572582000,
    "description": "Aid Response",
    "address": "9th Ave / Jefferson St",
    "active": false,
    "unitCount": 1,
    "severity": 0,
    "lat": 47.604841,
    "long": -122.324097,
    "neighborhood": "First Hill",
    "neighborhoodGroup": "East",
    "units": "A5"
  },
  {
    "id_str": "F210096299",
    "created_at": "9/2/2021 1:48:56 AM",
    "timestamp": 1630572536000,
    "description": "Aid Response",
    "address": "12505 Greenwood Ave N",
    "active": false,
    "unitCount": 1,
    "severity": 0,
    "lat": 47.719638,
    "long": -122.355539,
    "neighborhood": "Broadview/Bitter Lake",
    "neighborhoodGroup": "Northwest",
    "units": "E24"
  },
  {
    "id_str": "F210096298",
    "created_at": "9/2/2021 1:48:43 AM",
    "timestamp": 1630572523000,
    "description": "Low Acuity Response",
    "address": "820 Yesler Way",
    "active": false,
    "unitCount": 1,
    "severity": 0,
    "lat": 47.601702,
    "long": -122.322098,
    "neighborhood": "First Hill",
    "neighborhoodGroup": "East",
    "units": "A10"
  },
  {
    "id_str": "F210096297",
    "created_at": "9/2/2021 1:45:34 AM",
    "timestamp": 1630572334000,
    "description": "Aid Response",
    "address": "3213 19th Ave S",
    "active": false,
    "unitCount": 1,
    "severity": 0,
    "lat": 47.574948,
    "long": -122.30739,
    "neighborhood": "North Beacon Hill/Jefferson Park",
    "neighborhoodGroup": "Greater Duwamish",
    "units": "E13"
  },
  {
    "id_str": "F210096291",
    "created_at": "9/2/2021 1:17:37 AM",
    "timestamp": 1630570657000,
    "description": "Alarm Bell",
    "address": "5021 Brooklyn Ave Ne",
    "active": false,
    "unitCount": 2,
    "severity": 0,
    "lat": 47.665063,
    "long": -122.314208,
    "neighborhood": "University District",
    "neighborhoodGroup": "Northeast",
    "units": "E17 L9"
  },
  {
    "id_str": "F210096290",
    "created_at": "9/2/2021 1:15:20 AM",
    "timestamp": 1630570520000,
    "description": "Aid Response",
    "address": "1431 Minor Ave",
    "active": false,
    "unitCount": 1,
    "severity": 0,
    "lat": 47.613247,
    "long": -122.327187,
    "neighborhood": "Capitol Hill",
    "neighborhoodGroup": "East",
    "units": "A25"
  },
  {
    "id_str": "F210096289",
    "created_at": "9/2/2021 1:15:18 AM",
    "timestamp": 1630570518000,
    "description": "Aid Response",
    "address": "1665 Broadmoor Dr E",
    "active": false,
    "unitCount": 1,
    "severity": 0,
    "lat": 47.633967,
    "long": -122.288161,
    "neighborhood": "Madison Park",
    "neighborhoodGroup": "East",
    "units": "E34"
  },
  {
    "id_str": "F210096288",
    "created_at": "9/2/2021 1:11:23 AM",
    "timestamp": 1630570283000,
    "description": "Rescue Elevator",
    "address": "10733 Meridian Ave N",
    "active": false,
    "unitCount": 1,
    "severity": 0,
    "lat": 47.707045,
    "long": -122.333964,
    "neighborhood": "Northgate/Maple Leaf",
    "neighborhoodGroup": "North",
    "units": "L5"
  },
  {
    "id_str": "F210096287",
    "created_at": "9/2/2021 1:07:02 AM",
    "timestamp": 1630570022000,
    "description": "4RED - 2 + 1 + 1",
    "address": "2nd Ave Sw / Highland Park Way Sw",
    "active": false,
    "unitCount": 4,
    "severity": 0,
    "lat": 47.539813,
    "long": -122.337111,
    "neighborhood": "South Park",
    "neighborhoodGroup": "Greater Duwamish",
    "units": "B7 E11 E26 L13"
  },
  {
    "id_str": "F210096283",
    "created_at": "9/2/2021 12:54:24 AM",
    "timestamp": 1630569264000,
    "description": "Auto Fire Alarm",
    "address": "747 N 135th St",
    "active": false,
    "unitCount": 2,
    "severity": 0,
    "lat": 47.726803,
    "long": -122.347793,
    "neighborhood": "Broadview/Bitter Lake",
    "neighborhoodGroup": "Northwest",
    "units": "E24 L5"
  },
  {
    "id_str": "F210096282",
    "created_at": "9/2/2021 12:51:59 AM",
    "timestamp": 1630569119000,
    "description": "Aid Response",
    "address": "2519 1st Ave",
    "active": false,
    "unitCount": 1,
    "severity": 0,
    "lat": 47.614798,
    "long": -122.348918,
    "neighborhood": "Belltown",
    "neighborhoodGroup": "Downtown",
    "units": "A2"
  },
  {
    "id_str": "F210096281",
    "created_at": "9/2/2021 12:41:45 AM",
    "timestamp": 1630568505000,
    "description": "Aid Response",
    "address": "5018 43rd Ave S",
    "active": false,
    "unitCount": 1,
    "severity": 0,
    "lat": 47.556551,
    "long": -122.279592,
    "neighborhood": "Columbia City",
    "neighborhoodGroup": "Southeast",
    "units": "L12"
  },
  {
    "id_str": "F210096280",
    "created_at": "9/2/2021 12:34:54 AM",
    "timestamp": 1630568094000,
    "description": "Illegal Burn",
    "address": "1920 1st Ave S",
    "active": false,
    "unitCount": 1,
    "severity": 0,
    "lat": 47.585961,
    "long": -122.334198,
    "neighborhood": "Duwamish/SODO",
    "neighborhoodGroup": "Greater Duwamish",
    "units": "E10"
  },
  {
    "id_str": "F210096279",
    "created_at": "9/2/2021 12:29:03 AM",
    "timestamp": 1630567743000,
    "description": "Aid Response",
    "address": "2113 E OLIVE ST",
    "active": false,
    "unitCount": 1,
    "severity": 0,
    "lat": 47.617113,
    "long": -122.304683,
    "neighborhood": "Central Area/Squire Park",
    "neighborhoodGroup": "Central",
    "units": "A25"
  },
  {
    "id_str": "F210096278",
    "created_at": "9/2/2021 12:28:29 AM",
    "timestamp": 1630567709000,
    "description": "Auto Fire Alarm",
    "address": "1300 Hubbell Pl",
    "active": false,
    "unitCount": 2,
    "severity": 0,
    "lat": 47.610249,
    "long": -122.330769,
    "neighborhood": "First Hill",
    "neighborhoodGroup": "East",
    "units": "E5 L1"
  },
  {
    "id_str": "F210096277",
    "created_at": "9/2/2021 12:23:52 AM",
    "timestamp": 1630567432000,
    "description": "Scenes Of Violence 7",
    "address": "32nd Ave S / S Brighton St",
    "active": false,
    "unitCount": 5,
    "severity": 1,
    "lat": 47.541317,
    "long": -122.291014,
    "neighborhood": "South Beacon Hill/NewHolly",
    "neighborhoodGroup": "Greater Duwamish",
    "units": "B5 E28 L12 M28 M44"
  },
  {
    "id_str": "F210096274",
    "created_at": "9/2/2021 12:19:39 AM",
    "timestamp": 1630567179000,
    "description": "MVI - Motor Vehicle Incident",
    "address": "29th Ave Sw / Sw Brandon St",
    "active": false,
    "unitCount": 1,
    "severity": 0,
    "lat": 47.553753,
    "long": -122.369592,
    "neighborhood": "High Point",
    "neighborhoodGroup": "Delridge Neighborhoods",
    "units": "E36"
  },
  {
    "id_str": "F210096272",
    "created_at": "9/2/2021 12:15:50 AM",
    "timestamp": 1630566950000,
    "description": "Aid Response",
    "address": "6500 Sand Point Way Ne",
    "active": false,
    "unitCount": 2,
    "severity": 0,
    "lat": 47.675722,
    "long": -122.263545,
    "neighborhood": "Laurelhurst/Sand Point",
    "neighborhoodGroup": "Northeast",
    "units": "E38 M17"
  },
  {
    "id_str": "F210096273",
    "created_at": "9/2/2021 12:15:18 AM",
    "timestamp": 1630566918000,
    "description": "Aid Response",
    "address": "14200 LINDEN AVE N",
    "active": false,
    "unitCount": 2,
    "severity": 0,
    "lat": 47.731677,
    "long": -122.347772,
    "neighborhood": "Broadview/Bitter Lake",
    "neighborhoodGroup": "Northwest",
    "units": "E24 E39"
  },
  {
    "id_str": "F210096270",
    "created_at": "9/1/2021 11:57:35 PM",
    "timestamp": 1630565855000,
    "description": "Aid Response",
    "address": "N 105th St / Aurora Ave N",
    "active": false,
    "unitCount": 1,
    "severity": 0,
    "lat": 47.705051,
    "long": -122.344694,
    "neighborhood": "Licton Springs",
    "neighborhoodGroup": "Northwest",
    "units": "E24"
  },
  {
    "id_str": "F210096269",
    "created_at": "9/1/2021 11:44:40 PM",
    "timestamp": 1630565080000,
    "description": "Aid Response",
    "address": "720 Blanchard St",
    "active": false,
    "unitCount": 2,
    "severity": 0,
    "lat": 47.616731,
    "long": -122.339879,
    "neighborhood": "Cascade/Eastlake",
    "neighborhoodGroup": "Lake Union",
    "units": "A2 E2"
  },
  {
    "id_str": "F210096267",
    "created_at": "9/1/2021 11:38:32 PM",
    "timestamp": 1630564712000,
    "description": "Aid Response",
    "address": "201 Yesler Way",
    "active": false,
    "unitCount": 1,
    "severity": 0,
    "lat": 47.601719,
    "long": -122.331966,
    "neighborhood": "Downtown Commercial Core",
    "neighborhoodGroup": "Downtown",
    "units": "A5"
  },
  {
    "id_str": "F210096265",
    "created_at": "9/1/2021 11:29:36 PM",
    "timestamp": 1630564176000,
    "description": "Aid Response",
    "address": "2224 8th Ave",
    "active": false,
    "unitCount": 1,
    "severity": 0,
    "lat": 47.617439,
    "long": -122.3395,
    "neighborhood": "Cascade/Eastlake",
    "neighborhoodGroup": "Lake Union",
    "units": "A2"
  },
  {
    "id_str": "F210096263",
    "created_at": "9/1/2021 11:23:47 PM",
    "timestamp": 1630563827000,
    "description": "Aid Response",
    "address": "3517 Ne 94th St",
    "active": false,
    "unitCount": 1,
    "severity": 0,
    "lat": 47.696687,
    "long": -122.290377,
    "neighborhood": "Wedgwood/View Ridge",
    "neighborhoodGroup": "Northeast",
    "units": "E40"
  },
  {
    "id_str": "F210096262",
    "created_at": "9/1/2021 11:22:03 PM",
    "timestamp": 1630563723000,
    "description": "Aid Response",
    "address": "1118 5th Ave",
    "active": false,
    "unitCount": 1,
    "severity": 0,
    "lat": 47.60739,
    "long": -122.332564,
    "neighborhood": "Downtown Commercial Core",
    "neighborhoodGroup": "Downtown",
    "units": "A10"
  },
  {
    "id_str": "F210096258",
    "created_at": "9/1/2021 11:09:21 PM",
    "timestamp": 1630562961000,
    "description": "Low Acuity Response",
    "address": "147 N 132nd St",
    "active": false,
    "unitCount": 1,
    "severity": 0,
    "lat": 47.725059,
    "long": -122.357384,
    "neighborhood": "Broadview/Bitter Lake",
    "neighborhoodGroup": "Northwest",
    "units": "E24"
  },
  {
    "id_str": "F210096257",
    "created_at": "9/1/2021 11:08:09 PM",
    "timestamp": 1630562889000,
    "description": "Aid Response",
    "address": "2301 3rd Ave",
    "active": false,
    "unitCount": 1,
    "severity": 0,
    "lat": 47.614705,
    "long": -122.344794,
    "neighborhood": "Cascade/Eastlake",
    "neighborhoodGroup": "Lake Union",
    "units": "E2"
  },
  {
    "id_str": "F210096256",
    "created_at": "9/1/2021 11:02:42 PM",
    "timestamp": 1630562562000,
    "description": "Aid Response",
    "address": "325 9th Ave",
    "active": false,
    "unitCount": 1,
    "severity": 0,
    "lat": 47.603588,
    "long": -122.322949,
    "neighborhood": "First Hill",
    "neighborhoodGroup": "East",
    "units": "A5"
  },
  {
    "id_str": "F210096255",
    "created_at": "9/1/2021 10:50:19 PM",
    "timestamp": 1630561819000,
    "description": "Aid Response",
    "address": "8th Ave / Blanchard St",
    "active": false,
    "unitCount": 1,
    "severity": 0,
    "lat": 47.617259,
    "long": -122.339195,
    "neighborhood": "Cascade/Eastlake",
    "neighborhoodGroup": "Lake Union",
    "units": "A2"
  },
  {
    "id_str": "F210096254",
    "created_at": "9/1/2021 10:38:01 PM",
    "timestamp": 1630561081000,
    "description": "Aid Response",
    "address": "4203 Sw Hill St",
    "active": false,
    "unitCount": 1,
    "severity": 0,
    "lat": 47.585357,
    "long": -122.385259,
    "neighborhood": "Alki/Admiral",
    "neighborhoodGroup": "Southwest",
    "units": "E29"
  },
  {
    "id_str": "F210096249",
    "created_at": "9/1/2021 10:23:41 PM",
    "timestamp": 1630560221000,
    "description": "Aid Response",
    "address": "9715 Roosevelt Way Ne",
    "active": false,
    "unitCount": 1,
    "severity": 0,
    "lat": 47.699601,
    "long": -122.31764,
    "neighborhood": "Northgate/Maple Leaf",
    "neighborhoodGroup": "North",
    "units": "E40"
  },
  {
    "id_str": "F210096248",
    "created_at": "9/1/2021 10:23:00 PM",
    "timestamp": 1630560180000,
    "description": "Medic Response, 7 per Rule",
    "address": "555 16th Ave",
    "active": false,
    "unitCount": 4,
    "severity": 0,
    "lat": 47.606687,
    "long": -122.31155,
    "neighborhood": "Central Area/Squire Park",
    "neighborhoodGroup": "Central",
    "units": "A25 E25 M10 M44"
  },
  {
    "id_str": "F210096246",
    "created_at": "9/1/2021 10:16:59 PM",
    "timestamp": 1630559819000,
    "description": "Aid Response",
    "address": "116 Fairview Ave N",
    "active": false,
    "unitCount": 1,
    "severity": 0,
    "lat": 47.618693,
    "long": -122.334256,
    "neighborhood": "Cascade/Eastlake",
    "neighborhoodGroup": "Lake Union",
    "units": "A2"
  },
  {
    "id_str": "F210096244",
    "created_at": "9/1/2021 10:04:08 PM",
    "timestamp": 1630559048000,
    "description": "Aid Response",
    "address": "601 Roy St",
    "active": false,
    "unitCount": 1,
    "severity": 0,
    "lat": 47.625413,
    "long": -122.344942,
    "neighborhood": "Cascade/Eastlake",
    "neighborhoodGroup": "Lake Union",
    "units": "E2"
  },
  {
    "id_str": "F210096243",
    "created_at": "9/1/2021 10:02:20 PM",
    "timestamp": 1630558940000,
    "description": "AFA4 - Auto Alarm 2 + 1 + 1",
    "address": "2121 26th Ave S",
    "active": false,
    "unitCount": 5,
    "severity": 1,
    "lat": 47.584234,
    "long": -122.299024,
    "neighborhood": "Mt. Baker/North Rainier",
    "neighborhoodGroup": "Southeast",
    "units": "B5 E16 E30 E6 L3"
  },
  {
    "id_str": "F210096242",
    "created_at": "9/1/2021 9:58:26 PM",
    "timestamp": 1630558706000,
    "description": "Aid Response",
    "address": "Franklin Ave E / Harvard Ave E",
    "active": false,
    "unitCount": 2,
    "severity": 0,
    "lat": 47.648711,
    "long": -122.322099,
    "neighborhood": "Montlake/Portage Bay",
    "neighborhoodGroup": "Northeast",
    "units": "B6 E22"
  },
  {
    "id_str": "F210096239",
    "created_at": "9/1/2021 9:51:59 PM",
    "timestamp": 1630558319000,
    "description": "Auto Fire Alarm",
    "address": "5001 Brooklyn Ave Ne",
    "active": false,
    "unitCount": 2,
    "severity": 0,
    "lat": 47.664908,
    "long": -122.31421,
    "neighborhood": "University District",
    "neighborhoodGroup": "Northeast",
    "units": "E31 L9"
  },
  {
    "id_str": "F210096237",
    "created_at": "9/1/2021 9:48:06 PM",
    "timestamp": 1630558086000,
    "description": "Medic Response, 7 per Rule",
    "address": "1533 Western Ave",
    "active": false,
    "unitCount": 3,
    "severity": 0,
    "lat": 47.608682,
    "long": -122.341421,
    "neighborhood": "Downtown Commercial Core",
    "neighborhoodGroup": "Downtown",
    "units": "A5 E5 M32"
  },
  {
    "id_str": "F210096236",
    "created_at": "9/1/2021 9:46:11 PM",
    "timestamp": 1630557971000,
    "description": "Auto Fire Alarm",
    "address": "901 5th Ave",
    "active": false,
    "unitCount": 2,
    "severity": 0,
    "lat": 47.605839,
    "long": -122.331146,
    "neighborhood": "First Hill",
    "neighborhoodGroup": "East",
    "units": "E10 L1"
  },
  {
    "id_str": "F210096235",
    "created_at": "9/1/2021 9:46:05 PM",
    "timestamp": 1630557965000,
    "description": "Medic Response, 7 per Rule",
    "address": "8TH AVE / PIKE ST",
    "active": false,
    "unitCount": 4,
    "severity": 0,
    "lat": 47.61163,
    "long": -122.333297,
    "neighborhood": "First Hill",
    "neighborhoodGroup": "East",
    "units": "A2 L4 M1 M44"
  },
  {
    "id_str": "F210096229",
    "created_at": "9/1/2021 9:25:44 PM",
    "timestamp": 1630556744000,
    "description": "Aid Response",
    "address": "10032 12th Ave Nw",
    "active": false,
    "unitCount": 1,
    "severity": 0,
    "lat": 47.701718,
    "long": -122.371414,
    "neighborhood": "North Beach/Blue Ridge",
    "neighborhoodGroup": "Ballard",
    "units": "E35"
  },
  {
    "id_str": "F210096227",
    "created_at": "9/1/2021 9:22:35 PM",
    "timestamp": 1630556555000,
    "description": "Water Rescue Standby",
    "address": "Ne 40th St / Eastlake Ave Ne",
    "active": false,
    "unitCount": 11,
    "severity": 2,
    "lat": 47.655471,
    "long": -122.318266,
    "neighborhood": "University District",
    "neighborhoodGroup": "Northeast",
    "units": "A14 B6 E10 E17 E34 E5 FIREBOAT FRB5 M18 PTRL4 R1"
  },
  {
    "id_str": "F210096225",
    "created_at": "9/1/2021 9:21:34 PM",
    "timestamp": 1630556494000,
    "description": "Aid Response",
    "address": "94 Bay St",
    "active": false,
    "unitCount": 1,
    "severity": 0,
    "lat": 47.618412,
    "long": -122.355206,
    "neighborhood": "Belltown",
    "neighborhoodGroup": "Downtown",
    "units": "E2"
  },
  {
    "id_str": "F210096223",
    "created_at": "9/1/2021 9:20:16 PM",
    "timestamp": 1630556416000,
    "description": "Medic Response",
    "address": "1728 E Olive St",
    "active": false,
    "unitCount": 2,
    "severity": 0,
    "lat": 47.616442,
    "long": -122.309778,
    "neighborhood": "Central Area/Squire Park",
    "neighborhoodGroup": "Central",
    "units": "E25 M17"
  },
  {
    "id_str": "F210096222",
    "created_at": "9/1/2021 9:19:54 PM",
    "timestamp": 1630556394000,
    "description": "Illegal Burn",
    "address": "Alki Ave Sw / 54th Pl Sw",
    "active": false,
    "unitCount": 1,
    "severity": 0,
    "lat": 47.582704,
    "long": -122.402074,
    "neighborhood": "West Seattle Junction/Genesee Hill",
    "neighborhoodGroup": "Southwest",
    "units": "E29"
  },
  {
    "id_str": "F210096221",
    "created_at": "9/1/2021 9:14:35 PM",
    "timestamp": 1630556075000,
    "description": "Aid Response",
    "address": "116 Stewart St",
    "active": false,
    "unitCount": 1,
    "severity": 0,
    "lat": 47.610387,
    "long": -122.341198,
    "neighborhood": "Belltown",
    "neighborhoodGroup": "Downtown",
    "units": "L4"
  },
  {
    "id_str": "F210096219",
    "created_at": "9/1/2021 9:12:20 PM",
    "timestamp": 1630555940000,
    "description": "Aid Response",
    "address": "11420 37th Ave Sw",
    "active": false,
    "unitCount": 1,
    "severity": 0,
    "lat": 47.50115,
    "long": -122.378182,
    "neighborhood": "Arbor Heights",
    "neighborhoodGroup": "Southwest",
    "units": "E37"
  },
  {
    "id_str": "F210096217",
    "created_at": "9/1/2021 9:07:37 PM",
    "timestamp": 1630555657000,
    "description": "Scenes Of Violence 7",
    "address": "415 Cedar St",
    "active": false,
    "unitCount": 5,
    "severity": 1,
    "lat": 47.618123,
    "long": -122.347615,
    "neighborhood": "Cascade/Eastlake",
    "neighborhoodGroup": "Lake Union",
    "units": "A2 B2 E2 M1 M44"
  },
  {
    "id_str": "F210096218",
    "created_at": "9/1/2021 9:07:34 PM",
    "timestamp": 1630555654000,
    "description": "Medic Response",
    "address": "2500 E Union St",
    "active": false,
    "unitCount": 2,
    "severity": 0,
    "lat": 47.612937,
    "long": -122.300111,
    "neighborhood": "Central Area/Squire Park",
    "neighborhoodGroup": "Central",
    "units": "A25 M17"
  },
  {
    "id_str": "F210096216",
    "created_at": "9/1/2021 9:05:08 PM",
    "timestamp": 1630555508000,
    "description": "Aid Response Yellow",
    "address": "5710 Rainier Ave S",
    "active": false,
    "unitCount": 1,
    "severity": 0,
    "lat": 47.5511,
    "long": -122.277623,
    "neighborhood": "Columbia City",
    "neighborhoodGroup": "Southeast",
    "units": "E28"
  },
  {
    "id_str": "F210096211",
    "created_at": "9/1/2021 8:58:04 PM",
    "timestamp": 1630555084000,
    "description": "Encampment Fire",
    "address": "3201 Fairview Ave E",
    "active": false,
    "unitCount": 1,
    "severity": 0,
    "lat": 47.650578,
    "long": -122.323365,
    "neighborhood": "Montlake/Portage Bay",
    "neighborhoodGroup": "Northeast",
    "units": "E22"
  },
  {
    "id_str": "F210096213",
    "created_at": "9/1/2021 8:57:45 PM",
    "timestamp": 1630555065000,
    "description": "Illegal Burn",
    "address": "15th Ave E / E Highland Dr",
    "active": false,
    "unitCount": 1,
    "severity": 0,
    "lat": 47.632334,
    "long": -122.312497,
    "neighborhood": "Montlake/Portage Bay",
    "neighborhoodGroup": "Northeast",
    "units": "L10"
  },
  {
    "id_str": "F210096210",
    "created_at": "9/1/2021 8:56:18 PM",
    "timestamp": 1630554978000,
    "description": "Investigate Out Of Service",
    "address": "8th Ave / Columbia St",
    "active": false,
    "unitCount": 1,
    "severity": 0,
    "lat": 47.606518,
    "long": -122.327166,
    "neighborhood": "First Hill",
    "neighborhoodGroup": "East",
    "units": "E10"
  },
  {
    "id_str": "F210096207",
    "created_at": "9/1/2021 8:53:34 PM",
    "timestamp": 1630554814000,
    "description": "Rubbish Fire",
    "address": "Union St / 7th Ave",
    "active": false,
    "unitCount": 1,
    "severity": 0,
    "lat": 47.610614,
    "long": -122.332447,
    "neighborhood": "First Hill",
    "neighborhoodGroup": "East",
    "units": "E25"
  },
  {
    "id_str": "F210096206",
    "created_at": "9/1/2021 8:52:12 PM",
    "timestamp": 1630554732000,
    "description": "Aid Response",
    "address": "4401 S Trenton St",
    "active": false,
    "unitCount": 1,
    "severity": 0,
    "lat": 47.524258,
    "long": -122.278029,
    "neighborhood": "South Beacon Hill/NewHolly",
    "neighborhoodGroup": "Greater Duwamish",
    "units": "E33"
  },
  {
    "id_str": "F210096202",
    "created_at": "9/1/2021 8:45:14 PM",
    "timestamp": 1630554314000,
    "description": "Aid Response",
    "address": "30th Ave S / S Lane St",
    "active": false,
    "unitCount": 1,
    "severity": 0,
    "lat": 47.596679,
    "long": -122.293892,
    "neighborhood": "Madrona/Leschi",
    "neighborhoodGroup": "Central",
    "units": "E6"
  },
  {
    "id_str": "F210096200",
    "created_at": "9/1/2021 8:40:52 PM",
    "timestamp": 1630554052000,
    "description": "Aid Response",
    "address": "11737 5th Ave Ne",
    "active": false,
    "unitCount": 1,
    "severity": 0,
    "lat": 47.714265,
    "long": -122.32344,
    "neighborhood": "Haller Lake",
    "neighborhoodGroup": "Northwest",
    "units": "E39"
  },
  {
    "id_str": "F210096199",
    "created_at": "9/1/2021 8:40:38 PM",
    "timestamp": 1630554038000,
    "description": "Medic Response",
    "address": "223 Yesler Way",
    "active": false,
    "unitCount": 2,
    "severity": 0,
    "lat": 47.601718,
    "long": -122.331581,
    "neighborhood": "Downtown Commercial Core",
    "neighborhoodGroup": "Downtown",
    "units": "A10 M10"
  },
  {
    "id_str": "F210096198",
    "created_at": "9/1/2021 8:38:59 PM",
    "timestamp": 1630553939000,
    "description": "Aid Response",
    "address": "5952 High Point Dr Sw",
    "active": false,
    "unitCount": 1,
    "severity": 0,
    "lat": 47.547482,
    "long": -122.369095,
    "neighborhood": "High Point",
    "neighborhoodGroup": "Delridge Neighborhoods",
    "units": "E37"
  },
  {
    "id_str": "F210096197",
    "created_at": "9/1/2021 8:36:42 PM",
    "timestamp": 1630553802000,
    "description": "MVI - Motor Vehicle Incident",
    "address": "1st Ave S / Olson Pl Sw",
    "active": false,
    "unitCount": 1,
    "severity": 0,
    "lat": 47.522322,
    "long": -122.334841,
    "neighborhood": "Highland Park",
    "neighborhoodGroup": "Delridge Neighborhoods",
    "units": "E26"
  },
  {
    "id_str": "F210096189",
    "created_at": "9/1/2021 8:21:51 PM",
    "timestamp": 1630552911000,
    "description": "Aid Response",
    "address": "1405 24TH AVE",
    "active": false,
    "unitCount": 1,
    "severity": 0,
    "lat": 47.613056,
    "long": -122.301416,
    "neighborhood": "Central Area/Squire Park",
    "neighborhoodGroup": "Central",
    "units": "E25"
  },
  {
    "id_str": "F210096185",
    "created_at": "9/1/2021 8:13:53 PM",
    "timestamp": 1630552433000,
    "description": "Aid Response",
    "address": "2621 2nd Ave",
    "active": false,
    "unitCount": 1,
    "severity": 0,
    "lat": 47.616027,
    "long": -122.349014,
    "neighborhood": "Belltown",
    "neighborhoodGroup": "Downtown",
    "units": "A4"
  },
  {
    "id_str": "F210096184",
    "created_at": "9/1/2021 8:11:45 PM",
    "timestamp": 1630552305000,
    "description": "Medic Response",
    "address": "2150 N 107th St",
    "active": false,
    "unitCount": 2,
    "severity": 0,
    "lat": 47.70684,
    "long": -122.332461,
    "neighborhood": "Northgate/Maple Leaf",
    "neighborhoodGroup": "North",
    "units": "A31 M17"
  },
  {
    "id_str": "F210096183",
    "created_at": "9/1/2021 8:10:22 PM",
    "timestamp": 1630552222000,
    "description": "Medic Response",
    "address": "1105 E Fir St",
    "active": false,
    "unitCount": 2,
    "severity": 0,
    "lat": 47.602688,
    "long": -122.318034,
    "neighborhood": "First Hill",
    "neighborhoodGroup": "East",
    "units": "A25 M1"
  },
  {
    "id_str": "F210096181",
    "created_at": "9/1/2021 8:04:46 PM",
    "timestamp": 1630551886000,
    "description": "Aid Response",
    "address": "400 S Washington St",
    "active": false,
    "unitCount": 1,
    "severity": 0,
    "lat": 47.600875,
    "long": -122.328963,
    "neighborhood": "Pioneer Square/International District",
    "neighborhoodGroup": "Downtown",
    "units": "A5"
  },
  {
    "id_str": "F210096180",
    "created_at": "9/1/2021 8:02:23 PM",
    "timestamp": 1630551743000,
    "description": "Auto Fire Alarm",
    "address": "6420 California Ave Sw",
    "active": false,
    "unitCount": 2,
    "severity": 0,
    "lat": 47.545436,
    "long": -122.387209,
    "neighborhood": "Fauntleroy/Seaview",
    "neighborhoodGroup": "Southwest",
    "units": "E32 L11"
  },
  {
    "id_str": "F210096175",
    "created_at": "9/1/2021 7:50:00 PM",
    "timestamp": 1630551000000,
    "description": "Encampment Fire",
    "address": "19th Ave / E Madison St",
    "active": false,
    "unitCount": 1,
    "severity": 0,
    "lat": 47.616733,
    "long": -122.307409,
    "neighborhood": "Central Area/Squire Park",
    "neighborhoodGroup": "Central",
    "units": "E25"
  },
  {
    "id_str": "F210096172",
    "created_at": "9/1/2021 7:35:56 PM",
    "timestamp": 1630550156000,
    "description": "Low Acuity Response",
    "address": "3rd Ave / Yesler Way",
    "active": false,
    "unitCount": 1,
    "severity": 0,
    "lat": 47.601716,
    "long": -122.330265,
    "neighborhood": "Downtown Commercial Core",
    "neighborhoodGroup": "Downtown",
    "units": "A10"
  },
  {
    "id_str": "F210096171",
    "created_at": "9/1/2021 7:34:30 PM",
    "timestamp": 1630550070000,
    "description": "Aid Response",
    "address": "2309 35th Ave W",
    "active": false,
    "unitCount": 1,
    "severity": 0,
    "lat": 47.639112,
    "long": -122.402379,
    "neighborhood": "Magnolia",
    "neighborhoodGroup": "Magnolia/Queen Anne",
    "units": "E41"
  },
  {
    "id_str": "F210096168",
    "created_at": "9/1/2021 7:27:53 PM",
    "timestamp": 1630549673000,
    "description": "Aid Response",
    "address": "11124 51st Ave S",
    "active": false,
    "unitCount": 1,
    "severity": 0,
    "lat": 47.501357,
    "long": -122.270217,
    "units": "E33"
  },
  {
    "id_str": "F210096167",
    "created_at": "9/1/2021 7:27:00 PM",
    "timestamp": 1630549620000,
    "description": "Low Acuity Response",
    "address": "2500 E Union St",
    "active": false,
    "unitCount": 1,
    "severity": 0,
    "lat": 47.612937,
    "long": -122.300111,
    "neighborhood": "Central Area/Squire Park",
    "neighborhoodGroup": "Central",
    "units": "A25"
  },
  {
    "id_str": "F210096166",
    "created_at": "9/1/2021 7:23:12 PM",
    "timestamp": 1630549392000,
    "description": "Aid Response",
    "address": "8017 10th Ave Nw",
    "active": false,
    "unitCount": 1,
    "severity": 0,
    "lat": 47.687016,
    "long": -122.369342,
    "neighborhood": "Whittier Heights",
    "neighborhoodGroup": "Ballard",
    "units": "E35"
  },
  {
    "id_str": "F210096164",
    "created_at": "9/1/2021 7:21:50 PM",
    "timestamp": 1630549310000,
    "description": "Rubbish Fire",
    "address": "15th Ave S / Beacon Ave S",
    "active": false,
    "unitCount": 2,
    "severity": 0,
    "lat": 47.580593,
    "long": -122.313412,
    "neighborhood": "North Beacon Hill/Jefferson Park",
    "neighborhoodGroup": "Greater Duwamish",
    "units": "E13 E30"
  },
  {
    "id_str": "F210096163",
    "created_at": "9/1/2021 7:21:06 PM",
    "timestamp": 1630549266000,
    "description": "Aid Response",
    "address": "2030 3rd Ave",
    "active": false,
    "unitCount": 2,
    "severity": 0,
    "lat": 47.612626,
    "long": -122.341277,
    "neighborhood": "Cascade/Eastlake",
    "neighborhoodGroup": "Lake Union",
    "units": "A2 E2"
  },
  {
    "id_str": "F210096162",
    "created_at": "9/1/2021 7:20:16 PM",
    "timestamp": 1630549216000,
    "description": "Medic Response",
    "address": "2nd Ave / Virginia St",
    "active": false,
    "unitCount": 2,
    "severity": 0,
    "lat": 47.611733,
    "long": -122.341753,
    "neighborhood": "Belltown",
    "neighborhoodGroup": "Downtown",
    "units": "A4 M10"
  },
  {
    "id_str": "F210096160",
    "created_at": "9/1/2021 7:11:05 PM",
    "timestamp": 1630548665000,
    "description": "Aid Response",
    "address": "3220 California Ave Sw",
    "active": false,
    "unitCount": 1,
    "severity": 0,
    "lat": 47.575258,
    "long": -122.386761,
    "neighborhood": "West Seattle Junction/Genesee Hill",
    "neighborhoodGroup": "Southwest",
    "units": "E29"
  },
  {
    "id_str": "F210096159",
    "created_at": "9/1/2021 7:09:35 PM",
    "timestamp": 1630548575000,
    "description": "Medic Response",
    "address": "1518 3rd Ave",
    "active": false,
    "unitCount": 2,
    "severity": 0,
    "lat": 47.609922,
    "long": -122.337951,
    "neighborhood": "Downtown Commercial Core",
    "neighborhoodGroup": "Downtown",
    "units": "E5 M10"
  },
  {
    "id_str": "F210096158",
    "created_at": "9/1/2021 7:08:53 PM",
    "timestamp": 1630548533000,
    "description": "Rescue Elevator",
    "address": "500 5th Ave",
    "active": false,
    "unitCount": 1,
    "severity": 0,
    "lat": 47.602985,
    "long": -122.328535,
    "neighborhood": "First Hill",
    "neighborhoodGroup": "East",
    "units": "L4"
  },
  {
    "id_str": "F210096155",
    "created_at": "9/1/2021 6:59:05 PM",
    "timestamp": 1630547945000,
    "description": "Aid Response",
    "address": "3206 S Ferdinand St",
    "active": false,
    "unitCount": 1,
    "severity": 0,
    "lat": 47.557867,
    "long": -122.291351,
    "neighborhood": "Columbia City",
    "neighborhoodGroup": "Southeast",
    "units": "E28"
  },
  {
    "id_str": "F210096154",
    "created_at": "9/1/2021 6:55:10 PM",
    "timestamp": 1630547710000,
    "description": "Auto Fire Alarm",
    "address": "1221 1st Ave",
    "active": false,
    "unitCount": 2,
    "severity": 0,
    "lat": 47.606268,
    "long": -122.337677,
    "neighborhood": "Downtown Commercial Core",
    "neighborhoodGroup": "Downtown",
    "units": "E5 L4"
  },
  {
    "id_str": "F210096153",
    "created_at": "9/1/2021 6:53:49 PM",
    "timestamp": 1630547629000,
    "description": "Aid Response",
    "address": "4127 13th Ave S",
    "active": false,
    "unitCount": 1,
    "severity": 0,
    "lat": 47.566971,
    "long": -122.315963,
    "neighborhood": "North Beacon Hill/Jefferson Park",
    "neighborhoodGroup": "Greater Duwamish",
    "units": "E13"
  },
  {
    "id_str": "F210096152",
    "created_at": "9/1/2021 6:46:54 PM",
    "timestamp": 1630547214000,
    "description": "MVI - Motor Vehicle Incident",
    "address": "Sb I5 At Convention Center",
    "active": false,
    "unitCount": 3,
    "severity": 0,
    "lat": 47.607412,
    "long": -122.330402,
    "neighborhood": "First Hill",
    "neighborhoodGroup": "East",
    "units": "A25 E2 E25"
  },
  {
    "id_str": "F210096151",
    "created_at": "9/1/2021 6:46:47 PM",
    "timestamp": 1630547207000,
    "description": "Medic Response",
    "address": "116 Fairview Ave N",
    "active": false,
    "unitCount": 2,
    "severity": 0,
    "lat": 47.618693,
    "long": -122.334256,
    "neighborhood": "Cascade/Eastlake",
    "neighborhoodGroup": "Lake Union",
    "units": "A4 M1"
  },