[
  {
    "id_str": "F210125629",
    "created_at": "11/12/2021 3:56:44 PM",
    "timestamp": 1636761404000,
    "description": "Aid Response",
    "address": "8244 Densmore Ave N",
    "active": false,
    "unitCount": 1,
    "severity": 0,
    "lat": 47.688983,
    "long": -122.337773,
    "neighborhood": "Green Lake",
    "neighborhoodGroup": "Northwest",
    "units": "A31"
  },
  {
    "id_str": "F210125628",
    "created_at": "11/12/2021 3:53:11 PM",
    "timestamp": 1636761191000,
    "description": "Automatic Fire Alarm Resd",
    "address": "2717 31st Ave S",
    "active": false,
    "unitCount": 2,
    "severity": 0,
    "lat": 47.579421,
    "long": -122.292999,
    "neighborhood": "Mt. Baker/North Rainier",
    "neighborhoodGroup": "Southeast",
    "units": "E30 L3"
  },
  {
    "id_str": "F210125623",
    "created_at": "11/12/2021 3:40:06 PM",
    "timestamp": 1636760406000,
    "description": "Encampment Fire",
    "address": "S Mead St / 1st Ave S",
    "active": false,
    "unitCount": 1,
    "severity": 0,
    "lat": 47.551105,
    "long": -122.334217,
    "neighborhood": "Georgetown",
    "neighborhoodGroup": "Greater Duwamish",
    "units": "E27"
  },
  {
    "id_str": "F210125622",
    "created_at": "11/12/2021 3:40:06 PM",
    "timestamp": 1636760406000,
    "description": "Auto Fire Alarm",
    "address": "1223 Spring St",
    "active": false,
    "unitCount": 2,
    "severity": 0,
    "lat": 47.610625,
    "long": -122.32442,
    "neighborhood": "Capitol Hill",
    "neighborhoodGroup": "East",
    "units": "E25 L10"
  },
  {
    "id_str": "F210125621",
    "created_at": "11/12/2021 3:36:50 PM",
    "timestamp": 1636760210000,
    "description": "Aid Response",
    "address": "5319 5th Ave Ne",
    "active": false,
    "unitCount": 1,
    "severity": 0,
    "lat": 47.667276,
    "long": -122.322853,
    "neighborhood": "Wallingford",
    "neighborhoodGroup": "Lake Union",
    "units": "L9"
  },
  {
    "id_str": "F210125620",
    "created_at": "11/12/2021 3:36:07 PM",
    "timestamp": 1636760167000,
    "description": "Aid Response",
    "address": "107 Cherry St",
    "active": false,
    "unitCount": 1,
    "severity": 0,
    "lat": 47.602588,
    "long": -122.334202,
    "neighborhood": "Downtown Commercial Core",
    "neighborhoodGroup": "Downtown",
    "units": "A5"
  },
  {
    "id_str": "F210125619",
    "created_at": "11/12/2021 3:34:02 PM",
    "timestamp": 1636760042000,
    "description": "Aid Response",
    "address": "210 Alaskan Way S",
    "active": false,
    "unitCount": 1,
    "severity": 0,
    "lat": 47.600593,
    "long": -122.335915,
    "neighborhood": "Pioneer Square/International District",
    "neighborhoodGroup": "Downtown",
    "units": "E5"
  },
  {
    "id_str": "F210125617",
    "created_at": "11/12/2021 3:24:11 PM",
    "timestamp": 1636759451000,
    "description": "Aid Response",
    "address": "8731 Phinney Ave N",
    "active": false,
    "unitCount": 1,
    "severity": 0,
    "lat": 47.692595,
    "long": -122.353952,
    "neighborhood": "Greenwood/Phinney Ridge",
    "neighborhoodGroup": "Northwest",
    "units": "E21"
  },
  {
    "id_str": "F210125618",
    "created_at": "11/12/2021 3:24:02 PM",
    "timestamp": 1636759442000,
    "description": "Medic Response",
    "address": "6727 Rainier Ave S",
    "active": false,
    "unitCount": 2,
    "severity": 0,
    "lat": 47.542238,
    "long": -122.272642,
    "neighborhood": "Seward Park",
    "neighborhoodGroup": "Southeast",
    "units": "E28 M28"
  },
  {
    "id_str": "F210125616",
    "created_at": "11/12/2021 3:22:21 PM",
    "timestamp": 1636759341000,
    "description": "Rubbish Fire",
    "address": "5031 University Way Ne",
    "active": false,
    "unitCount": 2,
    "severity": 0,
    "lat": 47.665134,
    "long": -122.313071,
    "neighborhood": "University District",
    "neighborhoodGroup": "Northeast",
    "units": "E16 E17"
  },
  {
    "id_str": "F210125613",
    "created_at": "11/12/2021 3:20:07 PM",
    "timestamp": 1636759207000,
    "description": "Auto Fire Alarm",
    "address": "1600 E Jefferson St",
    "active": false,
    "unitCount": 2,
    "severity": 0,
    "lat": 47.606181,
    "long": -122.311554,
    "neighborhood": "Central Area/Squire Park",
    "neighborhoodGroup": "Central",
    "units": "E25 L10"
  },
  {
    "id_str": "F210125612",
    "created_at": "11/12/2021 3:18:45 PM",
    "timestamp": 1636759125000,
    "description": "Medic Response",
    "address": "550 Broadway",
    "active": false,
    "unitCount": 2,
    "severity": 0,
    "lat": 47.606843,
    "long": -122.320751,
    "neighborhood": "First Hill",
    "neighborhoodGroup": "East",
    "units": "A10 M1"
  },
  {
    "id_str": "F210125609",
    "created_at": "11/12/2021 3:05:40 PM",
    "timestamp": 1636758340000,
    "description": "Aid Response",
    "address": "118 Bell St",
    "active": false,
    "unitCount": 1,
    "severity": 0,
    "lat": 47.613497,
    "long": -122.346355,
    "neighborhood": "Belltown",
    "neighborhoodGroup": "Downtown",
    "units": "A2"
  },
  {
    "id_str": "F210125608",
    "created_at": "11/12/2021 2:51:04 PM",
    "timestamp": 1636757464000,
    "description": "Natural Gas Odor",
    "address": "506 1st Ave N",
    "active": false,
    "unitCount": 1,
    "severity": 0,
    "lat": 47.623339,
    "long": -122.355414,
    "neighborhood": "Queen Anne",
    "neighborhoodGroup": "Magnolia/Queen Anne",
    "units": "L3"
  },
  {
    "id_str": "F210125607",
    "created_at": "11/12/2021 2:48:40 PM",
    "timestamp": 1636757320000,
    "description": "Aid Response",
    "address": "8340 Rainier Ave S",
    "active": false,
    "unitCount": 1,
    "severity": 0,
    "lat": 47.529367,
    "long": -122.269988,
    "neighborhood": "Rainier Beach",
    "neighborhoodGroup": "Southeast",
    "units": "E33"
  },
  {
    "id_str": "F210125605",
    "created_at": "11/12/2021 2:37:18 PM",
    "timestamp": 1636756638000,
    "description": "Medic Response",
    "address": "6720 East Green Lake Way N",
    "active": false,
    "unitCount": 2,
    "severity": 0,
    "lat": 47.67834,
    "long": -122.32895,
    "neighborhood": "Green Lake",
    "neighborhoodGroup": "Northwest",
    "units": "E16 M31"
  },
  {
    "id_str": "F210125603",
    "created_at": "11/12/2021 2:35:33 PM",
    "timestamp": 1636756533000,
    "description": "Medic Response, 7 per Rule",
    "address": "4233 9th Ave Ne",
    "active": false,
    "unitCount": 3,
    "severity": 0,
    "lat": 47.65815,
    "long": -122.318793,
    "neighborhood": "Wallingford",
    "neighborhoodGroup": "Lake Union",
    "units": "E22 L9 M17"
  },
  {
    "id_str": "F210125602",
    "created_at": "11/12/2021 2:33:37 PM",
    "timestamp": 1636756417000,
    "description": "Aid Response",
    "address": "12002 Roosevelt Way Ne",
    "active": false,
    "unitCount": 1,
    "severity": 0,
    "lat": 47.71583,
    "long": -122.318021,
    "neighborhood": "Haller Lake",
    "neighborhoodGroup": "Northwest",
    "units": "A31"
  },
  {
    "id_str": "F210125601",
    "created_at": "11/12/2021 2:33:24 PM",
    "timestamp": 1636756404000,
    "description": "Medic Response",
    "address": "400 Spring St",
    "active": false,
    "unitCount": 2,
    "severity": 0,
    "lat": 47.606801,
    "long": -122.333562,
    "neighborhood": "Downtown Commercial Core",
    "neighborhoodGroup": "Downtown",
    "units": "L10 M32"
  },
  {
    "id_str": "F210125600",
    "created_at": "11/12/2021 2:32:18 PM",
    "timestamp": 1636756338000,
    "description": "Aid Response",
    "address": "2326 California Ave Sw",
    "active": false,
    "unitCount": 1,
    "severity": 0,
    "lat": 47.582838,
    "long": -122.386485,
    "neighborhood": "Alki/Admiral",
    "neighborhoodGroup": "Southwest",
    "units": "E29"
  },
  {
    "id_str": "F210125599",
    "created_at": "11/12/2021 2:29:47 PM",
    "timestamp": 1636756187000,
    "description": "Aid Response",
    "address": "223 Yesler Way",
    "active": false,
    "unitCount": 1,
    "severity": 0,
    "lat": 47.601718,
    "long": -122.331581,
    "neighborhood": "Downtown Commercial Core",
    "neighborhoodGroup": "Downtown",
    "units": "L1"
  },
  {
    "id_str": "F210125598",
    "created_at": "11/12/2021 2:28:04 PM",
    "timestamp": 1636756084000,
    "description": "Aid Response",
    "address": "1511 Dexter Ave N",
    "active": false,
    "unitCount": 1,
    "severity": 0,
    "lat": 47.632618,
    "long": -122.342281,
    "neighborhood": "Queen Anne",
    "neighborhoodGroup": "Magnolia/Queen Anne",
    "units": "A4"
  },
  {
    "id_str": "F210125597",
    "created_at": "11/12/2021 2:24:39 PM",
    "timestamp": 1636755879000,
    "description": "Aid Response",
    "address": "3rd Ave / James St",
    "active": false,
    "unitCount": 3,
    "severity": 0,
    "lat": 47.602769,
    "long": -122.331409,
    "neighborhood": "Downtown Commercial Core",
    "neighborhoodGroup": "Downtown",
    "units": "A10 E13 E6"
  },
  {
    "id_str": "F210125596",
    "created_at": "11/12/2021 2:23:45 PM",
    "timestamp": 1636755825000,
    "description": "Aid Response",
    "address": "1200 University St",
    "active": false,
    "unitCount": 1,
    "severity": 0,
    "lat": 47.611943,
    "long": -122.325987,
    "neighborhood": "First Hill",
    "neighborhoodGroup": "East",
    "units": "A25"
  },
  {
    "id_str": "F210125595",
    "created_at": "11/12/2021 2:22:47 PM",
    "timestamp": 1636755767000,
    "description": "Aid Response",
    "address": "15th Ave Ne / Ne 42nd St",
    "active": false,
    "unitCount": 1,
    "severity": 0,
    "lat": 47.658301,
    "long": -122.312071,
    "neighborhood": "University District",
    "neighborhoodGroup": "Northeast",
    "units": "E17"
  },
  {
    "id_str": "F210125594",
    "created_at": "11/12/2021 2:21:45 PM",
    "timestamp": 1636755705000,
    "description": "Aid Response",
    "address": "MIDVALE AVE N / N 46TH ST",
    "active": false,
    "unitCount": 1,
    "severity": 0,
    "lat": 47.662879,
    "long": -122.344569,
    "neighborhood": "Wallingford",
    "neighborhoodGroup": "Lake Union",
    "units": "E9"
  },
  {
    "id_str": "F210125593",
    "created_at": "11/12/2021 2:15:20 PM",
    "timestamp": 1636755320000,
    "description": "Aid Response",
    "address": "94 Bay St",
    "active": false,
    "unitCount": 1,
    "severity": 0,
    "lat": 47.618412,
    "long": -122.355206,
    "neighborhood": "Belltown",
    "neighborhoodGroup": "Downtown",
    "units": "A2"
  },
  {
    "id_str": "F210125592",
    "created_at": "11/12/2021 2:08:30 PM",
    "timestamp": 1636754910000,
    "description": "MVI Freeway",
    "address": "NB I5 AT BOYLSTON",
    "active": false,
    "unitCount": 3,
    "severity": 0,
    "lat": 47.625836,
    "long": -122.328115,
    "neighborhood": "Cascade/Eastlake",
    "neighborhoodGroup": "Lake Union",
    "units": "A5 E10 E5"
  },
  {
    "id_str": "F210125591",
    "created_at": "11/12/2021 2:06:44 PM",
    "timestamp": 1636754804000,
    "description": "Medic Response",
    "address": "501 Rainier Ave S",
    "active": false,
    "unitCount": 3,
    "severity": 0,
    "lat": 47.598322,
    "long": -122.3134,
    "neighborhood": "Judkins Park",
    "neighborhoodGroup": "Central",
    "units": "A10 E6 M28"
  },
  {
    "id_str": "F210125589",
    "created_at": "11/12/2021 2:02:07 PM",
    "timestamp": 1636754527000,
    "description": "Medic Response",
    "address": "133 20th Ave E",
    "active": false,
    "unitCount": 2,
    "severity": 0,
    "lat": 47.618882,
    "long": -122.306074,
    "neighborhood": "Miller Park",
    "neighborhoodGroup": "East",
    "units": "E25 M10"
  },
  {
    "id_str": "F210125588",
    "created_at": "11/12/2021 2:00:28 PM",
    "timestamp": 1636754428000,
    "description": "Aid Response Yellow",
    "address": "Ne 70th St / Ravenna Ave Ne",
    "active": false,
    "unitCount": 1,
    "severity": 0,
    "lat": 47.67941,
    "long": -122.303902,
    "neighborhood": "Ravenna/Bryant",
    "neighborhoodGroup": "Northeast",
    "units": "E16"
  },
  {
    "id_str": "F210125586",
    "created_at": "11/12/2021 1:57:54 PM",
    "timestamp": 1636754274000,
    "description": "Aid Response",
    "address": "12002 Fremont Ave N",
    "active": false,
    "unitCount": 1,
    "severity": 0,
    "lat": 47.715969,
    "long": -122.350258,
    "neighborhood": "Broadview/Bitter Lake",
    "neighborhoodGroup": "Northwest",
    "units": "E24"
  },
  {
    "id_str": "F210125584",
    "created_at": "11/12/2021 1:47:24 PM",
    "timestamp": 1636753644000,
    "description": "Encampment Medic",
    "address": "W Nickerson St / 13th Ave W",
    "active": false,
    "unitCount": 3,
    "severity": 0,
    "lat": 47.655514,
    "long": -122.373611,
    "neighborhood": "Queen Anne",
    "neighborhoodGroup": "Magnolia/Queen Anne",
    "units": "A18 E20 M1"
  },
  {
    "id_str": "F210125583",
    "created_at": "11/12/2021 1:46:07 PM",
    "timestamp": 1636753567000,
    "description": "Aid Response",
    "address": "4754 42ND AVE SW",
    "active": false,
    "unitCount": 1,
    "severity": 0,
    "lat": 47.560119,
    "long": -122.385486,
    "neighborhood": "West Seattle Junction/Genesee Hill",
    "neighborhoodGroup": "Southwest",
    "units": "L11"
  },
  {
    "id_str": "F210125582",
    "created_at": "11/12/2021 1:46:03 PM",
    "timestamp": 1636753563000,
    "description": "Automatic Fire Alarm Resd",
    "address": "3726 Beach Dr Sw",
    "active": false,
    "unitCount": 1,
    "severity": 0,
    "lat": 47.570917,
    "long": -122.410666,
    "neighborhood": "Alki/Admiral",
    "neighborhoodGroup": "Southwest",
    "units": "E29"
  },
  {
    "id_str": "F210125581",
    "created_at": "11/12/2021 1:43:22 PM",
    "timestamp": 1636753402000,
    "description": "Aid Response",
    "address": "859 Ne Northgate Way",
    "active": false,
    "unitCount": 1,
    "severity": 0,
    "lat": 47.708572,
    "long": -122.319754,
    "neighborhood": "Northgate/Maple Leaf",
    "neighborhoodGroup": "North",
    "units": "A31"
  },
  {
    "id_str": "F210125580",
    "created_at": "11/12/2021 1:42:12 PM",
    "timestamp": 1636753332000,
    "description": "Aid Response",
    "address": "310 25th Ave",
    "active": false,
    "unitCount": 1,
    "severity": 0,
    "lat": 47.604405,
    "long": -122.299958,
    "neighborhood": "Central Area/Squire Park",
    "neighborhoodGroup": "Central",
    "units": "A25"
  },
  {
    "id_str": "F210125579",
    "created_at": "11/12/2021 1:35:35 PM",
    "timestamp": 1636752935000,
    "description": "Auto Fire Alarm",
    "address": "4200 Whitman Ct Ne",
    "active": false,
    "unitCount": 2,
    "severity": 0,
    "lat": 47.658632,
    "long": -122.304244,
    "neighborhood": "University District",
    "neighborhoodGroup": "Northeast",
    "units": "E17 L9"
  },
  {
    "id_str": "F210125576",
    "created_at": "11/12/2021 1:31:47 PM",
    "timestamp": 1636752707000,
    "description": "Aid Response",
    "address": "4201 Sw Juneau St",
    "active": false,
    "unitCount": 1,
    "severity": 0,
    "lat": 47.550282,
    "long": -122.38563,
    "neighborhood": "Fauntleroy/Seaview",
    "neighborhoodGroup": "Southwest",
    "units": "E32"
  },
  {
    "id_str": "F210125574",
    "created_at": "11/12/2021 1:29:30 PM",
    "timestamp": 1636752570000,
    "description": "Aid Response",
    "address": "105 5th Ave S",
    "active": false,
    "unitCount": 1,
    "severity": 0,
    "lat": 47.601643,
    "long": -122.327656,
    "neighborhood": "Pioneer Square/International District",
    "neighborhoodGroup": "Downtown",
    "units": "A10"
  },
  {
    "id_str": "F210125573",
    "created_at": "11/12/2021 1:26:26 PM",
    "timestamp": 1636752386000,
    "description": "Aid Response",
    "address": "109 MARION ST",
    "active": false,
    "unitCount": 1,
    "severity": 0,
    "lat": 47.604025,
    "long": -122.335484,
    "neighborhood": "Downtown Commercial Core",
    "neighborhoodGroup": "Downtown",
    "units": "A5"
  },
  {
    "id_str": "F210125571",
    "created_at": "11/12/2021 1:23:15 PM",
    "timestamp": 1636752195000,
    "description": "Auto Fire Alarm",
    "address": "328 Ne Northgate Way",
    "active": false,
    "unitCount": 2,
    "severity": 0,
    "lat": 47.708609,
    "long": -122.325576,
    "neighborhood": "Northgate/Maple Leaf",
    "neighborhoodGroup": "North",
    "units": "E16 L9"
  },
  {
    "id_str": "F210125569",
    "created_at": "11/12/2021 1:22:26 PM",
    "timestamp": 1636752146000,
    "description": "Auto Fire Alarm",
    "address": "302 Ne Northgate Way",
    "active": false,
    "unitCount": 2,
    "severity": 0,
    "lat": 47.708611,
    "long": -122.325928,
    "neighborhood": "Northgate/Maple Leaf",
    "neighborhoodGroup": "North",
    "units": "E31 L5"
  },
  {
    "id_str": "F210125568",
    "created_at": "11/12/2021 1:19:19 PM",
    "timestamp": 1636751959000,
    "description": "Aid Response",
    "address": "6717 3rd Ave Nw",
    "active": false,
    "unitCount": 1,
    "severity": 0,
    "lat": 47.677874,
    "long": -122.360476,
    "neighborhood": "Greenwood/Phinney Ridge",
    "neighborhoodGroup": "Northwest",
    "units": "E21"
  },
  {
    "id_str": "F210125566",
    "created_at": "11/12/2021 1:17:19 PM",
    "timestamp": 1636751839000,
    "description": "Medic Response",
    "address": "Ne 95th St / Lake City Way Ne",
    "active": false,
    "unitCount": 2,
    "severity": 0,
    "lat": 47.697569,
    "long": -122.305467,
    "neighborhood": "Northgate/Maple Leaf",
    "neighborhoodGroup": "North",
    "units": "E40 M17"
  },
  {
    "id_str": "F210125564",
    "created_at": "11/12/2021 1:14:22 PM",
    "timestamp": 1636751662000,
    "description": "Aid Response",
    "address": "811 Maynard Ave S",
    "active": false,
    "unitCount": 1,
    "severity": 0,
    "lat": 47.595741,
    "long": -122.325068,
    "neighborhood": "Duwamish/SODO",
    "neighborhoodGroup": "Greater Duwamish",
    "units": "L3"
  },
  {
    "id_str": "F210125563",
    "created_at": "11/12/2021 1:12:28 PM",
    "timestamp": 1636751548000,
    "description": "Aid Response",
    "address": "5327 S Fountain St",
    "active": false,
    "unitCount": 1,
    "severity": 0,
    "lat": 47.50368,
    "long": -122.26715,
    "neighborhood": "Rainier Beach",
    "neighborhoodGroup": "Southeast",
    "units": "E33"
  },
  {
    "id_str": "F210125562",
    "created_at": "11/12/2021 1:04:38 PM",
    "timestamp": 1636751078000,
    "description": "Aid Response",
    "address": "2nd Ave / Union St",
    "active": false,
    "unitCount": 1,
    "severity": 0,
    "lat": 47.608292,
    "long": -122.337995,
    "neighborhood": "Downtown Commercial Core",
    "neighborhoodGroup": "Downtown",
    "units": "A2"
  },
  {
    "id_str": "F210125560",
    "created_at": "11/12/2021 1:02:47 PM",
    "timestamp": 1636750967000,
    "description": "Medic Response",
    "address": "1300 1st Ave",
    "active": false,
    "unitCount": 2,
    "severity": 0,
    "lat": 47.606835,
    "long": -122.338197,
    "neighborhood": "Downtown Commercial Core",
    "neighborhoodGroup": "Downtown",
    "units": "E5 M10"
  },
  {
    "id_str": "F210125558",
    "created_at": "11/12/2021 12:54:38 PM",
    "timestamp": 1636750478000,
    "description": "Investigate Out Of Service",
    "address": "3800 S Myrtle St",
    "active": false,
    "unitCount": 1,
    "severity": 0,
    "lat": 47.538881,
    "long": -122.284744,
    "neighborhood": "South Beacon Hill/NewHolly",
    "neighborhoodGroup": "Greater Duwamish",
    "units": "E28"
  },
  {
    "id_str": "F210125557",
    "created_at": "11/12/2021 12:47:11 PM",
    "timestamp": 1636750031000,
    "description": "Aid Response",
    "address": "509 3rd Ave",
    "active": false,
    "unitCount": 1,
    "severity": 0,
    "lat": 47.602114,
    "long": -122.330809,
    "neighborhood": "Downtown Commercial Core",
    "neighborhoodGroup": "Downtown",
    "units": "A10"
  },
  {
    "id_str": "F210125556",
    "created_at": "11/12/2021 12:40:57 PM",
    "timestamp": 1636749657000,
    "description": "Auto Fire Alarm",
    "address": "4722 Fauntleroy Way Sw",
    "active": false,
    "unitCount": 2,
    "severity": 0,
    "lat": 47.560704,
    "long": -122.381456,
    "neighborhood": "West Seattle Junction/Genesee Hill",
    "neighborhoodGroup": "Southwest",
    "units": "E32 L11"
  },
  {
    "id_str": "F210125554",
    "created_at": "11/12/2021 12:36:52 PM",
    "timestamp": 1636749412000,
    "description": "Auto Fire Alarm",
    "address": "4300 Aurora Ave N",
    "active": false,
    "unitCount": 2,
    "severity": 0,
    "lat": 47.659567,
    "long": -122.347197,
    "neighborhood": "Wallingford",
    "neighborhoodGroup": "Lake Union",
    "units": "E9 L4"
  },
  {
    "id_str": "F210125552",
    "created_at": "11/12/2021 12:27:30 PM",
    "timestamp": 1636748850000,
    "description": "Medic Response",
    "address": "1600 E Olive St",
    "active": false,
    "unitCount": 3,
    "severity": 0,
    "lat": 47.616446,
    "long": -122.311456,
    "neighborhood": "Central Area/Squire Park",
    "neighborhoodGroup": "Central",
    "units": "A25 E25 M28"
  },
  {
    "id_str": "F210125550",
    "created_at": "11/12/2021 12:18:55 PM",
    "timestamp": 1636748335000,
    "description": "Aid Response",
    "address": "1700 Airport Way S",
    "active": false,
    "unitCount": 1,
    "severity": 0,
    "lat": 47.588225,
    "long": -122.321391,
    "neighborhood": "Duwamish/SODO",
    "neighborhoodGroup": "Greater Duwamish",
    "units": "A14"
  },
  {
    "id_str": "F210125549",
    "created_at": "11/12/2021 12:17:40 PM",
    "timestamp": 1636748260000,
    "description": "Aid Response",
    "address": "9001 Lake City Way Ne",
    "active": false,
    "unitCount": 1,
    "severity": 0,
    "lat": 47.693931,
    "long": -122.30552,
    "neighborhood": "Wedgwood/View Ridge",
    "neighborhoodGroup": "Northeast",
    "units": "E38"
  },
  {
    "id_str": "F210125548",
    "created_at": "11/12/2021 12:14:16 PM",
    "timestamp": 1636748056000,
    "description": "Aid Response",
    "address": "1354 ALOHA ST",
    "active": false,
    "unitCount": 1,
    "severity": 0,
    "lat": 47.62687,
    "long": -122.329949,
    "neighborhood": "Cascade/Eastlake",
    "neighborhoodGroup": "Lake Union",
    "units": "A25"
  },
  {
    "id_str": "F210125547",
    "created_at": "11/12/2021 12:12:21 PM",
    "timestamp": 1636747941000,
    "description": "MVI - Motor Vehicle Incident",
    "address": "5th Ave S / S Holgate St",
    "active": false,
    "unitCount": 1,
    "severity": 0,
    "lat": 47.586175,
    "long": -122.327541,
    "neighborhood": "Duwamish/SODO",
    "neighborhoodGroup": "Greater Duwamish",
    "units": "R1"
  },
  {
    "id_str": "F210125546",
    "created_at": "11/12/2021 12:10:34 PM",
    "timestamp": 1636747834000,
    "description": "Aid Response",
    "address": "118 Bell St",
    "active": false,
    "unitCount": 1,
    "severity": 0,
    "lat": 47.613497,
    "long": -122.346355,
    "neighborhood": "Belltown",
    "neighborhoodGroup": "Downtown",
    "units": "A2"
  },
  {
    "id_str": "F210125544",
    "created_at": "11/12/2021 12:06:30 PM",
    "timestamp": 1636747590000,
    "description": "Aid Response",
    "address": "7919 Roosevelt Way Ne",
    "active": false,
    "unitCount": 2,
    "severity": 0,
    "lat": 47.686152,
    "long": -122.317542,
    "neighborhood": "Ravenna/Bryant",
    "neighborhoodGroup": "Northeast",
    "units": "A31 L9"
  },
  {
    "id_str": "F210125543",
    "created_at": "11/12/2021 12:05:22 PM",
    "timestamp": 1636747522000,
    "description": "Aid Response",
    "address": "705 Pike St",
    "active": false,
    "unitCount": 2,
    "severity": 0,
    "lat": 47.61163,
    "long": -122.333297,
    "neighborhood": "First Hill",
    "neighborhoodGroup": "East",
    "units": "A2 A4"
  },
  {
    "id_str": "F210125542",
    "created_at": "11/12/2021 12:01:05 PM",
    "timestamp": 1636747265000,
    "description": "Aid Response",
    "address": "1102 8th Ave",
    "active": false,
    "unitCount": 1,
    "severity": 0,
    "lat": 47.608665,
    "long": -122.329131,
    "neighborhood": "First Hill",
    "neighborhoodGroup": "East",
    "units": "A5"
  },
  {
    "id_str": "F210125540",
    "created_at": "11/12/2021 11:55:05 AM",
    "timestamp": 1636746905000,
    "description": "Aid Response",
    "address": "8410 5th Ave Ne",
    "active": false,
    "unitCount": 1,
    "severity": 0,
    "lat": 47.689744,
    "long": -122.322992,
    "neighborhood": "Green Lake",
    "neighborhoodGroup": "Northwest",
    "units": "E16"
  },
  {
    "id_str": "F210125541",
    "created_at": "11/12/2021 11:54:46 AM",
    "timestamp": 1636746886000,
    "description": "Aid Response",
    "address": "1221 Minor Ave",
    "active": false,
    "unitCount": 2,
    "severity": 0,
    "lat": 47.611376,
    "long": -122.325467,
    "neighborhood": "First Hill",
    "neighborhoodGroup": "East",
    "units": "A25 L10"
  },
  {
    "id_str": "F210125539",
    "created_at": "11/12/2021 11:54:10 AM",
    "timestamp": 1636746850000,
    "description": "Aid Response",
    "address": "12740 30th Ave Ne",
    "active": false,
    "unitCount": 1,
    "severity": 0,
    "lat": 47.721329,
    "long": -122.296339,
    "neighborhood": "Cedar Park/Meadowbrook",
    "neighborhoodGroup": "North",
    "units": "E40"
  },
  {
    "id_str": "F210125537",
    "created_at": "11/12/2021 11:51:52 AM",
    "timestamp": 1636746712000,
    "description": "Aid Response",
    "address": "7307 40th Ave Ne",
    "active": false,
    "unitCount": 1,
    "severity": 0,
    "lat": 47.681279,
    "long": -122.285064,
    "neighborhood": "Wedgwood/View Ridge",
    "neighborhoodGroup": "Northeast",
    "units": "E38"
  },
  {
    "id_str": "F210125535",
    "created_at": "11/12/2021 11:50:19 AM",
    "timestamp": 1636746619000,
    "description": "Aid Response",
    "address": "9455 27th Ave Sw",
    "active": false,
    "unitCount": 2,
    "severity": 0,
    "lat": 47.518178,
    "long": -122.367277,
    "neighborhood": "Roxhill/Westwood",
    "neighborhoodGroup": "Delridge Neighborhoods",
    "units": "E11 E26"
  },
  {
    "id_str": "F210125536",
    "created_at": "11/12/2021 11:50:09 AM",
    "timestamp": 1636746609000,
    "description": "Automatic Fire Alarm Resd",
    "address": "111 Ne 77th St",
    "active": false,
    "unitCount": 1,
    "severity": 0,
    "lat": 47.685043,
    "long": -122.328156,
    "neighborhood": "Green Lake",
    "neighborhoodGroup": "Northwest",
    "units": "E16"
  },
  {
    "id_str": "F210125534",
    "created_at": "11/12/2021 11:49:04 AM",
    "timestamp": 1636746544000,
    "description": "Aid Response",
    "address": "3800 Cascadia Ave S",
    "active": false,
    "unitCount": 2,
    "severity": 0,
    "lat": 47.569762,
    "long": -122.28287,
    "neighborhood": "Columbia City",
    "neighborhoodGroup": "Southeast",
    "units": "E28 E30"
  },
  {
    "id_str": "F210125533",
    "created_at": "11/12/2021 11:48:28 AM",
    "timestamp": 1636746508000,
    "description": "Medic Response",
    "address": "100 Crockett St",
    "active": false,
    "unitCount": 3,
    "severity": 0,
    "lat": 47.637416,
    "long": -122.355598,
    "neighborhood": "Queen Anne",
    "neighborhoodGroup": "Magnolia/Queen Anne",
    "units": "E8 M1 M31"
  },
  {
    "id_str": "F210125532",
    "created_at": "11/12/2021 11:47:26 AM",
    "timestamp": 1636746446000,
    "description": "Medic Response, 7 per Rule",
    "address": "13000 Lake City Way Ne",
    "active": false,
    "unitCount": 3,
    "severity": 0,
    "lat": 47.722899,
    "long": -122.293194,
    "neighborhood": "Cedar Park/Meadowbrook",
    "neighborhoodGroup": "North",
    "units": "E39 E40 M31"
  },
  {
    "id_str": "F210125531",
    "created_at": "11/12/2021 11:47:20 AM",
    "timestamp": 1636746440000,
    "description": "Aid Response",
    "address": "8th Ave Nw / Nw 43rd St",
    "active": false,
    "unitCount": 1,
    "severity": 0,
    "lat": 47.658939,
    "long": -122.366112,
    "neighborhood": "Ballard",
    "neighborhoodGroup": "Ballard",
    "units": "E9"
  },
  {
    "id_str": "F210125529",
    "created_at": "11/12/2021 11:43:22 AM",
    "timestamp": 1636746202000,
    "description": "Medic Response",
    "address": "1221 MADISON ST",
    "active": false,
    "unitCount": 2,
    "severity": 0,
    "lat": 47.609902,
    "long": -122.323791,
    "neighborhood": "Capitol Hill",
    "neighborhoodGroup": "East",
    "units": "E25 M10"
  },
  {
    "id_str": "F210125528",
    "created_at": "11/12/2021 11:42:15 AM",
    "timestamp": 1636746135000,
    "description": "Aid Response",
    "address": "4616 Sw Myrtle St",
    "active": false,
    "unitCount": 1,
    "severity": 0,
    "lat": 47.539629,
    "long": -122.391688,
    "neighborhood": "Fauntleroy/Seaview",
    "neighborhoodGroup": "Southwest",
    "units": "E37"
  },
  {
    "id_str": "F210125530",
    "created_at": "11/12/2021 11:40:47 AM",
    "timestamp": 1636746047000,
    "description": "Medic Response, 7 per Rule",
    "address": "4507 Brooklyn Ave Ne",
    "active": false,
    "unitCount": 3,
    "severity": 0,
    "lat": 47.661332,
    "long": -122.314285,
    "neighborhood": "University District",
    "neighborhoodGroup": "Northeast",
    "units": "E17 L9 M17"
  },
  {
    "id_str": "F210125526",
    "created_at": "11/12/2021 11:37:08 AM",
    "timestamp": 1636745828000,
    "description": "Aid Response",
    "address": "111 Cedar St",
    "active": false,
    "unitCount": 1,
    "severity": 0,
    "lat": 47.615877,
    "long": -122.35052,
    "neighborhood": "Belltown",
    "neighborhoodGroup": "Downtown",
    "units": "A4"
  },
  {
    "id_str": "F210125524",
    "created_at": "11/12/2021 11:29:15 AM",
    "timestamp": 1636745355000,
    "description": "Medic Response",
    "address": "1116 Nw 54th St",
    "active": false,
    "unitCount": 2,
    "severity": 0,
    "lat": 47.667885,
    "long": -122.370903,
    "neighborhood": "Ballard",
    "neighborhoodGroup": "Ballard",
    "units": "A18 M17"
  },
  {
    "id_str": "F210125523",
    "created_at": "11/12/2021 11:27:42 AM",
    "timestamp": 1636745262000,
    "description": "Encampment Aid",
    "address": "3rd Ave / James St",
    "active": false,
    "unitCount": 2,
    "severity": 0,
    "lat": 47.602769,
    "long": -122.331409,
    "neighborhood": "Downtown Commercial Core",
    "neighborhoodGroup": "Downtown",
    "units": "A10 A5"
  },
  {
    "id_str": "F210125522",
    "created_at": "11/12/2021 11:26:28 AM",
    "timestamp": 1636745188000,
    "description": "Medic Response",
    "address": "431 Boylston Ave E",
    "active": false,
    "unitCount": 2,
    "severity": 0,
    "lat": 47.622348,
    "long": -122.32307,
    "neighborhood": "Capitol Hill",
    "neighborhoodGroup": "East",
    "units": "A25 M1"
  },
  {
    "id_str": "F210125521",
    "created_at": "11/12/2021 11:25:31 AM",
    "timestamp": 1636745131000,
    "description": "Aid Response",
    "address": "133 Pontius Ave N",
    "active": false,
    "unitCount": 3,
    "severity": 0,
    "lat": 47.619624,
    "long": -122.332269,
    "neighborhood": "Cascade/Eastlake",
    "neighborhoodGroup": "Lake Union",
    "units": "A2 E2 MIH"
  },
  {
    "id_str": "F210125520",
    "created_at": "11/12/2021 11:17:40 AM",
    "timestamp": 1636744660000,
    "description": "Aid Response",
    "address": "9200 2nd Ave Sw",
    "active": false,
    "unitCount": 1,
    "severity": 0,
    "lat": 47.521244,
    "long": -122.336301,
    "neighborhood": "Highland Park",
    "neighborhoodGroup": "Delridge Neighborhoods",
    "units": "E26"
  },
  {
    "id_str": "F210125517",
    "created_at": "11/12/2021 11:11:11 AM",
    "timestamp": 1636744271000,
    "description": "Low Acuity Response",
    "address": "420 4th Ave",
    "active": false,
    "unitCount": 1,
    "severity": 0,
    "lat": 47.601986,
    "long": -122.32914,
    "neighborhood": "Downtown Commercial Core",
    "neighborhoodGroup": "Downtown",
    "units": "H2"
  },
  {
    "id_str": "F210125518",
    "created_at": "11/12/2021 11:10:22 AM",
    "timestamp": 1636744222000,
    "description": "Natural Gas Odor",
    "address": "1340 15th Ave S",
    "active": false,
    "unitCount": 1,
    "severity": 0,
    "lat": 47.591171,
    "long": -122.314141,
    "neighborhood": "North Beacon Hill/Jefferson Park",
    "neighborhoodGroup": "Greater Duwamish",
    "units": "L3"
  },
  {
    "id_str": "F210125516",
    "created_at": "11/12/2021 11:08:47 AM",
    "timestamp": 1636744127000,
    "description": "Auto Fire Alarm",
    "address": "7101 62nd Ave Ne",
    "active": false,
    "unitCount": 2,
    "severity": 0,
    "lat": 47.679973,
    "long": -122.262231,
    "neighborhood": "Laurelhurst/Sand Point",
    "neighborhoodGroup": "Northeast",
    "units": "E38 L9"
  },
  {
    "id_str": "F210125515",
    "created_at": "11/12/2021 11:06:52 AM",
    "timestamp": 1636744012000,
    "description": "Auto Fire Alarm",
    "address": "2428 Nw Market St",
    "active": false,
    "unitCount": 3,
    "severity": 0,
    "lat": 47.668677,
    "long": -122.387926,
    "neighborhood": "Sunset Hill/Loyal Heights",
    "neighborhoodGroup": "Ballard",
    "units": "E18 L4 L8"
  },
  {
    "id_str": "F210125513",
    "created_at": "11/12/2021 10:58:17 AM",
    "timestamp": 1636743497000,
    "description": "Aid Response",
    "address": "4826 S Bateman St",
    "active": false,
    "unitCount": 3,
    "severity": 0,
    "lat": 47.546976,
    "long": -122.271602,
    "neighborhood": "Seward Park",
    "neighborhoodGroup": "Southeast",
    "units": "E28 L12 M28"
  },
  {
    "id_str": "F210125510",
    "created_at": "11/12/2021 10:53:16 AM",
    "timestamp": 1636743196000,
    "description": "Aid Response",
    "address": "Olive Way / 4th Ave",
    "active": false,
    "unitCount": 3,
    "severity": 0,
    "lat": 47.612182,
    "long": -122.338543,
    "neighborhood": "Cascade/Eastlake",
    "neighborhoodGroup": "Lake Union",
    "units": "A2 A4 E16"
  },
  {
    "id_str": "F210125509",
    "created_at": "11/12/2021 10:50:05 AM",
    "timestamp": 1636743005000,
    "description": "Natural Gas Odor",
    "address": "5231 40th Ave Ne",
    "active": false,
    "unitCount": 1,
    "severity": 0,
    "lat": 47.667508,
    "long": -122.284813,
    "neighborhood": "Ravenna/Bryant",
    "neighborhoodGroup": "Northeast",
    "units": "L9"
  },
  {
    "id_str": "F210125507",
    "created_at": "11/12/2021 10:42:08 AM",
    "timestamp": 1636742528000,
    "description": "Aid Response",
    "address": "5240 University Way Ne",
    "active": false,
    "unitCount": 2,
    "severity": 0,
    "lat": 47.666712,
    "long": -122.313047,
    "neighborhood": "University District",
    "neighborhoodGroup": "Northeast",
    "units": "E17 L9"
  },
  {
    "id_str": "F210125505",
    "created_at": "11/12/2021 10:35:44 AM",
    "timestamp": 1636742144000,
    "description": "Aid Response",
    "address": "1421 Minor Ave",
    "active": false,
    "unitCount": 1,
    "severity": 0,
    "lat": 47.613146,
    "long": -122.327096,
    "neighborhood": "Capitol Hill",
    "neighborhoodGroup": "East",
    "units": "A25"
  },
  {
    "id_str": "F210125504",
    "created_at": "11/12/2021 10:34:52 AM",
    "timestamp": 1636742092000,
    "description": "Auto Fire Alarm",
    "address": "910 Marion St",
    "active": false,
    "unitCount": 2,
    "severity": 0,
    "lat": 47.607742,
    "long": -122.326595,
    "neighborhood": "First Hill",
    "neighborhoodGroup": "East",
    "units": "E10 L1"
  },
  {
    "id_str": "F210125503",
    "created_at": "11/12/2021 10:31:04 AM",
    "timestamp": 1636741864000,
    "description": "Aid Response",
    "address": "320 Nw 112th St",
    "active": false,
    "unitCount": 1,
    "severity": 0,
    "lat": 47.710417,
    "long": -122.361197,
    "neighborhood": "Broadview/Bitter Lake",
    "neighborhoodGroup": "Northwest",
    "units": "E24"
  },
  {
    "id_str": "F210125502",
    "created_at": "11/12/2021 10:26:38 AM",
    "timestamp": 1636741598000,
    "description": "Aid Response",
    "address": "9230 2nd Ave Sw",
    "active": false,
    "unitCount": 1,
    "severity": 0,
    "lat": 47.520679,
    "long": -122.335803,
    "units": "E26"
  },
  {
    "id_str": "F210125501",
    "created_at": "11/12/2021 10:25:22 AM",
    "timestamp": 1636741522000,
    "description": "Aid Response",
    "address": "915 Nw 45th St",
    "active": false,
    "unitCount": 1,
    "severity": 0,
    "lat": 47.661467,
    "long": -122.368768,
    "neighborhood": "Ballard",
    "neighborhoodGroup": "Ballard",
    "units": "A18"
  },
  {
    "id_str": "F210125498",
    "created_at": "11/12/2021 10:12:20 AM",
    "timestamp": 1636740740000,
    "description": "Aid Response",
    "address": "7325 Rainier Ave S",
    "active": false,
    "unitCount": 1,
    "severity": 0,
    "lat": 47.536696,
    "long": -122.270213,
    "neighborhood": "Seward Park",
    "neighborhoodGroup": "Southeast",
    "units": "E33"
  },
  {
    "id_str": "F210125496",
    "created_at": "11/12/2021 10:09:24 AM",
    "timestamp": 1636740564000,
    "description": "Low Acuity Response",
    "address": "8628 55th Ave S",
    "active": false,
    "unitCount": 1,
    "severity": 0,
    "lat": 47.526335,
    "long": -122.263801,
    "neighborhood": "Rainier Beach",
    "neighborhoodGroup": "Southeast",
    "units": "L12"
  },
  {
    "id_str": "F210125495",
    "created_at": "11/12/2021 10:07:10 AM",
    "timestamp": 1636740430000,
    "description": "Auto Fire Alarm",
    "address": "3000 S Alaska St",
    "active": false,
    "unitCount": 2,
    "severity": 0,
    "lat": 47.560817,
    "long": -122.293379,
    "neighborhood": "North Beacon Hill/Jefferson Park",
    "neighborhoodGroup": "Greater Duwamish",
    "units": "E28 R1"
  },
  {
    "id_str": "F210125494",
    "created_at": "11/12/2021 10:03:56 AM",
    "timestamp": 1636740236000,
    "description": "Low Acuity Response",
    "address": "118 Bell St",
    "active": false,
    "unitCount": 1,
    "severity": 0,
    "lat": 47.613497,
    "long": -122.346355,
    "neighborhood": "Belltown",
    "neighborhoodGroup": "Downtown",
    "units": "A2"
  },
  {
    "id_str": "F210125492",
    "created_at": "11/12/2021 9:59:53 AM",
    "timestamp": 1636739993000,
    "description": "Brush Fire",
    "address": "Weedin Pl Ne / Ne 66th St",
    "active": false,
    "unitCount": 1,
    "severity": 0,
    "lat": 47.676642,
    "long": -122.320082,
    "neighborhood": "Green Lake",
    "neighborhoodGroup": "Northwest",
    "units": "E16"
  },
  {
    "id_str": "F210125490",
    "created_at": "11/12/2021 9:56:37 AM",
    "timestamp": 1636739797000,
    "description": "Auto Fire Alarm",
    "address": "2208 2nd Ave",
    "active": false,
    "unitCount": 2,
    "severity": 0,
    "lat": 47.613326,
    "long": -122.344446,
    "neighborhood": "Belltown",
    "neighborhoodGroup": "Downtown",
    "units": "E2 L4"
  },
  {
    "id_str": "F210125489",
    "created_at": "11/12/2021 9:52:10 AM",
    "timestamp": 1636739530000,
    "description": "Automatic Fire Alarm False",
    "address": "520 Galer St",
    "active": false,
    "unitCount": 1,
    "severity": 0,
    "lat": 47.632301,
    "long": -122.346264,
    "neighborhood": "Queen Anne",
    "neighborhoodGroup": "Magnolia/Queen Anne",
    "units": "E8"
  },
  {
    "id_str": "F210125488",
    "created_at": "11/12/2021 9:51:54 AM",
    "timestamp": 1636739514000,
    "description": "Low Acuity Response",
    "address": "1200 University St",
    "active": false,
    "unitCount": 1,
    "severity": 0,
    "lat": 47.611943,
    "long": -122.325987,
    "neighborhood": "First Hill",
    "neighborhoodGroup": "East",
    "units": "A25"
  },
  {
    "id_str": "F210125487",
    "created_at": "11/12/2021 9:50:19 AM",
    "timestamp": 1636739419000,
    "description": "MVI - Motor Vehicle Incident",
    "address": "4th Ave N / Aloha St",
    "active": false,
    "unitCount": 1,
    "severity": 0,
    "lat": 47.627164,
    "long": -122.348856,
    "neighborhood": "Queen Anne",
    "neighborhoodGroup": "Magnolia/Queen Anne",
    "units": "L6"
  },
  {
    "id_str": "F210125485",
    "created_at": "11/12/2021 9:48:25 AM",
    "timestamp": 1636739305000,
    "description": "Aid Response",
    "address": "7504 Aurora Ave N",
    "active": false,
    "unitCount": 1,
    "severity": 0,
    "lat": 47.683324,
    "long": -122.344484,
    "neighborhood": "Greenwood/Phinney Ridge",
    "neighborhoodGroup": "Northwest",
    "units": "E21"
  },
  {
    "id_str": "F210125481",
    "created_at": "11/12/2021 9:46:29 AM",
    "timestamp": 1636739189000,
    "description": "AFA4 - Auto Alarm 2 + 1 + 1",
    "address": "3642 33rd Ave S",
    "active": false,
    "unitCount": 2,
    "severity": 0,
    "lat": 47.571233,
    "long": -122.291003,
    "neighborhood": "Columbia City",
    "neighborhoodGroup": "Southeast",
    "units": "E30 L3"
  },
  {
    "id_str": "F210125480",
    "created_at": "11/12/2021 9:42:17 AM",
    "timestamp": 1636738937000,
    "description": "MVI - Motor Vehicle Incident",
    "address": "EB SR520 AT PORTAGE",
    "active": false,
    "unitCount": 3,
    "severity": 0,
    "lat": 47.643141,
    "long": -122.311722,
    "neighborhood": "Montlake/Portage Bay",
    "neighborhoodGroup": "Northeast",
    "units": "A4 E17 E25"
  },
  {
    "id_str": "F210125478",
    "created_at": "11/12/2021 9:33:38 AM",
    "timestamp": 1636738418000,
    "description": "Aid Response",
    "address": "6940 62nd Ave Ne",
    "active": false,
    "unitCount": 1,
    "severity": 0,
    "lat": 47.678821,
    "long": -122.262227,
    "neighborhood": "Laurelhurst/Sand Point",
    "neighborhoodGroup": "Northeast",
    "units": "E38"
  },
  {
    "id_str": "F210125477",
    "created_at": "11/12/2021 9:32:53 AM",
    "timestamp": 1636738373000,
    "description": "Medic Response",
    "address": "10501 8th Ave Ne",
    "active": false,
    "unitCount": 2,
    "severity": 0,
    "lat": 47.704938,
    "long": -122.320485,
    "neighborhood": "Northgate/Maple Leaf",
    "neighborhoodGroup": "North",
    "units": "E31 M31"
  },
  {
    "id_str": "F210125474",
    "created_at": "11/12/2021 9:14:24 AM",
    "timestamp": 1636737264000,
    "description": "Aid Response",
    "address": "4700 Sw Admiral Way",
    "active": false,
    "unitCount": 1,
    "severity": 0,
    "lat": 47.581214,
    "long": -122.391903,
    "neighborhood": "West Seattle Junction/Genesee Hill",
    "neighborhoodGroup": "Southwest",
    "units": "E29"
  },
  {
    "id_str": "F210125473",
    "created_at": "11/12/2021 9:11:48 AM",
    "timestamp": 1636737108000,
    "description": "Aid Response",
    "address": "2215 1st Ave",
    "active": false,
    "unitCount": 2,
    "severity": 0,
    "lat": 47.612716,
    "long": -122.345399,
    "neighborhood": "Belltown",
    "neighborhoodGroup": "Downtown",
    "units": "A2 A4"
  },
  {
    "id_str": "F210125471",
    "created_at": "11/12/2021 8:59:29 AM",
    "timestamp": 1636736369000,
    "description": "Medic Response",
    "address": "4735 East Marginal Way S",
    "active": false,
    "unitCount": 2,
    "severity": 0,
    "lat": 47.560967,
    "long": -122.339439,
    "neighborhood": "Duwamish/SODO",
    "neighborhoodGroup": "Greater Duwamish",
    "units": "A10 M10"
  },
  {
    "id_str": "F210125469",
    "created_at": "11/12/2021 8:55:56 AM",
    "timestamp": 1636736156000,
    "description": "Aid Response",
    "address": "1801 16th Ave Sw",
    "active": false,
    "unitCount": 2,
    "severity": 0,
    "lat": 47.586231,
    "long": -122.355429,
    "neighborhood": "North Delridge",
    "neighborhoodGroup": "Delridge Neighborhoods",
    "units": "A14 E2"
  },
  {
    "id_str": "F210125468",
    "created_at": "11/12/2021 8:50:10 AM",
    "timestamp": 1636735810000,
    "description": "Auto Fire Alarm",
    "address": "501 Rainier Ave S",
    "active": false,
    "unitCount": 2,
    "severity": 0,
    "lat": 47.598322,
    "long": -122.3134,
    "neighborhood": "Judkins Park",
    "neighborhoodGroup": "Central",
    "units": "E6 L3"
  },
  {
    "id_str": "F210125466",
    "created_at": "11/12/2021 8:44:02 AM",
    "timestamp": 1636735442000,
    "description": "Aid Response",
    "address": "523 11th Ave E",
    "active": false,
    "unitCount": 2,
    "severity": 0,
    "lat": 47.623375,
    "long": -122.317801,
    "neighborhood": "Capitol Hill",
    "neighborhoodGroup": "East",
    "units": "E25 M1"
  },
  {
    "id_str": "F210125465",
    "created_at": "11/12/2021 8:19:50 AM",
    "timestamp": 1636733990000,
    "description": "Aid Response",
    "address": "S Royal Brougham Way / 6th Ave S",
    "active": false,
    "unitCount": 1,
    "severity": 0,
    "lat": 47.592393,
    "long": -122.325968,
    "neighborhood": "Duwamish/SODO",
    "neighborhoodGroup": "Greater Duwamish",
    "units": "A10"
  },
  {
    "id_str": "F210125462",
    "created_at": "11/12/2021 8:08:23 AM",
    "timestamp": 1636733303000,
    "description": "Low Acuity Response",
    "address": "9455 27th Ave Sw",
    "active": false,
    "unitCount": 1,
    "severity": 0,
    "lat": 47.518178,
    "long": -122.367277,
    "neighborhood": "Roxhill/Westwood",
    "neighborhoodGroup": "Delridge Neighborhoods",
    "units": "E37"
  },
  {
    "id_str": "F210125460",
    "created_at": "11/12/2021 8:06:30 AM",
    "timestamp": 1636733190000,
    "description": "Auto Fire Alarm",
    "address": "2305 1st Ave",
    "active": false,
    "unitCount": 2,
    "severity": 0,
    "lat": 47.613406,
    "long": -122.346566,
    "neighborhood": "Belltown",
    "neighborhoodGroup": "Downtown",
    "units": "E2 L4"
  },
  {
    "id_str": "F210125459",
    "created_at": "11/12/2021 8:03:40 AM",
    "timestamp": 1636733020000,
    "description": "Aid Response",
    "address": "728 21st Ave E",
    "active": false,
    "unitCount": 1,
    "severity": 0,
    "lat": 47.625436,
    "long": -122.304724,
    "neighborhood": "Miller Park",
    "neighborhoodGroup": "East",
    "units": "A25"
  },
  {
    "id_str": "F210125458",
    "created_at": "11/12/2021 8:03:03 AM",
    "timestamp": 1636732983000,
    "description": "Auto Fire Alarm",
    "address": "3400 E Harrison St",
    "active": false,
    "unitCount": 2,
    "severity": 0,
    "lat": 47.62253,
    "long": -122.289162,
    "neighborhood": "Madrona/Leschi",
    "neighborhoodGroup": "Central",
    "units": "E34 L10"
  },
  {
    "id_str": "F210125454",
    "created_at": "11/12/2021 7:46:24 AM",
    "timestamp": 1636731984000,
    "description": "Activated CO Detector",
    "address": "140 Nw 104th St",
    "active": false,
    "unitCount": 1,
    "severity": 0,
    "lat": 47.704382,
    "long": -122.358844,
    "neighborhood": "North Beach/Blue Ridge",
    "neighborhoodGroup": "Ballard",
    "units": "L5"
  },
  {
    "id_str": "F210125453",
    "created_at": "11/12/2021 7:39:20 AM",
    "timestamp": 1636731560000,
    "description": "Aid Response",
    "address": "116 Stewart St",
    "active": false,
    "unitCount": 1,
    "severity": 0,
    "lat": 47.610387,
    "long": -122.341198,
    "neighborhood": "Belltown",
    "neighborhoodGroup": "Downtown",
    "units": "A2"
  },
  {
    "id_str": "F210125452",
    "created_at": "11/12/2021 7:37:44 AM",
    "timestamp": 1636731464000,
    "description": "Aid Response",
    "address": "909 4th Ave",
    "active": false,
    "unitCount": 1,
    "severity": 0,
    "lat": 47.605432,
    "long": -122.33231,
    "neighborhood": "Downtown Commercial Core",
    "neighborhoodGroup": "Downtown",
    "units": "A5"
  },
  {
    "id_str": "F210125451",
    "created_at": "11/12/2021 7:36:52 AM",
    "timestamp": 1636731412000,
    "description": "Natural Gas Odor",
    "address": "305 Newton St",
    "active": false,
    "unitCount": 2,
    "severity": 0,
    "lat": 47.636561,
    "long": -122.35183,
    "neighborhood": "Queen Anne",
    "neighborhoodGroup": "Magnolia/Queen Anne",
    "units": "L4 L6"
  },
  {
    "id_str": "F210125450",
    "created_at": "11/12/2021 7:36:48 AM",
    "timestamp": 1636731408000,
    "description": "Medic Response",
    "address": "9200 2nd Ave Sw",
    "active": false,
    "unitCount": 2,
    "severity": 0,
    "lat": 47.521244,
    "long": -122.336301,
    "neighborhood": "Highland Park",
    "neighborhoodGroup": "Delridge Neighborhoods",
    "units": "E26 M32"
  },
  {
    "id_str": "F210125449",
    "created_at": "11/12/2021 7:24:53 AM",
    "timestamp": 1636730693000,
    "description": "Alarm Bell",
    "address": "6212 45th Ave Ne",
    "active": false,
    "unitCount": 1,
    "severity": 0,
    "lat": 47.674035,
    "long": -122.279515,
    "neighborhood": "Ravenna/Bryant",
    "neighborhoodGroup": "Northeast",
    "units": "E38"
  },
  {
    "id_str": "F210125447",
    "created_at": "11/12/2021 7:20:09 AM",
    "timestamp": 1636730409000,
    "description": "Aid Response",
    "address": "13280 Linden Ave N",
    "active": false,
    "unitCount": 1,
    "severity": 0,
    "lat": 47.72526,
    "long": -122.347901,
    "neighborhood": "Broadview/Bitter Lake",
    "neighborhoodGroup": "Northwest",
    "units": "E24"
  },
  {
    "id_str": "F210125448",
    "created_at": "11/12/2021 7:20:02 AM",
    "timestamp": 1636730402000,
    "description": "Auto Fire Alarm",
    "address": "715 8th Ave",
    "active": false,
    "unitCount": 2,
    "severity": 0,
    "lat": 47.605907,
    "long": -122.326606,
    "neighborhood": "First Hill",
    "neighborhoodGroup": "East",
    "units": "E10 L1"
  },
  {
    "id_str": "F210125446",
    "created_at": "11/12/2021 7:19:59 AM",
    "timestamp": 1636730399000,
    "description": "Aid Response",
    "address": "14303 Sunnyside Ave N",
    "active": false,
    "unitCount": 1,
    "severity": 0,
    "lat": 47.7323,
    "long": -122.330222,
    "neighborhood": "Haller Lake",
    "neighborhoodGroup": "Northwest",
    "units": "E31"
  },
  {
    "id_str": "F210125444",
    "created_at": "11/12/2021 7:03:08 AM",
    "timestamp": 1636729388000,
    "description": "Rubbish Fire",
    "address": "Minor Ave / University St",
    "active": false,
    "unitCount": 1,
    "severity": 0,
    "lat": 47.611943,
    "long": -122.325987,
    "neighborhood": "First Hill",
    "neighborhoodGroup": "East",
    "units": "E25"
  },
  {
    "id_str": "F210125443",
    "created_at": "11/12/2021 6:56:40 AM",
    "timestamp": 1636729000000,
    "description": "Aid Response",
    "address": "3204 Sw Morgan St",
    "active": false,
    "unitCount": 1,
    "severity": 0,
    "lat": 47.544669,
    "long": -122.373777,
    "neighborhood": "High Point",
    "neighborhoodGroup": "Delridge Neighborhoods",
    "units": "L13"
  },
  {
    "id_str": "F210125442",
    "created_at": "11/12/2021 6:48:29 AM",
    "timestamp": 1636728509000,
    "description": "Aid Response",
    "address": "1039 6th Ave S",
    "active": false,
    "unitCount": 1,
    "severity": 0,
    "lat": 47.593751,
    "long": -122.325968,
    "neighborhood": "Duwamish/SODO",
    "neighborhoodGroup": "Greater Duwamish",
    "units": "A10"
  },
  {
    "id_str": "F210125440",
    "created_at": "11/12/2021 6:46:56 AM",
    "timestamp": 1636728416000,
    "description": "Aid Response",
    "address": "2208 15th Ave W",
    "active": false,
    "unitCount": 1,
    "severity": 0,
    "lat": 47.638695,
    "long": -122.376149,
    "neighborhood": "Interbay",
    "neighborhoodGroup": "Magnolia/Queen Anne",
    "units": "E20"
  },
  {
    "id_str": "F210125441",
    "created_at": "11/12/2021 6:43:30 AM",
    "timestamp": 1636728210000,
    "description": "Aid Response",
    "address": "3rd Ave / Columbia St",
    "active": false,
    "unitCount": 1,
    "severity": 0,
    "lat": 47.604197,
    "long": -122.332714,
    "neighborhood": "Downtown Commercial Core",
    "neighborhoodGroup": "Downtown",
    "units": "A5"
  },
  {
    "id_str": "F210125439",
    "created_at": "11/12/2021 6:42:04 AM",
    "timestamp": 1636728124000,
    "description": "Aid Response",
    "address": "200 University St",
    "active": false,
    "unitCount": 1,
    "severity": 0,
    "lat": 47.607299,
    "long": -122.337087,
    "neighborhood": "Downtown Commercial Core",
    "neighborhoodGroup": "Downtown",
    "units": "E5"
  },
  {
    "id_str": "F210125438",
    "created_at": "11/12/2021 6:36:19 AM",
    "timestamp": 1636727779000,
    "description": "Aid Response",
    "address": "7100 California Ave Sw",
    "active": false,
    "unitCount": 1,
    "severity": 0,
    "lat": 47.539922,
    "long": -122.387269,
    "neighborhood": "Fauntleroy/Seaview",
    "neighborhoodGroup": "Southwest",
    "units": "E37"
  },
  {
    "id_str": "F210125437",
    "created_at": "11/12/2021 6:28:18 AM",
    "timestamp": 1636727298000,
    "description": "Aid Response",
    "address": "5th Ave / Cherry St",
    "active": false,
    "unitCount": 1,
    "severity": 0,
    "lat": 47.604413,
    "long": -122.329842,
    "neighborhood": "First Hill",
    "neighborhoodGroup": "East",
    "units": "A10"
  },
  {
    "id_str": "F210125436",
    "created_at": "11/12/2021 6:27:33 AM",
    "timestamp": 1636727253000,
    "description": "Aid Response",
    "address": "2602 16th Ave S",
    "active": false,
    "unitCount": 1,
    "severity": 0,
    "lat": 47.580216,
    "long": -122.312108,
    "neighborhood": "North Beacon Hill/Jefferson Park",
    "neighborhoodGroup": "Greater Duwamish",
    "units": "E13"
  },
  {
    "id_str": "F210125435",
    "created_at": "11/12/2021 6:24:52 AM",
    "timestamp": 1636727092000,
    "description": "Medic Response",
    "address": "516 3rd Ave",
    "active": false,
    "unitCount": 2,
    "severity": 0,
    "lat": 47.602165,
    "long": -122.330856,
    "neighborhood": "Downtown Commercial Core",
    "neighborhoodGroup": "Downtown",
    "units": "A5 M10"
  },
  {
    "id_str": "F210125432",
    "created_at": "11/12/2021 5:43:49 AM",
    "timestamp": 1636724629000,
    "description": "Auto Fire Alarm",
    "address": "3745 15th Ave Ne",
    "active": false,
    "unitCount": 2,
    "severity": 0,
    "lat": 47.652238,
    "long": -122.313301,
    "neighborhood": "University District",
    "neighborhoodGroup": "Northeast",
    "units": "E17 L9"
  },
  {
    "id_str": "F210125431",
    "created_at": "11/12/2021 5:12:01 AM",
    "timestamp": 1636722721000,
    "description": "Aid Response",
    "address": "3rd Ave S / S Main St",
    "active": false,
    "unitCount": 1,
    "severity": 0,
    "lat": 47.599991,
    "long": -122.330342,
    "neighborhood": "Pioneer Square/International District",
    "neighborhoodGroup": "Downtown",
    "units": "A10"
  },
  {
    "id_str": "F210125430",
    "created_at": "11/12/2021 5:04:29 AM",
    "timestamp": 1636722269000,
    "description": "Automatic Fire Alarm False",
    "address": "3rd Ave / Seneca St",
    "active": false,
    "unitCount": 1,
    "severity": 0,
    "lat": 47.60705,
    "long": -122.335324,
    "neighborhood": "Downtown Commercial Core",
    "neighborhoodGroup": "Downtown",
    "units": "E5"
  },
  {
    "id_str": "F210125428",
    "created_at": "11/12/2021 5:00:05 AM",
    "timestamp": 1636722005000,
    "description": "Low Acuity Response",
    "address": "2008 Westlake Ave",
    "active": false,
    "unitCount": 1,
    "severity": 0,
    "lat": 47.615007,
    "long": -122.337781,
    "neighborhood": "Cascade/Eastlake",
    "neighborhoodGroup": "Lake Union",
    "units": "A2"
  },
  {
    "id_str": "F210125426",
    "created_at": "11/12/2021 4:44:58 AM",
    "timestamp": 1636721098000,
    "description": "Hang-Up, Aid",
    "address": "6th Ave S / S Jackson St",
    "active": false,
    "unitCount": 1,
    "severity": 0,
    "lat": 47.599193,
    "long": -122.326361,
    "neighborhood": "Pioneer Square/International District",
    "neighborhoodGroup": "Downtown",
    "units": "A5"
  },
  {
    "id_str": "F210125425",
    "created_at": "11/12/2021 4:41:48 AM",
    "timestamp": 1636720908000,
    "description": "Aid Response",
    "address": "10411 17th Ave Ne",
    "active": false,
    "unitCount": 1,
    "severity": 0,
    "lat": 47.704045,
    "long": -122.309696,
    "neighborhood": "Olympic Hills/Victory Heights",
    "neighborhoodGroup": "North",
    "units": "E39"
  },
  {
    "id_str": "F210125424",
    "created_at": "11/12/2021 4:32:50 AM",
    "timestamp": 1636720370000,
    "description": "Aid Response",
    "address": "10720 5th Ave Ne",
    "active": false,
    "unitCount": 1,
    "severity": 0,
    "lat": 47.706976,
    "long": -122.323229,
    "neighborhood": "Northgate/Maple Leaf",
    "neighborhoodGroup": "North",
    "units": "E31"
  },
  {
    "id_str": "F210125423",
    "created_at": "11/12/2021 4:22:01 AM",
    "timestamp": 1636719721000,
    "description": "Automatic Fire Alarm Resd",
    "address": "3823 Ne 98th St",
    "active": false,
    "unitCount": 1,
    "severity": 0,
    "lat": 47.700178,
    "long": -122.287697,
    "neighborhood": "Wedgwood/View Ridge",
    "neighborhoodGroup": "Northeast",
    "units": "E40"
  },
  {
    "id_str": "F210125421",
    "created_at": "11/12/2021 4:08:59 AM",
    "timestamp": 1636718939000,
    "description": "Rescue Extrication",
    "address": "Nb Sr509 At 1 Ave S Bridge",
    "active": false,
    "unitCount": 12,
    "severity": 2,
    "lat": 47.543094,
    "long": -122.334023,
    "neighborhood": "Georgetown",
    "neighborhoodGroup": "Greater Duwamish",
    "units": "A14 A26 B5 B7 E11 E26 E36 L13 M32 M44 R1 SAFT2"
  },
  {
    "id_str": "F210125420",
    "created_at": "11/12/2021 4:05:00 AM",
    "timestamp": 1636718700000,
    "description": "Aid Response",
    "address": "5TH AVE / PINE ST",
    "active": false,
    "unitCount": 1,
    "severity": 0,
    "lat": 47.611672,
    "long": -122.336484,
    "neighborhood": "Downtown Commercial Core",
    "neighborhoodGroup": "Downtown",
    "units": "A2"
  },
  {
    "id_str": "F210125419",
    "created_at": "11/12/2021 3:58:17 AM",
    "timestamp": 1636718297000,
    "description": "Aid Response",
    "address": "3420 39th Ave W",
    "active": false,
    "unitCount": 1,
    "severity": 0,
    "lat": 47.650623,
    "long": -122.406821,
    "neighborhood": "Magnolia",
    "neighborhoodGroup": "Magnolia/Queen Anne",
    "units": "E41"
  },
  {
    "id_str": "F210125418",
    "created_at": "11/12/2021 3:25:58 AM",
    "timestamp": 1636716358000,
    "description": "Aid Response Freeway",
    "address": "NB I5 FR MICHIGAN",
    "active": false,
    "unitCount": 3,
    "severity": 0,
    "lat": 47.548716,
    "long": -122.311984,
    "neighborhood": "Beacon Hill",
    "neighborhoodGroup": "Greater Duwamish",
    "units": "A10 E13 E27"
  },
  {
    "id_str": "F210125417",
    "created_at": "11/12/2021 3:21:47 AM",
    "timestamp": 1636716107000,
    "description": "Auto Fire Alarm",
    "address": "607 3rd Ave",
    "active": false,
    "unitCount": 2,
    "severity": 0,
    "lat": 47.602813,
    "long": -122.331449,
    "neighborhood": "Downtown Commercial Core",
    "neighborhoodGroup": "Downtown",
    "units": "E10 L1"
  },
  {
    "id_str": "F210125415",
    "created_at": "11/12/2021 3:01:42 AM",
    "timestamp": 1636714902000,
    "description": "Auto Fire Alarm",
    "address": "2709 17th Ave S",
    "active": false,
    "unitCount": 2,
    "severity": 0,
    "lat": 47.579424,
    "long": -122.31075,
    "neighborhood": "North Beacon Hill/Jefferson Park",
    "neighborhoodGroup": "Greater Duwamish",
    "units": "E13 R1"
  },
  {
    "id_str": "F210125414",
    "created_at": "11/12/2021 2:44:59 AM",
    "timestamp": 1636713899000,
    "description": "Medic Response",
    "address": "Pike St / 3rd Ave",
    "active": false,
    "unitCount": 2,
    "severity": 0,
    "lat": 47.60975,
    "long": -122.337793,
    "neighborhood": "Downtown Commercial Core",
    "neighborhoodGroup": "Downtown",
    "units": "A2 M1"
  },
  {
    "id_str": "F210125413",
    "created_at": "11/12/2021 2:41:20 AM",
    "timestamp": 1636713680000,
    "description": "Trans to AMR",
    "address": "505 1st Ave N",
    "active": false,
    "unitCount": 1,
    "severity": 0,
    "lat": 47.623325,
    "long": -122.355415,
    "neighborhood": "Queen Anne",
    "neighborhoodGroup": "Magnolia/Queen Anne",
    "units": "A2"
  },
  {
    "id_str": "F210125412",
    "created_at": "11/12/2021 2:40:08 AM",
    "timestamp": 1636713608000,
    "description": "Rescue Elevator",
    "address": "5246 Brooklyn Ave Ne",
    "active": false,
    "unitCount": 1,
    "severity": 0,
    "lat": 47.666762,
    "long": -122.314182,
    "neighborhood": "University District",
    "neighborhoodGroup": "Northeast",
    "units": "L9"
  },
  {
    "id_str": "F210125411",
    "created_at": "11/12/2021 2:23:05 AM",
    "timestamp": 1636712585000,
    "description": "Aid Response",
    "address": "920 17th Ave",
    "active": false,
    "unitCount": 1,
    "severity": 0,
    "lat": 47.61048,
    "long": -122.310187,
    "neighborhood": "Central Area/Squire Park",
    "neighborhoodGroup": "Central",
    "units": "A25"
  },
  {
    "id_str": "F210125410",
    "created_at": "11/12/2021 2:12:45 AM",
    "timestamp": 1636711965000,
    "description": "Aid Response",
    "address": "110 W Olympic Pl",
    "active": false,
    "unitCount": 1,
    "severity": 0,
    "lat": 47.626721,
    "long": -122.35812,
    "neighborhood": "Queen Anne",
    "neighborhoodGroup": "Magnolia/Queen Anne",
    "units": "A2"
  },
  {
    "id_str": "F210125409",
    "created_at": "11/12/2021 2:12:00 AM",
    "timestamp": 1636711920000,
    "description": "Low Acuity Response",
    "address": "1039 6th Ave S",
    "active": false,
    "unitCount": 1,
    "severity": 0,
    "lat": 47.593751,
    "long": -122.325968,
    "neighborhood": "Duwamish/SODO",
    "neighborhoodGroup": "Greater Duwamish",
    "units": "A5"
  },
  {
    "id_str": "F210125408",
    "created_at": "11/12/2021 2:09:39 AM",
    "timestamp": 1636711779000,
    "description": "Low Acuity Response",
    "address": "1414 10th Ave",
    "active": false,
    "unitCount": 1,
    "severity": 0,
    "lat": 47.613092,
    "long": -122.319437,
    "neighborhood": "Capitol Hill",
    "neighborhoodGroup": "East",
    "units": "L10"
  },
  {
    "id_str": "F210125406",
    "created_at": "11/12/2021 2:03:12 AM",
    "timestamp": 1636711392000,
    "description": "Aid Response",
    "address": "925 E PIKE ST",
    "active": false,
    "unitCount": 1,
    "severity": 0,
    "lat": 47.614078,
    "long": -122.32044,
    "neighborhood": "Capitol Hill",
    "neighborhoodGroup": "East",
    "units": "A25"
  },
  {
    "id_str": "F210125405",
    "created_at": "11/12/2021 1:53:43 AM",
    "timestamp": 1636710823000,
    "description": "Aid Response",
    "address": "409 W Mercer St",
    "active": false,
    "unitCount": 1,
    "severity": 0,
    "lat": 47.624603,
    "long": -122.362041,
    "neighborhood": "Queen Anne",
    "neighborhoodGroup": "Magnolia/Queen Anne",
    "units": "E8"
  },
  {
    "id_str": "F210125404",
    "created_at": "11/12/2021 1:49:01 AM",
    "timestamp": 1636710541000,
    "description": "Aid Response",
    "address": "1039 6th Ave S",
    "active": false,
    "unitCount": 1,
    "severity": 0,
    "lat": 47.593751,
    "long": -122.325968,
    "neighborhood": "Duwamish/SODO",
    "neighborhoodGroup": "Greater Duwamish",
    "units": "A5"
  },
  {
    "id_str": "F210125403",
    "created_at": "11/12/2021 1:47:52 AM",
    "timestamp": 1636710472000,
    "description": "Aid Response",
    "address": "107 Cherry St",
    "active": false,
    "unitCount": 1,
    "severity": 0,
    "lat": 47.602588,
    "long": -122.334202,
    "neighborhood": "Downtown Commercial Core",
    "neighborhoodGroup": "Downtown",
    "units": "A10"
  },
  {
    "id_str": "F210125402",
    "created_at": "11/12/2021 1:47:06 AM",
    "timestamp": 1636710426000,
    "description": "Medic Response",
    "address": "13000 Linden Ave N",
    "active": false,
    "unitCount": 2,
    "severity": 0,
    "lat": 47.723218,
    "long": -122.348195,
    "neighborhood": "Broadview/Bitter Lake",
    "neighborhoodGroup": "Northwest",
    "units": "E24 M31"
  },
  {
    "id_str": "F210125400",
    "created_at": "11/12/2021 1:31:38 AM",
    "timestamp": 1636709498000,
    "description": "MVI Freeway",
    "address": "Sb I5 At Yesler",
    "active": false,
    "unitCount": 3,
    "severity": 0,
    "lat": 47.607412,
    "long": -122.330402,
    "neighborhood": "First Hill",
    "neighborhoodGroup": "East",
    "units": "A2 E2 E25"
  },
  {
    "id_str": "F210125398",
    "created_at": "11/12/2021 1:04:36 AM",
    "timestamp": 1636707876000,
    "description": "Aid Response",
    "address": "1215 Dexter Ave N",
    "active": false,
    "unitCount": 1,
    "severity": 0,
    "lat": 47.629844,
    "long": -122.342303,
    "neighborhood": "Queen Anne",
    "neighborhoodGroup": "Magnolia/Queen Anne",
    "units": "E2"
  },
  {
    "id_str": "F210125397",
    "created_at": "11/12/2021 1:01:35 AM",
    "timestamp": 1636707695000,
    "description": "Aid Response",
    "address": "1519 12th Ave",
    "active": false,
    "unitCount": 1,
    "severity": 0,
    "lat": 47.614317,
    "long": -122.316839,
    "neighborhood": "Capitol Hill",
    "neighborhoodGroup": "East",
    "units": "A25"
  },
  {
    "id_str": "F210125396",
    "created_at": "11/12/2021 1:00:40 AM",
    "timestamp": 1636707640000,
    "description": "MVI - Motor Vehicle Incident",
    "address": "1st Ave / University St",
    "active": false,
    "unitCount": 1,
    "severity": 0,
    "lat": 47.606835,
    "long": -122.338197,
    "neighborhood": "Downtown Commercial Core",
    "neighborhoodGroup": "Downtown",
    "units": "E5"
  },
  {
    "id_str": "F210125395",
    "created_at": "11/12/2021 12:58:18 AM",
    "timestamp": 1636707498000,
    "description": "Aid Response",
    "address": "603 Eastlake Ave E",
    "active": false,
    "unitCount": 1,
    "severity": 0,
    "lat": 47.624296,
    "long": -122.329164,
    "neighborhood": "Cascade/Eastlake",
    "neighborhoodGroup": "Lake Union",
    "units": "A2"
  },
  {
    "id_str": "F210125394",
    "created_at": "11/12/2021 12:54:03 AM",
    "timestamp": 1636707243000,
    "description": "Aid Response",
    "address": "2103 N 45th St",
    "active": false,
    "unitCount": 1,
    "severity": 0,
    "lat": 47.661387,
    "long": -122.333682,
    "neighborhood": "Wallingford",
    "neighborhoodGroup": "Lake Union",
    "units": "E17"
  },
  {
    "id_str": "F210125393",
    "created_at": "11/12/2021 12:48:33 AM",
    "timestamp": 1636706913000,
    "description": "Auto Fire Alarm",
    "address": "505 Ne 70th St",
    "active": false,
    "unitCount": 2,
    "severity": 0,
    "lat": 47.679478,
    "long": -122.322726,
    "neighborhood": "Green Lake",
    "neighborhoodGroup": "Northwest",
    "units": "E16 L9"
  },
  {
    "id_str": "F210125392",
    "created_at": "11/12/2021 12:40:45 AM",
    "timestamp": 1636706445000,
    "description": "Aid Response",
    "address": "500 S Royal Brougham Way",
    "active": false,
    "unitCount": 1,
    "severity": 0,
    "lat": 47.592394,
    "long": -122.327395,
    "neighborhood": "Duwamish/SODO",
    "neighborhoodGroup": "Greater Duwamish",
    "units": "A5"
  },
  {
    "id_str": "F210125390",
    "created_at": "11/12/2021 12:28:26 AM",
    "timestamp": 1636705706000,
    "description": "Aid Response",
    "address": "7320 56th Ave Ne",
    "active": false,
    "unitCount": 1,
    "severity": 0,
    "lat": 47.681391,
    "long": -122.267976,
    "neighborhood": "Laurelhurst/Sand Point",
    "neighborhoodGroup": "Northeast",
    "units": "E38"
  },
  {
    "id_str": "F210125389",
    "created_at": "11/12/2021 12:26:24 AM",
    "timestamp": 1636705584000,
    "description": "Aid Response",
    "address": "3rd Ave S / S Main St",
    "active": false,
    "unitCount": 1,
    "severity": 0,
    "lat": 47.599991,
    "long": -122.330342,
    "neighborhood": "Pioneer Square/International District",
    "neighborhoodGroup": "Downtown",
    "units": "A10"
  },
  {
    "id_str": "F210125388",
    "created_at": "11/12/2021 12:20:34 AM",
    "timestamp": 1636705234000,
    "description": "Aid Response",
    "address": "500 Boylston Ave E",
    "active": false,
    "unitCount": 1,
    "severity": 0,
    "lat": 47.623136,
    "long": -122.323058,
    "neighborhood": "Capitol Hill",
    "neighborhoodGroup": "East",
    "units": "A25"
  },
  {
    "id_str": "F210125386",
    "created_at": "11/12/2021 12:06:55 AM",
    "timestamp": 1636704415000,
    "description": "Medic Response",
    "address": "11705 Greenwood Ave N",
    "active": false,
    "unitCount": 2,
    "severity": 0,
    "lat": 47.714183,
    "long": -122.355516,
    "neighborhood": "Broadview/Bitter Lake",
    "neighborhoodGroup": "Northwest",
    "units": "E24 M31"
  },
  {
    "id_str": "F210125385",
    "created_at": "11/12/2021 12:03:43 AM",
    "timestamp": 1636704223000,
    "description": "Alarm Bell",
    "address": "3041 S Brighton St",
    "active": false,
    "unitCount": 1,
    "severity": 0,
    "lat": 47.541318,
    "long": -122.292835,
    "neighborhood": "South Beacon Hill/NewHolly",
    "neighborhoodGroup": "Greater Duwamish",
    "units": "E28"
  },
  {
    "id_str": "F210125384",
    "created_at": "11/11/2021 11:56:42 PM",
    "timestamp": 1636703802000,
    "description": "MVI - Motor Vehicle Incident",
    "address": "Rainier Ave S / S Charles St",
    "active": false,
    "unitCount": 1,
    "severity": 0,
    "lat": 47.594072,
    "long": -122.31015,
    "neighborhood": "North Beacon Hill/Jefferson Park",
    "neighborhoodGroup": "Greater Duwamish",
    "units": "E6"
  },
  {
    "id_str": "F210125383",
    "created_at": "11/11/2021 11:46:13 PM",
    "timestamp": 1636703173000,
    "description": "Aid Response",
    "address": "3rd Ave W / W Mercer St",
    "active": false,
    "unitCount": 1,
    "severity": 0,
    "lat": 47.624599,
    "long": -122.360628,
    "neighborhood": "Queen Anne",
    "neighborhoodGroup": "Magnolia/Queen Anne",
    "units": "E8"
  },
  {
    "id_str": "F210125381",
    "created_at": "11/11/2021 11:41:29 PM",
    "timestamp": 1636702889000,
    "description": "Alarm Bell",
    "address": "3041 S Brighton St",
    "active": false,
    "unitCount": 1,
    "severity": 0,
    "lat": 47.541318,
    "long": -122.292835,
    "neighborhood": "South Beacon Hill/NewHolly",
    "neighborhoodGroup": "Greater Duwamish",
    "units": "E28"
  },
  {
    "id_str": "F210125380",
    "created_at": "11/11/2021 11:37:13 PM",
    "timestamp": 1636702633000,
    "description": "Auto Fire Alarm",
    "address": "1918 8th Ave",
    "active": false,
    "unitCount": 2,
    "severity": 0,
    "lat": 47.615086,
    "long": -122.335521,
    "neighborhood": "Cascade/Eastlake",
    "neighborhoodGroup": "Lake Union",
    "units": "E2 L4"
  },
  {
    "id_str": "F210125378",
    "created_at": "11/11/2021 11:35:27 PM",
    "timestamp": 1636702527000,
    "description": "Aid Response",
    "address": "1431 Minor Ave",
    "active": false,
    "unitCount": 1,
    "severity": 0,
    "lat": 47.613247,
    "long": -122.327187,
    "neighborhood": "Capitol Hill",
    "neighborhoodGroup": "East",
    "units": "A25"
  },
  {
    "id_str": "F210125376",
    "created_at": "11/11/2021 11:31:03 PM",
    "timestamp": 1636702263000,
    "description": "Aid Response",
    "address": "2125 California Ave Sw",
    "active": false,
    "unitCount": 1,
    "severity": 0,
    "lat": 47.585022,
    "long": -122.386384,
    "neighborhood": "Alki/Admiral",
    "neighborhoodGroup": "Southwest",
    "units": "E29"
  },
  {
    "id_str": "F210125375",
    "created_at": "11/11/2021 11:29:01 PM",
    "timestamp": 1636702141000,
    "description": "Aid Response",
    "address": "10200 1st Ave Ne",
    "active": false,
    "unitCount": 1,
    "severity": 0,
    "lat": 47.702577,
    "long": -122.328518,
    "neighborhood": "Northgate/Maple Leaf",
    "neighborhoodGroup": "North",
    "units": "E31"
  },
  {
    "id_str": "F210125372",
    "created_at": "11/11/2021 11:12:15 PM",
    "timestamp": 1636701135000,
    "description": "Aid Response",
    "address": "5555 14th Ave Nw",
    "active": false,
    "unitCount": 1,
    "severity": 0,
    "lat": 47.669093,
    "long": -122.373588,
    "neighborhood": "Ballard",
    "neighborhoodGroup": "Ballard",
    "units": "L8"
  },
  {
    "id_str": "F210125371",
    "created_at": "11/11/2021 11:10:56 PM",
    "timestamp": 1636701056000,
    "description": "Aid Response",
    "address": "4327 8th Ave Ne",
    "active": false,
    "unitCount": 1,
    "severity": 0,
    "lat": 47.659703,
    "long": -122.319781,
    "neighborhood": "Wallingford",
    "neighborhoodGroup": "Lake Union",
    "units": "E17"
  },
  {
    "id_str": "F210125370",
    "created_at": "11/11/2021 11:09:58 PM",
    "timestamp": 1636700998000,
    "description": "Aid Response",
    "address": "1st Ave N / Thomas St",
    "active": false,
    "unitCount": 1,
    "severity": 0,
    "lat": 47.620936,
    "long": -122.355434,
    "neighborhood": "Queen Anne",
    "neighborhoodGroup": "Magnolia/Queen Anne",
    "units": "A2"
  },
  {
    "id_str": "F210125369",
    "created_at": "11/11/2021 11:08:24 PM",
    "timestamp": 1636700904000,
    "description": "Medic Response, 7 per Rule",
    "address": "600 Nw 40th St",
    "active": false,
    "unitCount": 3,
    "severity": 0,
    "lat": 47.656056,
    "long": -122.363585,
    "neighborhood": "Fremont",
    "neighborhoodGroup": "Lake Union",
    "units": "E18 E9 M18"
  },
  {
    "id_str": "F210125367",
    "created_at": "11/11/2021 10:53:54 PM",
    "timestamp": 1636700034000,
    "description": "Auto Fire Alarm",
    "address": "1533 Western Ave",
    "active": false,
    "unitCount": 2,
    "severity": 0,
    "lat": 47.608682,
    "long": -122.341421,
    "neighborhood": "Downtown Commercial Core",
    "neighborhoodGroup": "Downtown",
    "units": "E5 L4"
  },
  {
    "id_str": "F210125366",
    "created_at": "11/11/2021 10:50:42 PM",
    "timestamp": 1636699842000,
    "description": "Aid Response",
    "address": "14115 Aurora Ave N",
    "active": false,
    "unitCount": 1,
    "severity": 0,
    "lat": 47.731129,
    "long": -122.345064,
    "neighborhood": "Haller Lake",
    "neighborhoodGroup": "Northwest",
    "units": "E24"
  },
  {
    "id_str": "F210125365",
    "created_at": "11/11/2021 10:49:08 PM",
    "timestamp": 1636699748000,
    "description": "Aid Response",
    "address": "308 14th Ave E",
    "active": false,
    "unitCount": 1,
    "severity": 0,
    "lat": 47.62118,
    "long": -122.314685,
    "neighborhood": "Capitol Hill",
    "neighborhoodGroup": "East",
    "units": "A25"
  },
  {
    "id_str": "F210125360",
    "created_at": "11/11/2021 10:40:23 PM",
    "timestamp": 1636699223000,
    "description": "Aid Response",
    "address": "4812 Erskine Way Sw",
    "active": false,
    "unitCount": 1,
    "severity": 0,
    "lat": 47.559265,
    "long": -122.386917,
    "neighborhood": "West Seattle Junction/Genesee Hill",
    "neighborhoodGroup": "Southwest",
    "units": "E32"
  },
  {
    "id_str": "F210125359",
    "created_at": "11/11/2021 10:39:49 PM",
    "timestamp": 1636699189000,
    "description": "Medic Response",
    "address": "1660 S Columbian Way",
    "active": false,
    "unitCount": 3,
    "severity": 0,
    "lat": 47.561845,
    "long": -122.310824,
    "neighborhood": "North Beacon Hill/Jefferson Park",
    "neighborhoodGroup": "Greater Duwamish",
    "units": "A14 M28 R1"
  },
  {
    "id_str": "F210125358",
    "created_at": "11/11/2021 10:38:26 PM",
    "timestamp": 1636699106000,
    "description": "Aid Response",
    "address": "6532 Phinney Ave N",
    "active": false,
    "unitCount": 1,
    "severity": 0,
    "lat": 47.676558,
    "long": -122.354356,
    "neighborhood": "Greenwood/Phinney Ridge",
    "neighborhoodGroup": "Northwest",
    "units": "E21"
  },
  {
    "id_str": "F210125357",
    "created_at": "11/11/2021 10:33:33 PM",
    "timestamp": 1636698813000,
    "description": "Aid Response",
    "address": "8600 Aurora Ave N",
    "active": false,
    "unitCount": 1,
    "severity": 0,
    "lat": 47.691287,
    "long": -122.344531,
    "neighborhood": "Licton Springs",
    "neighborhoodGroup": "Northwest",
    "units": "E31"
  },
  {
    "id_str": "F210125356",
    "created_at": "11/11/2021 10:33:27 PM",
    "timestamp": 1636698807000,
    "description": "MVI - Motor Vehicle Incident",
    "address": "Sb I5 At Ship Canal Bridge",
    "active": false,
    "unitCount": 3,
    "severity": 0,
    "lat": 47.646334,
    "long": -122.322987,
    "neighborhood": "Montlake/Portage Bay",
    "neighborhoodGroup": "Northeast",
    "units": "A25 E16 E17"
  },
  {
    "id_str": "F210125355",
    "created_at": "11/11/2021 10:31:41 PM",
    "timestamp": 1636698701000,
    "description": "Medic Response",
    "address": "2328 48TH AVE SW",
    "active": false,
    "unitCount": 2,
    "severity": 0,
    "lat": 47.582895,
    "long": -122.392817,
    "neighborhood": "Alki/Admiral",
    "neighborhoodGroup": "Southwest",
    "units": "E29 M10"
  },
  {
    "id_str": "F210125352",
    "created_at": "11/11/2021 10:27:19 PM",
    "timestamp": 1636698439000,
    "description": "Aid Response",
    "address": "400 S Washington St",
    "active": false,
    "unitCount": 1,
    "severity": 0,
    "lat": 47.600875,
    "long": -122.328963,
    "neighborhood": "Pioneer Square/International District",
    "neighborhoodGroup": "Downtown",
    "units": "E10"
  },
  {
    "id_str": "F210125351",
    "created_at": "11/11/2021 10:22:32 PM",
    "timestamp": 1636698152000,
    "description": "Aid Response",
    "address": "1200 S Dearborn St",
    "active": false,
    "unitCount": 1,
    "severity": 0,
    "lat": 47.59582,
    "long": -122.317011,
    "neighborhood": "North Beacon Hill/Jefferson Park",
    "neighborhoodGroup": "Greater Duwamish",
    "units": "A5"
  },
  {
    "id_str": "F210125350",
    "created_at": "11/11/2021 10:19:25 PM",
    "timestamp": 1636697965000,
    "description": "MVI Freeway",
    "address": "Sb I5 At Albro",
    "active": false,
    "unitCount": 3,
    "severity": 0,
    "lat": 47.551689,
    "long": -122.317047,
    "neighborhood": "Beacon Hill",
    "neighborhoodGroup": "Greater Duwamish",
    "units": "A14 E13 E36"
  },
  {
    "id_str": "F210125348",
    "created_at": "11/11/2021 10:18:27 PM",
    "timestamp": 1636697907000,
    "description": "Medic Response",
    "address": "8835 Delridge Way Sw",
    "active": false,
    "unitCount": 2,
    "severity": 0,
    "lat": 47.523821,
    "long": -122.360486,
    "neighborhood": "Roxhill/Westwood",
    "neighborhoodGroup": "Delridge Neighborhoods",
    "units": "E11 M32"
  },
  {
    "id_str": "F210125347",
    "created_at": "11/11/2021 10:06:40 PM",
    "timestamp": 1636697200000,
    "description": "Aid Response",
    "address": "11032 Lake City Way Ne",
    "active": false,
    "unitCount": 1,
    "severity": 0,
    "lat": 47.708645,
    "long": -122.301288,
    "neighborhood": "Olympic Hills/Victory Heights",
    "neighborhoodGroup": "North",
    "units": "E39"
  },
  {
    "id_str": "F210125346",
    "created_at": "11/11/2021 10:05:12 PM",
    "timestamp": 1636697112000,
    "description": "Aid Response",
    "address": "2901 6th Ave S",
    "active": false,
    "unitCount": 1,
    "severity": 0,
    "lat": 47.577718,
    "long": -122.325978,
    "neighborhood": "Duwamish/SODO",
    "neighborhoodGroup": "Greater Duwamish",
    "units": "A10"
  },
  {
    "id_str": "F210125344",
    "created_at": "11/11/2021 9:58:32 PM",
    "timestamp": 1636696712000,
    "description": "Scenes Of Violence 14",
    "address": "1660 S Columbian Way",
    "active": false,
    "unitCount": 9,
    "severity": 1,
    "lat": 47.561845,
    "long": -122.310824,
    "neighborhood": "North Beacon Hill/Jefferson Park",
    "neighborhoodGroup": "Greater Duwamish",
    "units": "A14 B5 E13 E30 M1 M28 M44 R1 SAFT2"
  },
  {
    "id_str": "F210125343",
    "created_at": "11/11/2021 9:53:35 PM",
    "timestamp": 1636696415000,
    "description": "MVI Freeway",
    "address": "Sb I5 Fr Lake City",
    "active": false,
    "unitCount": 3,
    "severity": 0,
    "lat": 47.68211,
    "long": -122.319801,
    "neighborhood": "Green Lake",
    "neighborhoodGroup": "Northwest",
    "units": "A25 E16 E40"
  },
  {
    "id_str": "F210125341",
    "created_at": "11/11/2021 9:44:20 PM",
    "timestamp": 1636695860000,
    "description": "4RED - 2 + 1 + 1",
    "address": "1000 8th Ave",
    "active": false,
    "unitCount": 4,
    "severity": 0,
    "lat": 47.607945,
    "long": -122.328471,
    "neighborhood": "First Hill",
    "neighborhoodGroup": "East",
    "units": "B2 E10 E25 L1"
  },
  {
    "id_str": "F210125340",
    "created_at": "11/11/2021 9:43:23 PM",
    "timestamp": 1636695803000,
    "description": "Aid Response",
    "address": "4743 University Way Ne",
    "active": false,
    "unitCount": 1,
    "severity": 0,
    "lat": 47.663347,
    "long": -122.313098,
    "neighborhood": "University District",
    "neighborhoodGroup": "Northeast",
    "units": "E17"
  },
  {
    "id_str": "F210125338",
    "created_at": "11/11/2021 9:31:21 PM",
    "timestamp": 1636695081000,
    "description": "Illegal Burn",
    "address": "5th Ave Ne / Ne 43rd St",
    "active": false,
    "unitCount": 1,
    "severity": 0,
    "lat": 47.658935,
    "long": -122.32299,
    "neighborhood": "Wallingford",
    "neighborhoodGroup": "Lake Union",
    "units": "E17"
  },
  {
    "id_str": "F210125337",
    "created_at": "11/11/2021 9:31:00 PM",
    "timestamp": 1636695060000,
    "description": "Aid Response",
    "address": "1221 Minor Ave",
    "active": false,
    "unitCount": 1,
    "severity": 0,
    "lat": 47.611376,
    "long": -122.325467,
    "neighborhood": "First Hill",
    "neighborhoodGroup": "East",
    "units": "A25"
  },
  {
    "id_str": "F210125336",
    "created_at": "11/11/2021 9:24:51 PM",
    "timestamp": 1636694691000,
    "description": "Aid Response",
    "address": "3552 S Bennett St",
    "active": false,
    "unitCount": 1,
    "severity": 0,
    "lat": 47.554256,
    "long": -122.288637,
    "neighborhood": "Columbia City",
    "neighborhoodGroup": "Southeast",
    "units": "L12"
  },
  {
    "id_str": "F210125334",
    "created_at": "11/11/2021 8:59:53 PM",
    "timestamp": 1636693193000,
    "description": "Aid Response",
    "address": "937 N 96th St",
    "active": false,
    "unitCount": 1,
    "severity": 0,
    "lat": 47.698721,
    "long": -122.34681,
    "neighborhood": "Licton Springs",
    "neighborhoodGroup": "Northwest",
    "units": "E31"
  },
  {
    "id_str": "F210125333",
    "created_at": "11/11/2021 8:58:55 PM",
    "timestamp": 1636693135000,
    "description": "Aid Response",
    "address": "E Harrison St / Belmont Ave E",
    "active": false,
    "unitCount": 1,
    "severity": 0,
    "lat": 47.62199,
    "long": -122.324024,
    "neighborhood": "Capitol Hill",
    "neighborhoodGroup": "East",
    "units": "A25"
  },
  {
    "id_str": "F210125332",
    "created_at": "11/11/2021 8:53:54 PM",
    "timestamp": 1636692834000,
    "description": "Aid Response",
    "address": "2870 S Hanford St",
    "active": false,
    "unitCount": 1,
    "severity": 0,
    "lat": 47.574853,
    "long": -122.295888,
    "neighborhood": "Mt. Baker/North Rainier",
    "neighborhoodGroup": "Southeast",
    "units": "E30"
  },
  {
    "id_str": "F210125331",
    "created_at": "11/11/2021 8:51:10 PM",
    "timestamp": 1636692670000,
    "description": "Investigate Out Of Service",
    "address": "3201 Sw Graham St",
    "active": false,
    "unitCount": 1,
    "severity": 0,
    "lat": 47.54666,
    "long": -122.373219,
    "neighborhood": "High Point",
    "neighborhoodGroup": "Delridge Neighborhoods",
    "units": "L13"
  },
  {
    "id_str": "F210125330",
    "created_at": "11/11/2021 8:48:47 PM",
    "timestamp": 1636692527000,
    "description": "Aid Response",
    "address": "4720 S Morgan St",
    "active": false,
    "unitCount": 1,
    "severity": 0,
    "lat": 47.544265,
    "long": -122.273487,
    "neighborhood": "Seward Park",
    "neighborhoodGroup": "Southeast",
    "units": "E28"
  },
  {
    "id_str": "F210125329",
    "created_at": "11/11/2021 8:39:58 PM",
    "timestamp": 1636691998000,
    "description": "Aid Response",
    "address": "13000 Linden Ave N",
    "active": false,
    "unitCount": 1,
    "severity": 0,
    "lat": 47.723218,
    "long": -122.348195,
    "neighborhood": "Broadview/Bitter Lake",
    "neighborhoodGroup": "Northwest",
    "units": "E24"
  },
  {
    "id_str": "F210125328",
    "created_at": "11/11/2021 8:35:38 PM",
    "timestamp": 1636691738000,
    "description": "Aid Response",
    "address": "410 Occidental Ave S",
    "active": false,
    "unitCount": 1,
    "severity": 0,
    "lat": 47.599108,
    "long": -122.332884,
    "neighborhood": "Duwamish/SODO",
    "neighborhoodGroup": "Greater Duwamish",
    "units": "A5"
  },
  {
    "id_str": "F210125327",
    "created_at": "11/11/2021 8:33:41 PM",
    "timestamp": 1636691621000,
    "description": "Aid Response",
    "address": "4501 12th Ave Ne",
    "active": false,
    "unitCount": 1,
    "severity": 0,
    "lat": 47.661285,
    "long": -122.315442,
    "neighborhood": "University District",
    "neighborhoodGroup": "Northeast",
    "units": "L9"
  },
  {
    "id_str": "F210125326",
    "created_at": "11/11/2021 8:27:53 PM",
    "timestamp": 1636691273000,
    "description": "Aid Response",
    "address": "6545 31st Ave Sw",
    "active": false,
    "unitCount": 1,
    "severity": 0,
    "lat": 47.544249,
    "long": -122.372622,
    "neighborhood": "High Point",
    "neighborhoodGroup": "Delridge Neighborhoods",
    "units": "E37"
  },
  {
    "id_str": "F210125324",
    "created_at": "11/11/2021 8:23:13 PM",
    "timestamp": 1636690993000,
    "description": "Aid Response",
    "address": "7739 29th Ave Ne",
    "active": false,
    "unitCount": 1,
    "severity": 0,
    "lat": 47.685809,
    "long": -122.296677,
    "neighborhood": "Ravenna/Bryant",
    "neighborhoodGroup": "Northeast",
    "units": "E40"
  },
  {
    "id_str": "F210125320",
    "created_at": "11/11/2021 8:18:38 PM",
    "timestamp": 1636690718000,
    "description": "Aid Response",
    "address": "1716 SW BARTON ST",
    "active": false,
    "unitCount": 2,
    "severity": 0,
    "lat": 47.521033,
    "long": -122.355125,
    "neighborhood": "Highland Park",
    "neighborhoodGroup": "Delridge Neighborhoods",
    "units": "E11 M32"
  },
  {
    "id_str": "F210125317",
    "created_at": "11/11/2021 8:16:23 PM",
    "timestamp": 1636690583000,
    "description": "Aid Response",
    "address": "3201 Sw Avalon Way",
    "active": false,
    "unitCount": 1,
    "severity": 0,
    "lat": 47.564661,
    "long": -122.372562,
    "neighborhood": "North Delridge",
    "neighborhoodGroup": "Delridge Neighborhoods",
    "units": "E32"
  },
  {
    "id_str": "F210125316",
    "created_at": "11/11/2021 8:15:02 PM",
    "timestamp": 1636690502000,
    "description": "Aid Response",
    "address": "3870 Montlake Blvd Ne",
    "active": false,
    "unitCount": 1,
    "severity": 0,
    "lat": 47.651956,
    "long": -122.30341,
    "neighborhood": "University District",
    "neighborhoodGroup": "Northeast",
    "units": "E17"
  },
  {
    "id_str": "F210125314",
    "created_at": "11/11/2021 8:12:47 PM",
    "timestamp": 1636690367000,
    "description": "Aid Response",
    "address": "Westlake Ave N / Thomas St",
    "active": false,
    "unitCount": 1,
    "severity": 0,
    "lat": 47.620874,
    "long": -122.338465,
    "neighborhood": "Cascade/Eastlake",
    "neighborhoodGroup": "Lake Union",
    "units": "A2"
  },
  {
    "id_str": "F210125315",
    "created_at": "11/11/2021 8:12:17 PM",
    "timestamp": 1636690337000,
    "description": "Illegal Burn",
    "address": "1501 4th Ave",
    "active": false,
    "unitCount": 1,
    "severity": 0,
    "lat": 47.610214,
    "long": -122.336683,
    "neighborhood": "Downtown Commercial Core",
    "neighborhoodGroup": "Downtown",
    "units": "E5"
  },
  {
    "id_str": "F210125312",
    "created_at": "11/11/2021 8:05:23 PM",
    "timestamp": 1636689923000,
    "description": "Auto Fire Alarm",
    "address": "3418 Ne 65th St",
    "active": false,
    "unitCount": 2,
    "severity": 0,
    "lat": 47.675782,
    "long": -122.29145,
    "neighborhood": "Ravenna/Bryant",
    "neighborhoodGroup": "Northeast",
    "units": "E38 L9"
  },
  {
    "id_str": "F210125309",
    "created_at": "11/11/2021 8:02:12 PM",
    "timestamp": 1636689732000,
    "description": "Aid Response",
    "address": "4711 26th Ave Sw",
    "active": false,
    "unitCount": 1,
    "severity": 0,
    "lat": 47.561001,
    "long": -122.365491,
    "neighborhood": "North Delridge",
    "neighborhoodGroup": "Delridge Neighborhoods",
    "units": "E36"
  },
  {
    "id_str": "F210125308",
    "created_at": "11/11/2021 8:01:17 PM",
    "timestamp": 1636689677000,
    "description": "1RED 1 Unit",
    "address": "3800 Montlake Blvd Ne",
    "active": false,
    "unitCount": 1,
    "severity": 0,
    "lat": 47.651083,
    "long": -122.303907,
    "neighborhood": "University District",
    "neighborhoodGroup": "Northeast",
    "units": "E17"
  },
  {
    "id_str": "F210125307",
    "created_at": "11/11/2021 7:55:49 PM",
    "timestamp": 1636689349000,
    "description": "Aid Response",
    "address": "2010 S Jackson St",
    "active": false,
    "unitCount": 1,
    "severity": 0,
    "lat": 47.599258,
    "long": -122.305807,
    "neighborhood": "Judkins Park",
    "neighborhoodGroup": "Central",
    "units": "E6"
  },
  {
    "id_str": "F210125306",
    "created_at": "11/11/2021 7:53:57 PM",
    "timestamp": 1636689237000,
    "description": "Aid Response",
    "address": "6523 52nd Ave S",
    "active": false,
    "unitCount": 1,
    "severity": 0,
    "lat": 47.544066,
    "long": -122.267146,
    "neighborhood": "Seward Park",
    "neighborhoodGroup": "Southeast",
    "units": "E28"
  },
  {
    "id_str": "F210125304",
    "created_at": "11/11/2021 7:43:43 PM",
    "timestamp": 1636688623000,
    "description": "AFA4 - Auto Alarm 2 + 1 + 1",
    "address": "11011 Meridian Ave N",
    "active": false,
    "unitCount": 2,
    "severity": 0,
    "lat": 47.708709,
    "long": -122.333994,
    "neighborhood": "Northgate/Maple Leaf",
    "neighborhoodGroup": "North",
    "units": "E31 L5"
  },
  {
    "id_str": "F210125302",
    "created_at": "11/11/2021 7:35:48 PM",
    "timestamp": 1636688148000,
    "description": "Aid Response",
    "address": "88 Virginia St",
    "active": false,
    "unitCount": 1,
    "severity": 0,
    "lat": 47.610736,
    "long": -122.343049,
    "neighborhood": "Belltown",
    "neighborhoodGroup": "Downtown",
    "units": "A2"
  },
  {
    "id_str": "F210125301",
    "created_at": "11/11/2021 7:32:20 PM",
    "timestamp": 1636687940000,
    "description": "Aid Response",
    "address": "2627 26th Ave W",
    "active": false,
    "unitCount": 1,
    "severity": 0,
    "lat": 47.643615,
    "long": -122.390266,
    "neighborhood": "Interbay",
    "neighborhoodGroup": "Magnolia/Queen Anne",
    "units": "E41"
  },
  {
    "id_str": "F210125298",
    "created_at": "11/11/2021 7:24:33 PM",
    "timestamp": 1636687473000,
    "description": "Aid Response",
    "address": "111 Cedar St",
    "active": false,
    "unitCount": 1,
    "severity": 0,
    "lat": 47.615877,
    "long": -122.35052,
    "neighborhood": "Belltown",
    "neighborhoodGroup": "Downtown",
    "units": "E2"
  },
  {
    "id_str": "F210125297",
    "created_at": "11/11/2021 7:22:53 PM",
    "timestamp": 1636687373000,
    "description": "Low Acuity Response",
    "address": "408 Aurora Ave N",
    "active": false,
    "unitCount": 1,
    "severity": 0,
    "lat": 47.622153,
    "long": -122.343709,
    "neighborhood": "Cascade/Eastlake",
    "neighborhoodGroup": "Lake Union",
    "units": "A2"
  },
  {
    "id_str": "F210125295",
    "created_at": "11/11/2021 7:02:14 PM",
    "timestamp": 1636686134000,
    "description": "Automatic Fire Alarm False",
    "address": "1300 3rd Ave",
    "active": false,
    "unitCount": 1,
    "severity": 0,
    "lat": 47.607763,
    "long": -122.335976,
    "neighborhood": "Downtown Commercial Core",
    "neighborhoodGroup": "Downtown",
    "units": "E5"
  },
  {
    "id_str": "F210125294",
    "created_at": "11/11/2021 6:59:23 PM",
    "timestamp": 1636685963000,
    "description": "Investigate Out Of Service",
    "address": "11740 Greenwood Ave N",
    "active": false,
    "unitCount": 1,
    "severity": 0,
    "lat": 47.714396,
    "long": -122.355517,
    "neighborhood": "Broadview/Bitter Lake",
    "neighborhoodGroup": "Northwest",
    "units": "E24"
  },
  {
    "id_str": "F210125293",
    "created_at": "11/11/2021 6:56:14 PM",
    "timestamp": 1636685774000,
    "description": "Medic Response",
    "address": "4 Nickerson St",
    "active": false,
    "unitCount": 2,
    "severity": 0,
    "lat": 47.649764,
    "long": -122.357657,
    "neighborhood": "Queen Anne",
    "neighborhoodGroup": "Magnolia/Queen Anne",
    "units": "E9 M17"
  },
  {
    "id_str": "F210125292",
    "created_at": "11/11/2021 6:52:52 PM",
    "timestamp": 1636685572000,
    "description": "Investigate Out Of Service",
    "address": "1100 Eastlake Ave E",
    "active": false,
    "unitCount": 1,
    "severity": 0,
    "lat": 47.628647,
    "long": -122.329256,
    "neighborhood": "Cascade/Eastlake",
    "neighborhoodGroup": "Lake Union",
    "units": "E22"
  },
  {
    "id_str": "F210125291",
    "created_at": "11/11/2021 6:46:09 PM",
    "timestamp": 1636685169000,
    "description": "Aid Response",
    "address": "3609 S Thistle St",
    "active": false,
    "unitCount": 2,
    "severity": 0,
    "lat": 47.527881,
    "long": -122.286553,
    "neighborhood": "South Beacon Hill/NewHolly",
    "neighborhoodGroup": "Greater Duwamish",
    "units": "E33 M10"
  },
  {
    "id_str": "F210125288",
    "created_at": "11/11/2021 6:43:14 PM",
    "timestamp": 1636684994000,
    "description": "Aid Response",
    "address": "409 S Henderson St",
    "active": false,
    "unitCount": 2,
    "severity": 0,
    "lat": 47.523054,
    "long": -122.329596,
    "neighborhood": "South Park",
    "neighborhoodGroup": "Greater Duwamish",
    "units": "A26 E26"
  },
  {
    "id_str": "F210125287",
    "created_at": "11/11/2021 6:42:27 PM",
    "timestamp": 1636684947000,
    "description": "MVI - Motor Vehicle Incident",
    "address": "Ne 145th St/22nd Ave Ne",
    "active": false,
    "unitCount": 1,
    "severity": 0,
    "lat": 47.733875,
    "long": -122.305993,
    "units": "E39"
  },
  {
    "id_str": "F210125286",
    "created_at": "11/11/2021 6:37:14 PM",
    "timestamp": 1636684634000,
    "description": "Alarm Bell",
    "address": "11740 Greenwood Ave N",
    "active": false,
    "unitCount": 1,
    "severity": 0,
    "lat": 47.714396,
    "long": -122.355517,
    "neighborhood": "Broadview/Bitter Lake",
    "neighborhoodGroup": "Northwest",
    "units": "E31"
  },
  {
    "id_str": "F210125285",
    "created_at": "11/11/2021 6:32:54 PM",
    "timestamp": 1636684374000,
    "description": "Auto Fire Alarm",
    "address": "431 Boylston Ave E",
    "active": false,
    "unitCount": 2,
    "severity": 0,
    "lat": 47.622348,
    "long": -122.32307,
    "neighborhood": "Capitol Hill",
    "neighborhoodGroup": "East",
    "units": "E25 L10"
  },
  {
    "id_str": "F210125284",
    "created_at": "11/11/2021 6:32:05 PM",
    "timestamp": 1636684325000,
    "description": "Low Acuity Response",
    "address": "2040 43rd Ave E",
    "active": false,
    "unitCount": 1,
    "severity": 0,
    "lat": 47.63723,
    "long": -122.277111,
    "neighborhood": "Madison Park",
    "neighborhoodGroup": "East",
    "units": "E34"
  },
  {
    "id_str": "F210125283",
    "created_at": "11/11/2021 6:28:51 PM",
    "timestamp": 1636684131000,
    "description": "Illegal Burn",
    "address": "415 Pine St",
    "active": false,
    "unitCount": 1,
    "severity": 0,
    "lat": 47.611397,
    "long": -122.33714,
    "neighborhood": "Downtown Commercial Core",
    "neighborhoodGroup": "Downtown",
    "units": "E2"
  },
  {
    "id_str": "F210125282",
    "created_at": "11/11/2021 6:26:50 PM",
    "timestamp": 1636684010000,
    "description": "Aid Response",
    "address": "11515 North Park Ave N",
    "active": false,
    "unitCount": 1,
    "severity": 0,
    "lat": 47.712457,
    "long": -122.348988,
    "neighborhood": "Broadview/Bitter Lake",
    "neighborhoodGroup": "Northwest",
    "units": "E24"
  },
  {
    "id_str": "F210125279",
    "created_at": "11/11/2021 6:21:29 PM",
    "timestamp": 1636683689000,
    "description": "Medic Response",
    "address": "723 23rd Ave",
    "active": false,
    "unitCount": 2,
    "severity": 0,
    "lat": 47.608236,
    "long": -122.302768,
    "neighborhood": "Central Area/Squire Park",
    "neighborhoodGroup": "Central",
    "units": "E6 M1"
  },
  {
    "id_str": "F210125278",
    "created_at": "11/11/2021 6:18:46 PM",
    "timestamp": 1636683526000,
    "description": "Aid Response",
    "address": "8727 Phinney Ave N",
    "active": false,
    "unitCount": 1,
    "severity": 0,
    "lat": 47.692571,
    "long": -122.353952,
    "neighborhood": "Greenwood/Phinney Ridge",
    "neighborhoodGroup": "Northwest",
    "units": "E35"
  },
  {
    "id_str": "F210125277",
    "created_at": "11/11/2021 6:15:18 PM",
    "timestamp": 1636683318000,
    "description": "Aid Response",
    "address": "3710 27th Pl W",
    "active": false,
    "unitCount": 1,
    "severity": 0,
    "lat": 47.653376,
    "long": -122.391366,
    "neighborhood": "Interbay",
    "neighborhoodGroup": "Magnolia/Queen Anne",
    "units": "E20"
  },
  {
    "id_str": "F210125276",
    "created_at": "11/11/2021 6:14:37 PM",
    "timestamp": 1636683277000,
    "description": "Aid Response",
    "address": "Post Al / Pike Pl",
    "active": false,
    "unitCount": 1,
    "severity": 0,
    "lat": 47.608818,
    "long": -122.34079,
    "neighborhood": "Downtown Commercial Core",
    "neighborhoodGroup": "Downtown",
    "units": "A2"
  },
  {
    "id_str": "F210125274",
    "created_at": "11/11/2021 6:13:36 PM",
    "timestamp": 1636683216000,
    "description": "Aid Response",
    "address": "7201 West Marginal Way Sw",
    "active": false,
    "unitCount": 1,
    "severity": 0,
    "lat": 47.538638,
    "long": -122.339255,
    "neighborhood": "Highland Park",
    "neighborhoodGroup": "Delridge Neighborhoods",
    "units": "E11"
  },
  {
    "id_str": "F210125275",
    "created_at": "11/11/2021 6:13:31 PM",
    "timestamp": 1636683211000,
    "description": "Aid Response",
    "address": "504 5th Ave",
    "active": false,
    "unitCount": 1,
    "severity": 0,
    "lat": 47.603007,
    "long": -122.328555,
    "neighborhood": "First Hill",
    "neighborhoodGroup": "East",
    "units": "A10"
  },
  {
    "id_str": "F210125273",
    "created_at": "11/11/2021 6:11:29 PM",
    "timestamp": 1636683089000,
    "description": "Medic Response, 6 per Rule",
    "address": "37th Ave S / S Edmunds St",
    "active": false,
    "unitCount": 3,
    "severity": 0,
    "lat": 47.558658,
    "long": -122.286141,
    "neighborhood": "Columbia City",
    "neighborhoodGroup": "Southeast",
    "units": "E28 L12 M28"
  },