[
  {
    "id_str": "F210017039",
    "created_at": "2/20/2021 3:50:54 PM",
    "timestamp": 1613865054000,
    "description": "Aid Response",
    "address": "1155 N 130th St",
    "active": false,
    "unitCount": 3,
    "severity": 0,
    "lat": 47.723212,
    "long": -122.344228,
    "neighborhood": "Haller Lake",
    "neighborhoodGroup": "Northwest",
    "units": "A18 E30 M32"
  },
  {
    "id_str": "F210017038",
    "created_at": "2/20/2021 3:49:53 PM",
    "timestamp": 1613864993000,
    "description": "Automatic Fire Alarm False",
    "address": "210 Broadway E",
    "active": false,
    "unitCount": 2,
    "severity": 0,
    "lat": 47.620015,
    "long": -122.320875,
    "neighborhood": "Capitol Hill",
    "neighborhoodGroup": "East",
    "units": "E25 L10"
  },
  {
    "id_str": "F210017037",
    "created_at": "2/20/2021 3:44:41 PM",
    "timestamp": 1613864681000,
    "description": "Aid Response",
    "address": "1711 23rd Ave S",
    "active": false,
    "unitCount": 1,
    "severity": 0,
    "lat": 47.58821,
    "long": -122.302596,
    "neighborhood": "Mt. Baker/North Rainier",
    "neighborhoodGroup": "Southeast",
    "units": "E6"
  },
  {
    "id_str": "F210017036",
    "created_at": "2/20/2021 3:43:45 PM",
    "timestamp": 1613864625000,
    "description": "Aid Response",
    "address": "129 Belmont Ave E",
    "active": false,
    "unitCount": 1,
    "severity": 0,
    "lat": 47.618821,
    "long": -122.324007,
    "neighborhood": "Capitol Hill",
    "neighborhoodGroup": "East",
    "units": "A25"
  },
  {
    "id_str": "F210017034",
    "created_at": "2/20/2021 3:40:17 PM",
    "timestamp": 1613864417000,
    "description": "Medic Response, 7 per Rule",
    "address": "10507 Aurora Ave N",
    "active": false,
    "unitCount": 3,
    "severity": 0,
    "lat": 47.705096,
    "long": -122.344695,
    "neighborhood": "Licton Springs",
    "neighborhoodGroup": "Northwest",
    "units": "A31 E31 M17"
  },
  {
    "id_str": "F210017033",
    "created_at": "2/20/2021 3:34:22 PM",
    "timestamp": 1613864062000,
    "description": "Medic Response",
    "address": "12526 27th Ave Ne",
    "active": false,
    "unitCount": 2,
    "severity": 0,
    "lat": 47.71953,
    "long": -122.299091,
    "neighborhood": "Olympic Hills/Victory Heights",
    "neighborhoodGroup": "North",
    "units": "E39 M17"
  },
  {
    "id_str": "F210017032",
    "created_at": "2/20/2021 3:33:28 PM",
    "timestamp": 1613864008000,
    "description": "Aid Response",
    "address": "4401 4th Ave S",
    "active": false,
    "unitCount": 1,
    "severity": 0,
    "lat": 47.564617,
    "long": -122.329378,
    "neighborhood": "Duwamish/SODO",
    "neighborhoodGroup": "Greater Duwamish",
    "units": "A14"
  },
  {
    "id_str": "F210017031",
    "created_at": "2/20/2021 3:31:43 PM",
    "timestamp": 1613863903000,
    "description": "Medic Response",
    "address": "2600 2nd Ave",
    "active": false,
    "unitCount": 3,
    "severity": 0,
    "lat": 47.615914,
    "long": -122.348823,
    "neighborhood": "Belltown",
    "neighborhoodGroup": "Downtown",
    "units": "A2 A4 M10"
  },
  {
    "id_str": "F210017030",
    "created_at": "2/20/2021 3:30:37 PM",
    "timestamp": 1613863837000,
    "description": "Medic Response",
    "address": "6308 Hampton Rd S",
    "active": false,
    "unitCount": 2,
    "severity": 0,
    "lat": 47.546297,
    "long": -122.260433,
    "neighborhood": "Seward Park",
    "neighborhoodGroup": "Southeast",
    "units": "L12 M28"
  },
  {
    "id_str": "F210017027",
    "created_at": "2/20/2021 3:02:45 PM",
    "timestamp": 1613862165000,
    "description": "Aid Response",
    "address": "35th Ave / E Pike St",
    "active": false,
    "unitCount": 2,
    "severity": 0,
    "lat": 47.614047,
    "long": -122.288186,
    "neighborhood": "Madrona/Leschi",
    "neighborhoodGroup": "Central",
    "units": "E34 M10"
  },
  {
    "id_str": "F210017026",
    "created_at": "2/20/2021 2:57:39 PM",
    "timestamp": 1613861859000,
    "description": "Rescue Lock In/Out",
    "address": "501 Rainier Ave S",
    "active": false,
    "unitCount": 1,
    "severity": 0,
    "lat": 47.598322,
    "long": -122.3134,
    "neighborhood": "Judkins Park",
    "neighborhoodGroup": "Central",
    "units": "L3"
  },
  {
    "id_str": "F210017024",
    "created_at": "2/20/2021 2:57:08 PM",
    "timestamp": 1613861828000,
    "description": "Aid Response",
    "address": "4819 S Frontenac St",
    "active": false,
    "unitCount": 1,
    "severity": 0,
    "lat": 47.539799,
    "long": -122.27165,
    "neighborhood": "Columbia City",
    "neighborhoodGroup": "Southeast",
    "units": "E28"
  },
  {
    "id_str": "F210017023",
    "created_at": "2/20/2021 2:56:18 PM",
    "timestamp": 1613861778000,
    "description": "Aid Response",
    "address": "1807 4th Ave N",
    "active": false,
    "unitCount": 2,
    "severity": 0,
    "lat": 47.634909,
    "long": -122.349543,
    "neighborhood": "Queen Anne",
    "neighborhoodGroup": "Magnolia/Queen Anne",
    "units": "A2 E16"
  },
  {
    "id_str": "F210017022",
    "created_at": "2/20/2021 2:54:52 PM",
    "timestamp": 1613861692000,
    "description": "Medic Response, 7 per Rule",
    "address": "211 Dexter Ave N",
    "active": false,
    "unitCount": 3,
    "severity": 0,
    "lat": 47.619839,
    "long": -122.342391,
    "neighborhood": "Cascade/Eastlake",
    "neighborhoodGroup": "Lake Union",
    "units": "A4 E2 M1"
  },
  {
    "id_str": "F210017021",
    "created_at": "2/20/2021 2:53:49 PM",
    "timestamp": 1613861629000,
    "description": "Aid Response",
    "address": "1016 Ne 104th St",
    "active": false,
    "unitCount": 1,
    "severity": 0,
    "lat": 47.70401,
    "long": -122.31748,
    "neighborhood": "Northgate/Maple Leaf",
    "neighborhoodGroup": "North",
    "units": "E39"
  },
  {
    "id_str": "F210017020",
    "created_at": "2/20/2021 2:47:44 PM",
    "timestamp": 1613861264000,
    "description": "Aid Response",
    "address": "1911 22nd Ave S",
    "active": false,
    "unitCount": 1,
    "severity": 0,
    "lat": 47.586234,
    "long": -122.304237,
    "neighborhood": "North Beacon Hill/Jefferson Park",
    "neighborhoodGroup": "Greater Duwamish",
    "units": "E6"
  },
  {
    "id_str": "F210017019",
    "created_at": "2/20/2021 2:45:41 PM",
    "timestamp": 1613861141000,
    "description": "Aid Response",
    "address": "1501 17th Ave",
    "active": false,
    "unitCount": 1,
    "severity": 0,
    "lat": 47.614106,
    "long": -122.310161,
    "neighborhood": "Central Area/Squire Park",
    "neighborhoodGroup": "Central",
    "units": "A25"
  },
  {
    "id_str": "F210017017",
    "created_at": "2/20/2021 2:39:30 PM",
    "timestamp": 1613860770000,
    "description": "Aid Response",
    "address": "2462 1st Ave S",
    "active": false,
    "unitCount": 1,
    "severity": 0,
    "lat": 47.581461,
    "long": -122.3342,
    "neighborhood": "Duwamish/SODO",
    "neighborhoodGroup": "Greater Duwamish",
    "units": "A14"
  },
  {
    "id_str": "F210017016",
    "created_at": "2/20/2021 2:35:05 PM",
    "timestamp": 1613860505000,
    "description": "Rescue Lock In/Out",
    "address": "501 Rainier Ave S",
    "active": false,
    "unitCount": 1,
    "severity": 0,
    "lat": 47.598322,
    "long": -122.3134,
    "neighborhood": "Judkins Park",
    "neighborhoodGroup": "Central",
    "units": "L3"
  },
  {
    "id_str": "F210017015",
    "created_at": "2/20/2021 2:28:41 PM",
    "timestamp": 1613860121000,
    "description": "Aid Response",
    "address": "538 Ne 81st St",
    "active": false,
    "unitCount": 2,
    "severity": 0,
    "lat": 47.687505,
    "long": -122.322617,
    "neighborhood": "Green Lake",
    "neighborhoodGroup": "Northwest",
    "units": "A2 E16"
  },
  {
    "id_str": "F210017014",
    "created_at": "2/20/2021 2:24:03 PM",
    "timestamp": 1613859843000,
    "description": "Aid Response",
    "address": "2328 Mcgilvra Blvd E",
    "active": false,
    "unitCount": 1,
    "severity": 0,
    "lat": 47.640146,
    "long": -122.28077,
    "neighborhood": "Madison Park",
    "neighborhoodGroup": "East",
    "units": "E34"
  },
  {
    "id_str": "F210017013",
    "created_at": "2/20/2021 2:08:10 PM",
    "timestamp": 1613858890000,
    "description": "Aid Response",
    "address": "1923 3rd Ave",
    "active": false,
    "unitCount": 1,
    "severity": 0,
    "lat": 47.611802,
    "long": -122.339884,
    "neighborhood": "Cascade/Eastlake",
    "neighborhoodGroup": "Lake Union",
    "units": "A2"
  },
  {
    "id_str": "F210017012",
    "created_at": "2/20/2021 2:01:42 PM",
    "timestamp": 1613858502000,
    "description": "Auto Fire Alarm",
    "address": "3268 Sw Avalon Way",
    "active": false,
    "unitCount": 2,
    "severity": 0,
    "lat": 47.564209,
    "long": -122.373131,
    "neighborhood": "North Delridge",
    "neighborhoodGroup": "Delridge Neighborhoods",
    "units": "E29 L11"
  },
  {
    "id_str": "F210017011",
    "created_at": "2/20/2021 1:57:00 PM",
    "timestamp": 1613858220000,
    "description": "Aid Response",
    "address": "E Pike St / 10th Ave",
    "active": false,
    "unitCount": 1,
    "severity": 0,
    "lat": 47.614085,
    "long": -122.319447,
    "neighborhood": "Capitol Hill",
    "neighborhoodGroup": "East",
    "units": "A25"
  },
  {
    "id_str": "F210017007",
    "created_at": "2/20/2021 1:51:37 PM",
    "timestamp": 1613857897000,
    "description": "Medic Response",
    "address": "2nd Ave / Pike St",
    "active": false,
    "unitCount": 2,
    "severity": 0,
    "lat": 47.609285,
    "long": -122.338904,
    "neighborhood": "Downtown Commercial Core",
    "neighborhoodGroup": "Downtown",
    "units": "E5 M10"
  },
  {
    "id_str": "F210017006",
    "created_at": "2/20/2021 1:50:58 PM",
    "timestamp": 1613857858000,
    "description": "Aid Response",
    "address": "10507 Aurora Ave N",
    "active": false,
    "unitCount": 1,
    "severity": 0,
    "lat": 47.705096,
    "long": -122.344695,
    "neighborhood": "Licton Springs",
    "neighborhoodGroup": "Northwest",
    "units": "E21"
  },
  {
    "id_str": "F210017005",
    "created_at": "2/20/2021 1:49:51 PM",
    "timestamp": 1613857791000,
    "description": "Medic Response",
    "address": "2922 Western Ave",
    "active": false,
    "unitCount": 2,
    "severity": 0,
    "lat": 47.61642,
    "long": -122.35365,
    "neighborhood": "Belltown",
    "neighborhoodGroup": "Downtown",
    "units": "A4 M1"
  },
  {
    "id_str": "F210017000",
    "created_at": "2/20/2021 1:34:21 PM",
    "timestamp": 1613856861000,
    "description": "Medic Response",
    "address": "125 Ne 135th St",
    "active": false,
    "unitCount": 2,
    "severity": 0,
    "lat": 47.726801,
    "long": -122.328532,
    "neighborhood": "Haller Lake",
    "neighborhoodGroup": "Northwest",
    "units": "A31 M17"
  },
  {
    "id_str": "F210016999",
    "created_at": "2/20/2021 1:32:07 PM",
    "timestamp": 1613856727000,
    "description": "Aid Response",
    "address": "213 Pike St",
    "active": false,
    "unitCount": 1,
    "severity": 0,
    "lat": 47.609347,
    "long": -122.338757,
    "neighborhood": "Downtown Commercial Core",
    "neighborhoodGroup": "Downtown",
    "units": "E5"
  },
  {
    "id_str": "F210016998",
    "created_at": "2/20/2021 1:29:32 PM",
    "timestamp": 1613856572000,
    "description": "Brush Fire Freeway",
    "address": "SB I5 TO CORSON",
    "active": false,
    "unitCount": 4,
    "severity": 0,
    "lat": 47.559045,
    "long": -122.321742,
    "neighborhood": "Duwamish/SODO",
    "neighborhoodGroup": "Greater Duwamish",
    "units": "B5 E10 E13 E36"
  },
  {
    "id_str": "F210016997",
    "created_at": "2/20/2021 1:24:39 PM",
    "timestamp": 1613856279000,
    "description": "MVI - Motor Vehicle Incident",
    "address": "16th Ave Sw/sw Roxbury St",
    "active": false,
    "unitCount": 1,
    "severity": 0,
    "lat": 47.51736,
    "long": -122.355165,
    "units": "E11"
  },
  {
    "id_str": "F210016994",
    "created_at": "2/20/2021 1:09:08 PM",
    "timestamp": 1613855348000,
    "description": "Aid Response",
    "address": "2015 Nw 62nd St",
    "active": false,
    "unitCount": 2,
    "severity": 0,
    "lat": 47.673827,
    "long": -122.382312,
    "neighborhood": "Whittier Heights",
    "neighborhoodGroup": "Ballard",
    "units": "A18 L8"
  },
  {
    "id_str": "F210016993",
    "created_at": "2/20/2021 1:00:01 PM",
    "timestamp": 1613854801000,
    "description": "Investigate Out Of Service",
    "address": "4th Ave / Cherry St",
    "active": false,
    "unitCount": 1,
    "severity": 0,
    "lat": 47.603948,
    "long": -122.330952,
    "neighborhood": "Downtown Commercial Core",
    "neighborhoodGroup": "Downtown",
    "units": "E10"
  },
  {
    "id_str": "F210016991",
    "created_at": "2/20/2021 12:55:00 PM",
    "timestamp": 1613854500000,
    "description": "Aid Response",
    "address": "Crockett St / Waverly Pl N",
    "active": false,
    "unitCount": 1,
    "severity": 0,
    "lat": 47.637851,
    "long": -122.342439,
    "neighborhood": "Queen Anne",
    "neighborhoodGroup": "Magnolia/Queen Anne",
    "units": "A4"
  },
  {
    "id_str": "F210016990",
    "created_at": "2/20/2021 12:47:06 PM",
    "timestamp": 1613854026000,
    "description": "Low Acuity Response",
    "address": "3252 45th Ave Sw",
    "active": false,
    "unitCount": 1,
    "severity": 0,
    "lat": 47.575179,
    "long": -122.389411,
    "neighborhood": "West Seattle Junction/Genesee Hill",
    "neighborhoodGroup": "Southwest",
    "units": "E29"
  },
  {
    "id_str": "F210016989",
    "created_at": "2/20/2021 12:43:16 PM",
    "timestamp": 1613853796000,
    "description": "Aid Response",
    "address": "1830 9th Ave",
    "active": false,
    "unitCount": 2,
    "severity": 0,
    "lat": 47.615059,
    "long": -122.333537,
    "neighborhood": "Cascade/Eastlake",
    "neighborhoodGroup": "Lake Union",
    "units": "A2 A4"
  },
  {
    "id_str": "F210016988",
    "created_at": "2/20/2021 12:38:53 PM",
    "timestamp": 1613853533000,
    "description": "Aid Response",
    "address": "1753 Nw 56th St",
    "active": false,
    "unitCount": 1,
    "severity": 0,
    "lat": 47.669446,
    "long": -122.37945,
    "neighborhood": "Ballard",
    "neighborhoodGroup": "Ballard",
    "units": "A18"
  },
  {
    "id_str": "F210016987",
    "created_at": "2/20/2021 12:37:20 PM",
    "timestamp": 1613853440000,
    "description": "Aid Response",
    "address": "10th Ave / E Pike St",
    "active": false,
    "unitCount": 1,
    "severity": 0,
    "lat": 47.614085,
    "long": -122.319447,
    "neighborhood": "Capitol Hill",
    "neighborhoodGroup": "East",
    "units": "E25"
  },
  {
    "id_str": "F210016986",
    "created_at": "2/20/2021 12:31:34 PM",
    "timestamp": 1613853094000,
    "description": "Aid Response",
    "address": "3rd Ave S / S Dawson St",
    "active": false,
    "unitCount": 1,
    "severity": 0,
    "lat": 47.555643,
    "long": -122.330908,
    "neighborhood": "Georgetown",
    "neighborhoodGroup": "Greater Duwamish",
    "units": "A14"
  },
  {
    "id_str": "M210016984",
    "created_at": "2/20/2021 12:20:53 PM",
    "timestamp": 1613852453000,
    "description": "MVI Freeway",
    "address": "6000-7399 EB I90 AT W MERCER WAY",
    "active": false,
    "unitCount": 3,
    "severity": 0,
    "lat": 47.589294,
    "long": -122.253254,
    "units": "A5 E10 E6"
  },
  {
    "id_str": "F210016982",
    "created_at": "2/20/2021 12:14:54 PM",
    "timestamp": 1613852094000,
    "description": "Medic Response",
    "address": "123 Nw 78th St",
    "active": false,
    "unitCount": 2,
    "severity": 0,
    "lat": 47.685474,
    "long": -122.358272,
    "neighborhood": "Greenwood/Phinney Ridge",
    "neighborhoodGroup": "Northwest",
    "units": "E21 M31"
  },
  {
    "id_str": "F210016983",
    "created_at": "2/20/2021 12:13:12 PM",
    "timestamp": 1613851992000,
    "description": "Brush Fire",
    "address": "899 W OLYMPIC PL",
    "active": false,
    "unitCount": 1,
    "severity": 0,
    "lat": 47.62874,
    "long": -122.368832,
    "neighborhood": "Queen Anne",
    "neighborhoodGroup": "Magnolia/Queen Anne",
    "units": "E2"
  },
  {
    "id_str": "F210016980",
    "created_at": "2/20/2021 12:07:48 PM",
    "timestamp": 1613851668000,
    "description": "Aid Response",
    "address": "1902 2nd Ave",
    "active": false,
    "unitCount": 1,
    "severity": 0,
    "lat": 47.610972,
    "long": -122.340465,
    "neighborhood": "Belltown",
    "neighborhoodGroup": "Downtown",
    "units": "A4"
  },
  {
    "id_str": "F210016979",
    "created_at": "2/20/2021 12:03:41 PM",
    "timestamp": 1613851421000,
    "description": "Aid Response",
    "address": "Western Ave / Yesler Way",
    "active": false,
    "unitCount": 1,
    "severity": 0,
    "lat": 47.601722,
    "long": -122.335549,
    "neighborhood": "Downtown Commercial Core",
    "neighborhoodGroup": "Downtown",
    "units": "E5"
  },
  {
    "id_str": "F210016978",
    "created_at": "2/20/2021 12:02:48 PM",
    "timestamp": 1613851368000,
    "description": "Aid Response",
    "address": "1751 Airport Way S",
    "active": false,
    "unitCount": 1,
    "severity": 0,
    "lat": 47.587752,
    "long": -122.321392,
    "neighborhood": "Duwamish/SODO",
    "neighborhoodGroup": "Greater Duwamish",
    "units": "A10"
  },
  {
    "id_str": "F210016976",
    "created_at": "2/20/2021 11:57:37 AM",
    "timestamp": 1613851057000,
    "description": "Low Acuity Response",
    "address": "601 Queen Anne Ave N",
    "active": false,
    "unitCount": 1,
    "severity": 0,
    "lat": 47.624583,
    "long": -122.356709,
    "neighborhood": "Queen Anne",
    "neighborhoodGroup": "Magnolia/Queen Anne",
    "units": "E8"
  },
  {
    "id_str": "F210016975",
    "created_at": "2/20/2021 11:56:04 AM",
    "timestamp": 1613850964000,
    "description": "Aid Response",
    "address": "4750 15th Ave Ne",
    "active": false,
    "unitCount": 1,
    "severity": 0,
    "lat": 47.663381,
    "long": -122.311961,
    "neighborhood": "University District",
    "neighborhoodGroup": "Northeast",
    "units": "E17"
  },
  {
    "id_str": "F210016972",
    "created_at": "2/20/2021 11:39:15 AM",
    "timestamp": 1613849955000,
    "description": "Aid Response",
    "address": "420 4th Ave",
    "active": false,
    "unitCount": 1,
    "severity": 0,
    "lat": 47.601986,
    "long": -122.32914,
    "neighborhood": "Downtown Commercial Core",
    "neighborhoodGroup": "Downtown",
    "units": "A10"
  },
  {
    "id_str": "F210016971",
    "created_at": "2/20/2021 11:37:28 AM",
    "timestamp": 1613849848000,
    "description": "Automatic Fire Alarm Resd",
    "address": "4058 34th Ave Sw",
    "active": false,
    "unitCount": 2,
    "severity": 0,
    "lat": 47.567282,
    "long": -122.375093,
    "neighborhood": "North Delridge",
    "neighborhoodGroup": "Delridge Neighborhoods",
    "units": "E36 L11"
  },
  {
    "id_str": "F210016967",
    "created_at": "2/20/2021 11:23:53 AM",
    "timestamp": 1613849033000,
    "description": "Aid Response",
    "address": "900 University St",
    "active": false,
    "unitCount": 1,
    "severity": 0,
    "lat": 47.61055,
    "long": -122.329318,
    "neighborhood": "First Hill",
    "neighborhoodGroup": "East",
    "units": "A5"
  },
  {
    "id_str": "F210016966",
    "created_at": "2/20/2021 11:20:54 AM",
    "timestamp": 1613848854000,
    "description": "Medic Response",
    "address": "3053 46th Ave Sw",
    "active": false,
    "unitCount": 2,
    "severity": 0,
    "lat": 47.577011,
    "long": -122.39076,
    "neighborhood": "West Seattle Junction/Genesee Hill",
    "neighborhoodGroup": "Southwest",
    "units": "E29 M32"
  },
  {
    "id_str": "F210016965",
    "created_at": "2/20/2021 11:10:19 AM",
    "timestamp": 1613848219000,
    "description": "Aid Response",
    "address": "5271 44th Ave Sw",
    "active": false,
    "unitCount": 1,
    "severity": 0,
    "lat": 47.55558,
    "long": -122.388421,
    "neighborhood": "West Seattle Junction/Genesee Hill",
    "neighborhoodGroup": "Southwest",
    "units": "E32"
  },
  {
    "id_str": "F210016963",
    "created_at": "2/20/2021 11:03:06 AM",
    "timestamp": 1613847786000,
    "description": "Aid Response",
    "address": "6231 3rd Ave Nw",
    "active": false,
    "unitCount": 1,
    "severity": 0,
    "lat": 47.674389,
    "long": -122.360778,
    "neighborhood": "Greenwood/Phinney Ridge",
    "neighborhoodGroup": "Northwest",
    "units": "E21"
  },
  {
    "id_str": "F210016961",
    "created_at": "2/20/2021 10:58:26 AM",
    "timestamp": 1613847506000,
    "description": "Auto Fire Alarm",
    "address": "317 Marion St",
    "active": false,
    "unitCount": 2,
    "severity": 0,
    "lat": 47.604991,
    "long": -122.333174,
    "neighborhood": "Downtown Commercial Core",
    "neighborhoodGroup": "Downtown",
    "units": "E10 L1"
  },
  {
    "id_str": "F210016960",
    "created_at": "2/20/2021 10:44:57 AM",
    "timestamp": 1613846697000,
    "description": "Aid Response",
    "address": "Yesler Way / Prefontaine Pl S",
    "active": false,
    "unitCount": 1,
    "severity": 0,
    "lat": 47.601716,
    "long": -122.330265,
    "neighborhood": "Downtown Commercial Core",
    "neighborhoodGroup": "Downtown",
    "units": "A10"
  },
  {
    "id_str": "F210016959",
    "created_at": "2/20/2021 10:41:37 AM",
    "timestamp": 1613846497000,
    "description": "Aid Response",
    "address": "1617 Yale Ave",
    "active": false,
    "unitCount": 1,
    "severity": 0,
    "lat": 47.615985,
    "long": -122.32815,
    "neighborhood": "Capitol Hill",
    "neighborhoodGroup": "East",
    "units": "A4"
  },
  {
    "id_str": "F210016958",
    "created_at": "2/20/2021 10:41:15 AM",
    "timestamp": 1613846475000,
    "description": "Medic Response",
    "address": "2119 3RD AVE",
    "active": false,
    "unitCount": 3,
    "severity": 0,
    "lat": 47.637567,
    "long": -122.351945,
    "neighborhood": "Queen Anne",
    "neighborhoodGroup": "Magnolia/Queen Anne",
    "units": "A2 E8 M10"
  },
  {
    "id_str": "F210016957",
    "created_at": "2/20/2021 10:24:50 AM",
    "timestamp": 1613845490000,
    "description": "Auto Fire Alarm",
    "address": "4544 7th Ave Ne",
    "active": false,
    "unitCount": 2,
    "severity": 0,
    "lat": 47.662004,
    "long": -122.320724,
    "neighborhood": "Wallingford",
    "neighborhoodGroup": "Lake Union",
    "units": "E17 L10"
  },
  {
    "id_str": "F210016956",
    "created_at": "2/20/2021 10:11:09 AM",
    "timestamp": 1613844669000,
    "description": "Investigate Out Of Service",
    "address": "3001 Sw Charlestown St",
    "active": false,
    "unitCount": 1,
    "severity": 0,
    "lat": 47.569867,
    "long": -122.370698,
    "neighborhood": "North Delridge",
    "neighborhoodGroup": "Delridge Neighborhoods",
    "units": "E36"
  },
  {
    "id_str": "F210016955",
    "created_at": "2/20/2021 10:05:38 AM",
    "timestamp": 1613844338000,
    "description": "Aid Response",
    "address": "11240 Dayton Ave N",
    "active": false,
    "unitCount": 1,
    "severity": 0,
    "lat": 47.71076,
    "long": -122.352837,
    "neighborhood": "North Beach/Blue Ridge",
    "neighborhoodGroup": "Ballard",
    "units": "A31"
  },
  {
    "id_str": "F210016953",
    "created_at": "2/20/2021 9:44:47 AM",
    "timestamp": 1613843087000,
    "description": "Aid Response",
    "address": "4544 7th Ave Ne",
    "active": false,
    "unitCount": 1,
    "severity": 0,
    "lat": 47.662004,
    "long": -122.320724,
    "neighborhood": "Wallingford",
    "neighborhoodGroup": "Lake Union",
    "units": "E31"
  },
  {
    "id_str": "F210016952",
    "created_at": "2/20/2021 9:42:01 AM",
    "timestamp": 1613842921000,
    "description": "Aid Response",
    "address": "501 Rainier Ave S",
    "active": false,
    "unitCount": 1,
    "severity": 0,
    "lat": 47.598322,
    "long": -122.3134,
    "neighborhood": "Judkins Park",
    "neighborhoodGroup": "Central",
    "units": "E6"
  },
  {
    "id_str": "F210016951",
    "created_at": "2/20/2021 9:40:03 AM",
    "timestamp": 1613842803000,
    "description": "Aid Response",
    "address": "2557 14th Ave W",
    "active": false,
    "unitCount": 1,
    "severity": 0,
    "lat": 47.641642,
    "long": -122.374858,
    "neighborhood": "Interbay",
    "neighborhoodGroup": "Magnolia/Queen Anne",
    "units": "E20"
  },
  {
    "id_str": "F210016950",
    "created_at": "2/20/2021 9:37:20 AM",
    "timestamp": 1613842640000,
    "description": "Aid Response",
    "address": "5566 S Juniper St",
    "active": false,
    "unitCount": 1,
    "severity": 0,
    "lat": 47.495581,
    "long": -122.263497,
    "neighborhood": "Rainier Beach",
    "neighborhoodGroup": "Southeast",
    "units": "E33"
  },
  {
    "id_str": "F210016949",
    "created_at": "2/20/2021 9:24:40 AM",
    "timestamp": 1613841880000,
    "description": "Medic Response",
    "address": "N 85th St / Fremont Ave N",
    "active": false,
    "unitCount": 2,
    "severity": 0,
    "lat": 47.690579,
    "long": -122.349912,
    "neighborhood": "Licton Springs",
    "neighborhoodGroup": "Northwest",
    "units": "E16 M31"
  },
  {
    "id_str": "F210016948",
    "created_at": "2/20/2021 9:20:07 AM",
    "timestamp": 1613841607000,
    "description": "Aid Response",
    "address": "8500 16th Ave Nw",
    "active": false,
    "unitCount": 1,
    "severity": 0,
    "lat": 47.690606,
    "long": -122.377883,
    "neighborhood": "North Beach/Blue Ridge",
    "neighborhoodGroup": "Ballard",
    "units": "E35"
  },
  {
    "id_str": "F210016947",
    "created_at": "2/20/2021 9:07:16 AM",
    "timestamp": 1613840836000,
    "description": "Medic Response",
    "address": "12740 33rd Ave Ne",
    "active": false,
    "unitCount": 2,
    "severity": 0,
    "lat": 47.720938,
    "long": -122.292513,
    "neighborhood": "Cedar Park/Meadowbrook",
    "neighborhoodGroup": "North",
    "units": "E39 M17"
  },
  {
    "id_str": "F210016945",
    "created_at": "2/20/2021 8:39:40 AM",
    "timestamp": 1613839180000,
    "description": "Aid Response",
    "address": "531 Ne 112th St",
    "active": false,
    "unitCount": 1,
    "severity": 0,
    "lat": 47.709995,
    "long": -122.32296,
    "neighborhood": "Northgate/Maple Leaf",
    "neighborhoodGroup": "North",
    "units": "E21"
  },
  {
    "id_str": "F210016944",
    "created_at": "2/20/2021 8:36:14 AM",
    "timestamp": 1613838974000,
    "description": "Aid Response",
    "address": "123 Broadway",
    "active": false,
    "unitCount": 1,
    "severity": 0,
    "lat": 47.602343,
    "long": -122.320739,
    "neighborhood": "First Hill",
    "neighborhoodGroup": "East",
    "units": "A10"
  },
  {
    "id_str": "F210016943",
    "created_at": "2/20/2021 8:32:47 AM",
    "timestamp": 1613838767000,
    "description": "Low Acuity Response",
    "address": "6743 13th Ave Nw",
    "active": false,
    "unitCount": 1,
    "severity": 0,
    "lat": 47.678051,
    "long": -122.372998,
    "neighborhood": "Whittier Heights",
    "neighborhoodGroup": "Ballard",
    "units": "E35"
  },
  {
    "id_str": "F210016942",
    "created_at": "2/20/2021 8:30:11 AM",
    "timestamp": 1613838611000,
    "description": "Medic Response",
    "address": "15th Ave W / W Boston St",
    "active": false,
    "unitCount": 2,
    "severity": 0,
    "lat": 47.638633,
    "long": -122.376149,
    "neighborhood": "Interbay",
    "neighborhoodGroup": "Magnolia/Queen Anne",
    "units": "A18 M31"
  },
  {
    "id_str": "F210016941",
    "created_at": "2/20/2021 8:29:16 AM",
    "timestamp": 1613838556000,
    "description": "Aid Response",
    "address": "805 4th Ave N",
    "active": false,
    "unitCount": 1,
    "severity": 0,
    "lat": 47.626322,
    "long": -122.348863,
    "neighborhood": "Queen Anne",
    "neighborhoodGroup": "Magnolia/Queen Anne",
    "units": "A2"
  },
  {
    "id_str": "F210016940",
    "created_at": "2/20/2021 8:24:32 AM",
    "timestamp": 1613838272000,
    "description": "Aid Response",
    "address": "11616 Aurora Ave N",
    "active": false,
    "unitCount": 1,
    "severity": 0,
    "lat": 47.713747,
    "long": -122.344837,
    "neighborhood": "Broadview/Bitter Lake",
    "neighborhoodGroup": "Northwest",
    "units": "E21"
  },
  {
    "id_str": "F210016936",
    "created_at": "2/20/2021 8:06:55 AM",
    "timestamp": 1613837215000,
    "description": "Aid Response",
    "address": "510 N 117th St",
    "active": false,
    "unitCount": 1,
    "severity": 0,
    "lat": 47.714153,
    "long": -122.352739,
    "neighborhood": "Broadview/Bitter Lake",
    "neighborhoodGroup": "Northwest",
    "units": "E24"
  },
  {
    "id_str": "F210016928",
    "created_at": "2/20/2021 8:02:47 AM",
    "timestamp": 1613836967000,
    "description": "Brush Fire",
    "address": "2061 15TH AVE W",
    "active": false,
    "unitCount": 2,
    "severity": 0,
    "lat": 47.640679,
    "long": -122.37616,
    "neighborhood": "Interbay",
    "neighborhoodGroup": "Magnolia/Queen Anne",
    "units": "E20 E41"
  },
  {
    "id_str": "F210016926",
    "created_at": "2/20/2021 7:50:51 AM",
    "timestamp": 1613836251000,
    "description": "Rescue Elevator",
    "address": "1660 S Columbian Way",
    "active": false,
    "unitCount": 1,
    "severity": 0,
    "lat": 47.561845,
    "long": -122.310824,
    "neighborhood": "North Beacon Hill/Jefferson Park",
    "neighborhoodGroup": "Greater Duwamish",
    "units": "R1"
  },
  {
    "id_str": "F210016925",
    "created_at": "2/20/2021 7:47:39 AM",
    "timestamp": 1613836059000,
    "description": "Aid Response",
    "address": "1430 2nd Ave",
    "active": false,
    "unitCount": 1,
    "severity": 0,
    "lat": 47.608586,
    "long": -122.338264,
    "neighborhood": "Downtown Commercial Core",
    "neighborhoodGroup": "Downtown",
    "units": "E5"
  },
  {
    "id_str": "F210016923",
    "created_at": "2/20/2021 7:02:18 AM",
    "timestamp": 1613833338000,
    "description": "Aid Response",
    "address": "11050 8th Ave Ne",
    "active": false,
    "unitCount": 1,
    "severity": 0,
    "lat": 47.708935,
    "long": -122.320569,
    "neighborhood": "Northgate/Maple Leaf",
    "neighborhoodGroup": "North",
    "units": "L5"
  },
  {
    "id_str": "F210016922",
    "created_at": "2/20/2021 6:55:11 AM",
    "timestamp": 1613832911000,
    "description": "Hang-Up, Aid",
    "address": "11050 8th Ave Ne",
    "active": false,
    "unitCount": 1,
    "severity": 0,
    "lat": 47.708935,
    "long": -122.320569,
    "neighborhood": "Northgate/Maple Leaf",
    "neighborhoodGroup": "North",
    "units": "E39"
  },
  {
    "id_str": "F210016920",
    "created_at": "2/20/2021 6:29:14 AM",
    "timestamp": 1613831354000,
    "description": "Medic Response",
    "address": "204 3rd Ave S",
    "active": false,
    "unitCount": 2,
    "severity": 0,
    "lat": 47.600843,
    "long": -122.330271,
    "neighborhood": "Pioneer Square/International District",
    "neighborhoodGroup": "Downtown",
    "units": "A5 M1"
  },
  {
    "id_str": "F210016919",
    "created_at": "2/20/2021 6:27:25 AM",
    "timestamp": 1613831245000,
    "description": "Aid Response",
    "address": "450 Ne 100th St",
    "active": false,
    "unitCount": 1,
    "severity": 0,
    "lat": 47.701329,
    "long": -122.323684,
    "neighborhood": "Northgate/Maple Leaf",
    "neighborhoodGroup": "North",
    "units": "E16"
  },
  {
    "id_str": "F210016918",
    "created_at": "2/20/2021 6:16:31 AM",
    "timestamp": 1613830591000,
    "description": "Aid Response",
    "address": "1700 Westlake Ave N",
    "active": false,
    "unitCount": 1,
    "severity": 0,
    "lat": 47.634358,
    "long": -122.340437,
    "neighborhood": "Queen Anne",
    "neighborhoodGroup": "Magnolia/Queen Anne",
    "units": "A2"
  },
  {
    "id_str": "F210016917",
    "created_at": "2/20/2021 6:09:01 AM",
    "timestamp": 1613830141000,
    "description": "1RED 1 Unit",
    "address": "308 4th Ave S",
    "active": false,
    "unitCount": 2,
    "severity": 0,
    "lat": 47.599968,
    "long": -122.328965,
    "neighborhood": "Pioneer Square/International District",
    "neighborhoodGroup": "Downtown",
    "units": "E10 MAR5"
  },
  {
    "id_str": "F210016915",
    "created_at": "2/20/2021 5:56:16 AM",
    "timestamp": 1613829376000,
    "description": "Aid Response",
    "address": "1714 29th Ave S",
    "active": false,
    "unitCount": 1,
    "severity": 0,
    "lat": 47.587812,
    "long": -122.294901,
    "neighborhood": "Mt. Baker/North Rainier",
    "neighborhoodGroup": "Southeast",
    "units": "L3"
  },
  {
    "id_str": "F210016914",
    "created_at": "2/20/2021 5:53:03 AM",
    "timestamp": 1613829183000,
    "description": "Medic Response",
    "address": "111 23RD AVE",
    "active": false,
    "unitCount": 4,
    "severity": 0,
    "lat": 47.601873,
    "long": -122.302434,
    "neighborhood": "Central Area/Squire Park",
    "neighborhoodGroup": "Central",
    "units": "A10 A25 E6 M10"
  },
  {
    "id_str": "F210016913",
    "created_at": "2/20/2021 5:47:02 AM",
    "timestamp": 1613828822000,
    "description": "Unk Odor",
    "address": "35th Ave Sw / Sw Morgan St",
    "active": false,
    "unitCount": 1,
    "severity": 0,
    "lat": 47.544683,
    "long": -122.376445,
    "neighborhood": "High Point",
    "neighborhoodGroup": "Delridge Neighborhoods",
    "units": "E37"
  },
  {
    "id_str": "F210016909",
    "created_at": "2/20/2021 4:29:26 AM",
    "timestamp": 1613824166000,
    "description": "Alarm Bell",
    "address": "7827 Rainier Ave S",
    "active": false,
    "unitCount": 2,
    "severity": 0,
    "lat": 47.532338,
    "long": -122.269989,
    "neighborhood": "Seward Park",
    "neighborhoodGroup": "Southeast",
    "units": "E33 L12"
  },
  {
    "id_str": "F210016908",
    "created_at": "2/20/2021 4:27:08 AM",
    "timestamp": 1613824028000,
    "description": "Aid Response",
    "address": "290 PINE ST",
    "active": false,
    "unitCount": 1,
    "severity": 0,
    "lat": 47.60975,
    "long": -122.337793,
    "neighborhood": "Downtown Commercial Core",
    "neighborhoodGroup": "Downtown",
    "units": "A2"
  },
  {
    "id_str": "F210016906",
    "created_at": "2/20/2021 4:06:46 AM",
    "timestamp": 1613822806000,
    "description": "Car Fire",
    "address": "14th Ave S / S Jackson St",
    "active": false,
    "unitCount": 1,
    "severity": 0,
    "lat": 47.59921,
    "long": -122.314137,
    "neighborhood": "Judkins Park",
    "neighborhoodGroup": "Central",
    "units": "E6"
  },
  {
    "id_str": "F210016902",
    "created_at": "2/20/2021 3:37:54 AM",
    "timestamp": 1613821074000,
    "description": "Medic Response",
    "address": "210 Wall St",
    "active": false,
    "unitCount": 2,
    "severity": 0,
    "lat": 47.615429,
    "long": -122.347799,
    "neighborhood": "Belltown",
    "neighborhoodGroup": "Downtown",
    "units": "A2 M1"
  },
  {
    "id_str": "F210016899",
    "created_at": "2/20/2021 2:58:28 AM",
    "timestamp": 1613818708000,
    "description": "Medic Response",
    "address": "1417 Ne Brockman Pl",
    "active": false,
    "unitCount": 3,
    "severity": 0,
    "lat": 47.724449,
    "long": -122.313445,
    "neighborhood": "Olympic Hills/Victory Heights",
    "neighborhoodGroup": "North",
    "units": "L5 M18 M31"
  },
  {
    "id_str": "F210016898",
    "created_at": "2/20/2021 2:56:36 AM",
    "timestamp": 1613818596000,
    "description": "Aid Response",
    "address": "8th Ave / Pike St",
    "active": false,
    "unitCount": 1,
    "severity": 0,
    "lat": 47.612071,
    "long": -122.332244,
    "neighborhood": "First Hill",
    "neighborhoodGroup": "East",
    "units": "A5"
  },
  {
    "id_str": "F210016897",
    "created_at": "2/20/2021 2:55:31 AM",
    "timestamp": 1613818531000,
    "description": "Medic Response",
    "address": "6420 57th Ave Ne",
    "active": false,
    "unitCount": 2,
    "severity": 0,
    "lat": 47.675466,
    "long": -122.26793,
    "neighborhood": "Ravenna/Bryant",
    "neighborhoodGroup": "Northeast",
    "units": "E38 M31"
  },
  {
    "id_str": "F210016896",
    "created_at": "2/20/2021 2:52:05 AM",
    "timestamp": 1613818325000,
    "description": "Aid Response",
    "address": "1021 Valley St",
    "active": false,
    "unitCount": 1,
    "severity": 0,
    "lat": 47.625789,
    "long": -122.336861,
    "neighborhood": "Cascade/Eastlake",
    "neighborhoodGroup": "Lake Union",
    "units": "A2"
  },
  {
    "id_str": "F210016895",
    "created_at": "2/20/2021 2:49:53 AM",
    "timestamp": 1613818193000,
    "description": "Low Acuity Response",
    "address": "100 Melrose Ave E",
    "active": false,
    "unitCount": 1,
    "severity": 0,
    "lat": 47.618497,
    "long": -122.327854,
    "neighborhood": "Capitol Hill",
    "neighborhoodGroup": "East",
    "units": "A25"
  },
  {
    "id_str": "F210016892",
    "created_at": "2/20/2021 2:22:50 AM",
    "timestamp": 1613816570000,
    "description": "Aid Response",
    "address": "3204 Sw Morgan St",
    "active": false,
    "unitCount": 1,
    "severity": 0,
    "lat": 47.544669,
    "long": -122.373777,
    "neighborhood": "High Point",
    "neighborhoodGroup": "Delridge Neighborhoods",
    "units": "E37"
  },
  {
    "id_str": "F210016891",
    "created_at": "2/20/2021 2:21:46 AM",
    "timestamp": 1613816506000,
    "description": "Medic Response",
    "address": "3031 Ne 137th St",
    "active": false,
    "unitCount": 2,
    "severity": 0,
    "lat": 47.727925,
    "long": -122.295982,
    "neighborhood": "Cedar Park/Meadowbrook",
    "neighborhoodGroup": "North",
    "units": "E39 M17"
  },
  {
    "id_str": "F210016890",
    "created_at": "2/20/2021 1:50:59 AM",
    "timestamp": 1613814659000,
    "description": "Aid Response",
    "address": "509 3rd Ave",
    "active": false,
    "unitCount": 1,
    "severity": 0,
    "lat": 47.602114,
    "long": -122.330809,
    "neighborhood": "Downtown Commercial Core",
    "neighborhoodGroup": "Downtown",
    "units": "A10"
  },
  {
    "id_str": "F210016889",
    "created_at": "2/20/2021 1:49:19 AM",
    "timestamp": 1613814559000,
    "description": "Aid Response",
    "address": "3225 Benton Pl Sw",
    "active": false,
    "unitCount": 1,
    "severity": 0,
    "lat": 47.575335,
    "long": -122.418114,
    "neighborhood": "Alki/Admiral",
    "neighborhoodGroup": "Southwest",
    "units": "E29"
  },
  {
    "id_str": "F210016887",
    "created_at": "2/20/2021 1:34:22 AM",
    "timestamp": 1613813662000,
    "description": "Aid Response",
    "address": "915 Nw 45th St",
    "active": false,
    "unitCount": 1,
    "severity": 0,
    "lat": 47.661467,
    "long": -122.368768,
    "neighborhood": "Ballard",
    "neighborhoodGroup": "Ballard",
    "units": "E18"
  },
  {
    "id_str": "F210016886",
    "created_at": "2/20/2021 1:29:10 AM",
    "timestamp": 1613813350000,
    "description": "Aid Response",
    "address": "7070 East Marginal Way S",
    "active": false,
    "unitCount": 1,
    "severity": 0,
    "lat": 47.539666,
    "long": -122.322298,
    "neighborhood": "Georgetown",
    "neighborhoodGroup": "Greater Duwamish",
    "units": "E27"
  },
  {
    "id_str": "F210016884",
    "created_at": "2/20/2021 1:01:46 AM",
    "timestamp": 1613811706000,
    "description": "Medic Response",
    "address": "2615 Sw Barton St",
    "active": false,
    "unitCount": 2,
    "severity": 0,
    "lat": 47.521023,
    "long": -122.366095,
    "neighborhood": "Roxhill/Westwood",
    "neighborhoodGroup": "Delridge Neighborhoods",
    "units": "E11 M26"
  },
  {
    "id_str": "F210016882",
    "created_at": "2/20/2021 12:56:42 AM",
    "timestamp": 1613811402000,
    "description": "MVI - Motor Vehicle Incident",
    "address": "Denny Way / Wall St",
    "active": false,
    "unitCount": 1,
    "severity": 0,
    "lat": 47.618557,
    "long": -122.34365,
    "neighborhood": "Cascade/Eastlake",
    "neighborhoodGroup": "Lake Union",
    "units": "E2"
  },
  {
    "id_str": "F210016881",
    "created_at": "2/20/2021 12:53:15 AM",
    "timestamp": 1613811195000,
    "description": "Investigate Out Of Service",
    "address": "6940 M L King Jr Way S",
    "active": false,
    "unitCount": 1,
    "severity": 0,
    "lat": 47.540318,
    "long": -122.282693,
    "neighborhood": "South Beacon Hill/NewHolly",
    "neighborhoodGroup": "Greater Duwamish",
    "units": "E28"
  },
  {
    "id_str": "F210016880",
    "created_at": "2/20/2021 12:42:37 AM",
    "timestamp": 1613810557000,
    "description": "Aid Response",
    "address": "9200 2nd Ave Sw",
    "active": false,
    "unitCount": 1,
    "severity": 0,
    "lat": 47.521244,
    "long": -122.336301,
    "neighborhood": "Highland Park",
    "neighborhoodGroup": "Delridge Neighborhoods",
    "units": "E26"
  },
  {
    "id_str": "F210016879",
    "created_at": "2/20/2021 12:24:57 AM",
    "timestamp": 1613809497000,
    "description": "Low Acuity Response",
    "address": "418 Ne Thornton Pl",
    "active": false,
    "unitCount": 1,
    "severity": 0,
    "lat": 47.702615,
    "long": -122.3249,
    "neighborhood": "Northgate/Maple Leaf",
    "neighborhoodGroup": "North",
    "units": "E16"
  },
  {
    "id_str": "F210016878",
    "created_at": "2/20/2021 12:23:31 AM",
    "timestamp": 1613809411000,
    "description": "Aid Response",
    "address": "808 Ne 106th St",
    "active": false,
    "unitCount": 1,
    "severity": 0,
    "lat": 47.705845,
    "long": -122.319958,
    "neighborhood": "Northgate/Maple Leaf",
    "neighborhoodGroup": "North",
    "units": "L9"
  },
  {
    "id_str": "F210016877",
    "created_at": "2/20/2021 12:20:51 AM",
    "timestamp": 1613809251000,
    "description": "Fire in Building",
    "address": "3001 Sw Charlestown St",
    "active": false,
    "unitCount": 19,
    "severity": 2,
    "lat": 47.569867,
    "long": -122.370698,
    "neighborhood": "North Delridge",
    "neighborhoodGroup": "Delridge Neighborhoods",
    "units": "A14 AIR10 B5 B7 DEP1 E11 E13 E29 E36 E37 L11 L13 M26 M44 MAR5 R1 REHAB1 SAFT2 STAF10"
  },
  {
    "id_str": "F210016876",
    "created_at": "2/20/2021 12:15:52 AM",
    "timestamp": 1613808952000,
    "description": "Medic Response",
    "address": "3512 Sw Alaska St",
    "active": false,
    "unitCount": 2,
    "severity": 0,
    "lat": 47.561066,
    "long": -122.376355,
    "neighborhood": "West Seattle Junction/Genesee Hill",
    "neighborhoodGroup": "Southwest",
    "units": "E32 M32"
  },
  {
    "id_str": "F210016874",
    "created_at": "2/20/2021 12:14:50 AM",
    "timestamp": 1613808890000,
    "description": "Investigate Out Of Service",
    "address": "1ST AVE / COLUMBIA ST",
    "active": false,
    "unitCount": 1,
    "severity": 0,
    "lat": 47.602386,
    "long": -122.332592,
    "neighborhood": "Downtown Commercial Core",
    "neighborhoodGroup": "Downtown",
    "units": "E5"
  },
  {
    "id_str": "F210016872",
    "created_at": "2/19/2021 11:56:02 PM",
    "timestamp": 1613807762000,
    "description": "Aid Response",
    "address": "5015 18th Ave Ne",
    "active": false,
    "unitCount": 1,
    "severity": 0,
    "lat": 47.664976,
    "long": -122.308325,
    "neighborhood": "University District",
    "neighborhoodGroup": "Northeast",
    "units": "E17"
  },
  {
    "id_str": "F210016871",
    "created_at": "2/19/2021 11:46:18 PM",
    "timestamp": 1613807178000,
    "description": "Fire in Building",
    "address": "M L King Jr Way S / S Lilac St",
    "active": false,
    "unitCount": 20,
    "severity": 2,
    "lat": 47.567245,
    "long": -122.297018,
    "neighborhood": "North Beacon Hill/Jefferson Park",
    "neighborhoodGroup": "Greater Duwamish",
    "units": "A14 AIR10 B2 B5 DEP1 E10 E13 E28 E30 E5 E6 L12 L3 M28 M44 MAR5 R1 REHAB1 SAFT2 STAF10"
  },
  {
    "id_str": "F210016870",
    "created_at": "2/19/2021 11:43:52 PM",
    "timestamp": 1613807032000,
    "description": "Rescue Lock In/Out",
    "address": "12336 32nd Ave Ne",
    "active": false,
    "unitCount": 1,
    "severity": 0,
    "lat": 47.717702,
    "long": -122.293969,
    "neighborhood": "Olympic Hills/Victory Heights",
    "neighborhoodGroup": "North",
    "units": "L9"
  },
  {
    "id_str": "F210016869",
    "created_at": "2/19/2021 11:42:27 PM",
    "timestamp": 1613806947000,
    "description": "Aid Response",
    "address": "3501 Rainier Ave S",
    "active": false,
    "unitCount": 1,
    "severity": 0,
    "lat": 47.571853,
    "long": -122.293193,
    "neighborhood": "Columbia City",
    "neighborhoodGroup": "Southeast",
    "units": "E30"
  },
  {
    "id_str": "F210016868",
    "created_at": "2/19/2021 11:40:03 PM",
    "timestamp": 1613806803000,
    "description": "Aid Response",
    "address": "Nw 43rd St / 6th Ave Nw",
    "active": false,
    "unitCount": 1,
    "severity": 0,
    "lat": 47.658945,
    "long": -122.36399,
    "neighborhood": "Fremont",
    "neighborhoodGroup": "Lake Union",
    "units": "E9"
  },
  {
    "id_str": "F210016866",
    "created_at": "2/19/2021 11:30:21 PM",
    "timestamp": 1613806221000,
    "description": "Aid Response",
    "address": "Ne Pacific Pl / Montlake Blvd Ne",
    "active": false,
    "unitCount": 1,
    "severity": 0,
    "lat": 47.651083,
    "long": -122.303907,
    "neighborhood": "University District",
    "neighborhoodGroup": "Northeast",
    "units": "E31"
  },
  {
    "id_str": "F210016865",
    "created_at": "2/19/2021 11:29:45 PM",
    "timestamp": 1613806185000,
    "description": "Auto Fire Alarm",
    "address": "14027 Lake City Way Ne",
    "active": false,
    "unitCount": 2,
    "severity": 0,
    "lat": 47.730274,
    "long": -122.292316,
    "neighborhood": "Cedar Park/Meadowbrook",
    "neighborhoodGroup": "North",
    "units": "E16 L5"
  },
  {
    "id_str": "F210016864",
    "created_at": "2/19/2021 11:24:24 PM",
    "timestamp": 1613805864000,
    "description": "Aid Response",
    "address": "223 Yesler Way",
    "active": false,
    "unitCount": 1,
    "severity": 0,
    "lat": 47.601718,
    "long": -122.331581,
    "neighborhood": "Downtown Commercial Core",
    "neighborhoodGroup": "Downtown",
    "units": "A5"
  },
  {
    "id_str": "F210016862",
    "created_at": "2/19/2021 11:23:49 PM",
    "timestamp": 1613805829000,
    "description": "Aid Response",
    "address": "9262 Rainier Ave S",
    "active": false,
    "unitCount": 1,
    "severity": 0,
    "lat": 47.519853,
    "long": -122.268364,
    "neighborhood": "Rainier Beach",
    "neighborhoodGroup": "Southeast",
    "units": "E33"
  },
  {
    "id_str": "F210016863",
    "created_at": "2/19/2021 11:23:46 PM",
    "timestamp": 1613805826000,
    "description": "Aid Response",
    "address": "3016 S Holly St",
    "active": false,
    "unitCount": 2,
    "severity": 0,
    "lat": 47.542647,
    "long": -122.293497,
    "neighborhood": "South Beacon Hill/NewHolly",
    "neighborhoodGroup": "Greater Duwamish",
    "units": "E28 L12"
  },
  {
    "id_str": "F210016861",
    "created_at": "2/19/2021 11:21:36 PM",
    "timestamp": 1613805696000,
    "description": "Aid Response Yellow",
    "address": "223 Yesler Way",
    "active": false,
    "unitCount": 1,
    "severity": 0,
    "lat": 47.601718,
    "long": -122.331581,
    "neighborhood": "Downtown Commercial Core",
    "neighborhoodGroup": "Downtown",
    "units": "A10"
  },
  {
    "id_str": "F210016859",
    "created_at": "2/19/2021 11:19:38 PM",
    "timestamp": 1613805578000,
    "description": "Aid Response",
    "address": "3rd Ave / Pine St",
    "active": false,
    "unitCount": 1,
    "severity": 0,
    "lat": 47.610743,
    "long": -122.338702,
    "neighborhood": "Downtown Commercial Core",
    "neighborhoodGroup": "Downtown",
    "units": "A2"
  },
  {
    "id_str": "F210016860",
    "created_at": "2/19/2021 11:19:38 PM",
    "timestamp": 1613805578000,
    "description": "Aid Response",
    "address": "8520 20th Ave Ne",
    "active": false,
    "unitCount": 1,
    "severity": 0,
    "lat": 47.690481,
    "long": -122.306859,
    "neighborhood": "Wedgwood/View Ridge",
    "neighborhoodGroup": "Northeast",
    "units": "E40"
  },
  {
    "id_str": "F210016856",
    "created_at": "2/19/2021 11:13:44 PM",
    "timestamp": 1613805224000,
    "description": "Aid Response",
    "address": "123 BROADWAY",
    "active": false,
    "unitCount": 1,
    "severity": 0,
    "lat": 47.610405,
    "long": -122.320758,
    "neighborhood": "First Hill",
    "neighborhoodGroup": "East",
    "units": "A25"
  },
  {
    "id_str": "F210016855",
    "created_at": "2/19/2021 11:09:03 PM",
    "timestamp": 1613804943000,
    "description": "1RED 1 Unit",
    "address": "2125 1st Ave",
    "active": false,
    "unitCount": 1,
    "severity": 0,
    "lat": 47.612025,
    "long": -122.344231,
    "neighborhood": "Belltown",
    "neighborhoodGroup": "Downtown",
    "units": "E10"
  },
  {
    "id_str": "F210016854",
    "created_at": "2/19/2021 11:06:29 PM",
    "timestamp": 1613804789000,
    "description": "Auto Fire Alarm",
    "address": "2121 26th Ave S",
    "active": false,
    "unitCount": 2,
    "severity": 0,
    "lat": 47.584234,
    "long": -122.299024,
    "neighborhood": "Mt. Baker/North Rainier",
    "neighborhoodGroup": "Southeast",
    "units": "E30 L3"
  },
  {
    "id_str": "F210016851",
    "created_at": "2/19/2021 10:59:45 PM",
    "timestamp": 1613804385000,
    "description": "Medic Response",
    "address": "502 W Highland Dr",
    "active": false,
    "unitCount": 2,
    "severity": 0,
    "lat": 47.629596,
    "long": -122.363132,
    "neighborhood": "Queen Anne",
    "neighborhoodGroup": "Magnolia/Queen Anne",
    "units": "E8 M10"
  },
  {
    "id_str": "F210016850",
    "created_at": "2/19/2021 10:58:49 PM",
    "timestamp": 1613804329000,
    "description": "Aid Response",
    "address": "20th Ave Nw / Nw Market St",
    "active": false,
    "unitCount": 1,
    "severity": 0,
    "lat": 47.668676,
    "long": -122.38213,
    "neighborhood": "Ballard",
    "neighborhoodGroup": "Ballard",
    "units": "L8"
  },
  {
    "id_str": "F210016849",
    "created_at": "2/19/2021 10:58:09 PM",
    "timestamp": 1613804289000,
    "description": "Aid Response",
    "address": "5270 Rainier Ave S",
    "active": false,
    "unitCount": 1,
    "severity": 0,
    "lat": 47.554937,
    "long": -122.282393,
    "neighborhood": "Columbia City",
    "neighborhoodGroup": "Southeast",
    "units": "E28"
  },
  {
    "id_str": "F210016848",
    "created_at": "2/19/2021 10:57:00 PM",
    "timestamp": 1613804220000,
    "description": "Low Acuity Response",
    "address": "1911 Aurora Ave N",
    "active": false,
    "unitCount": 1,
    "severity": 0,
    "lat": 47.640453,
    "long": -122.346334,
    "neighborhood": "Queen Anne",
    "neighborhoodGroup": "Magnolia/Queen Anne",
    "units": "E9"
  },
  {
    "id_str": "F210016847",
    "created_at": "2/19/2021 10:56:41 PM",
    "timestamp": 1613804201000,
    "description": "Medic Response",
    "address": "13280 Linden Ave N",
    "active": false,
    "unitCount": 2,
    "severity": 0,
    "lat": 47.72526,
    "long": -122.347901,
    "neighborhood": "Broadview/Bitter Lake",
    "neighborhoodGroup": "Northwest",
    "units": "E39 M31"
  },
  {
    "id_str": "F210016845",
    "created_at": "2/19/2021 10:49:15 PM",
    "timestamp": 1613803755000,
    "description": "Aid Response",
    "address": "1519 12th Ave",
    "active": false,
    "unitCount": 1,
    "severity": 0,
    "lat": 47.614317,
    "long": -122.316839,
    "neighborhood": "Capitol Hill",
    "neighborhoodGroup": "East",
    "units": "L10"
  },
  {
    "id_str": "F210016846",
    "created_at": "2/19/2021 10:48:48 PM",
    "timestamp": 1613803728000,
    "description": "Illegal Burn",
    "address": "1430 2nd Ave",
    "active": false,
    "unitCount": 1,
    "severity": 0,
    "lat": 47.608586,
    "long": -122.338264,
    "neighborhood": "Downtown Commercial Core",
    "neighborhoodGroup": "Downtown",
    "units": "E5"
  },
  {
    "id_str": "F210016844",
    "created_at": "2/19/2021 10:44:57 PM",
    "timestamp": 1613803497000,
    "description": "MVI - Motor Vehicle Incident",
    "address": "Highland Park Way Sw / West Marginal Way S",
    "active": false,
    "unitCount": 1,
    "severity": 0,
    "lat": 47.538315,
    "long": -122.334445,
    "neighborhood": "South Park",
    "neighborhoodGroup": "Greater Duwamish",
    "units": "E26"
  },
  {
    "id_str": "F210016843",
    "created_at": "2/19/2021 10:43:45 PM",
    "timestamp": 1613803425000,
    "description": "Aid Response Freeway",
    "address": "NB I5 AT MERCER",
    "active": false,
    "unitCount": 3,
    "severity": 0,
    "lat": 47.620184,
    "long": -122.328213,
    "neighborhood": "Cascade/Eastlake",
    "neighborhoodGroup": "Lake Union",
    "units": "A25 E10 E25"
  },
  {
    "id_str": "F210016842",
    "created_at": "2/19/2021 10:40:45 PM",
    "timestamp": 1613803245000,
    "description": "Aid Response",
    "address": "13569 Linden Ave N",
    "active": false,
    "unitCount": 1,
    "severity": 0,
    "lat": 47.727173,
    "long": -122.347718,
    "neighborhood": "Broadview/Bitter Lake",
    "neighborhoodGroup": "Northwest",
    "units": "E24"
  },
  {
    "id_str": "F210016841",
    "created_at": "2/19/2021 10:37:26 PM",
    "timestamp": 1613803046000,
    "description": "Aid Response",
    "address": "20th Ave Nw / Nw 56th St",
    "active": false,
    "unitCount": 2,
    "severity": 0,
    "lat": 47.669447,
    "long": -122.382127,
    "neighborhood": "Ballard",
    "neighborhoodGroup": "Ballard",
    "units": "B4 E18"
  },
  {
    "id_str": "F210016839",
    "created_at": "2/19/2021 10:26:26 PM",
    "timestamp": 1613802386000,
    "description": "Auto Fire Alarm",
    "address": "6339 34th Ave Sw",
    "active": false,
    "unitCount": 2,
    "severity": 0,
    "lat": 47.546215,
    "long": -122.375056,
    "neighborhood": "High Point",
    "neighborhoodGroup": "Delridge Neighborhoods",
    "units": "E32 L13"
  },
  {
    "id_str": "F210016838",
    "created_at": "2/19/2021 10:23:56 PM",
    "timestamp": 1613802236000,
    "description": "Aid Response",
    "address": "1704 Ne Grant Ln",
    "active": false,
    "unitCount": 1,
    "severity": 0,
    "lat": 47.655116,
    "long": -122.308585,
    "neighborhood": "University District",
    "neighborhoodGroup": "Northeast",
    "units": "E17"
  },
  {
    "id_str": "F210016837",
    "created_at": "2/19/2021 10:19:48 PM",
    "timestamp": 1613801988000,
    "description": "Aid Response",
    "address": "1400 S Main St",
    "active": false,
    "unitCount": 1,
    "severity": 0,
    "lat": 47.600009,
    "long": -122.314135,
    "neighborhood": "Judkins Park",
    "neighborhoodGroup": "Central",
    "units": "E6"
  },
  {
    "id_str": "F210016836",
    "created_at": "2/19/2021 10:14:13 PM",
    "timestamp": 1613801653000,
    "description": "Low Acuity Response",
    "address": "1601 S Lane St",
    "active": false,
    "unitCount": 1,
    "severity": 0,
    "lat": 47.59665,
    "long": -122.311573,
    "neighborhood": "Judkins Park",
    "neighborhoodGroup": "Central",
    "units": "A5"
  },
  {
    "id_str": "F210016834",
    "created_at": "2/19/2021 10:08:58 PM",
    "timestamp": 1613801338000,
    "description": "Medic Response",
    "address": "2615 Sw Trenton St",
    "active": false,
    "unitCount": 2,
    "severity": 0,
    "lat": 47.52468,
    "long": -122.366071,
    "neighborhood": "Roxhill/Westwood",
    "neighborhoodGroup": "Delridge Neighborhoods",
    "units": "E37 M26"
  },
  {
    "id_str": "F210016833",
    "created_at": "2/19/2021 9:59:12 PM",
    "timestamp": 1613800752000,
    "description": "Illegal Burn",
    "address": "1553 Nw Leary Way",
    "active": false,
    "unitCount": 1,
    "severity": 0,
    "lat": 47.663666,
    "long": -122.377037,
    "neighborhood": "Ballard",
    "neighborhoodGroup": "Ballard",
    "units": "E18"
  },
  {
    "id_str": "F210016832",
    "created_at": "2/19/2021 9:48:02 PM",
    "timestamp": 1613800082000,
    "description": "Aid Response",
    "address": "1137 13th Ave",
    "active": false,
    "unitCount": 1,
    "severity": 0,
    "lat": 47.61172,
    "long": -122.315439,
    "neighborhood": "First Hill",
    "neighborhoodGroup": "East",
    "units": "E25"
  },
  {
    "id_str": "F210016831",
    "created_at": "2/19/2021 9:47:09 PM",
    "timestamp": 1613800029000,
    "description": "Aid Response",
    "address": "14318 30th Ave Ne",
    "active": false,
    "unitCount": 1,
    "severity": 0,
    "lat": 47.732146,
    "long": -122.296541,
    "neighborhood": "Olympic Hills/Victory Heights",
    "neighborhoodGroup": "North",
    "units": "E39"
  },
  {
    "id_str": "F210016830",
    "created_at": "2/19/2021 9:41:52 PM",
    "timestamp": 1613799712000,
    "description": "Auto Fire Alarm",
    "address": "1618 S Lane St",
    "active": false,
    "unitCount": 2,
    "severity": 0,
    "lat": 47.59665,
    "long": -122.311349,
    "neighborhood": "Judkins Park",
    "neighborhoodGroup": "Central",
    "units": "E6 L3"
  },
  {
    "id_str": "F210016829",
    "created_at": "2/19/2021 9:41:41 PM",
    "timestamp": 1613799701000,
    "description": "Aid Response",
    "address": "803 E Denny Way",
    "active": false,
    "unitCount": 1,
    "severity": 0,
    "lat": 47.618733,
    "long": -122.322146,
    "neighborhood": "Capitol Hill",
    "neighborhoodGroup": "East",
    "units": "A25"
  },
  {
    "id_str": "F210016828",
    "created_at": "2/19/2021 9:34:28 PM",
    "timestamp": 1613799268000,
    "description": "Aid Response",
    "address": "4319 Sw Oregon St",
    "active": false,
    "unitCount": 1,
    "severity": 0,
    "lat": 47.562918,
    "long": -122.387024,
    "neighborhood": "West Seattle Junction/Genesee Hill",
    "neighborhoodGroup": "Southwest",
    "units": "E32"
  },
  {
    "id_str": "F210016827",
    "created_at": "2/19/2021 9:32:55 PM",
    "timestamp": 1613799175000,
    "description": "Medic Response",
    "address": "4545 42nd Ave Sw",
    "active": false,
    "unitCount": 2,
    "severity": 0,
    "lat": 47.562472,
    "long": -122.385455,
    "neighborhood": "West Seattle Junction/Genesee Hill",
    "neighborhoodGroup": "Southwest",
    "units": "L11 M32"
  },
  {
    "id_str": "F210016825",
    "created_at": "2/19/2021 9:25:17 PM",
    "timestamp": 1613798717000,
    "description": "Aid Response",
    "address": "4038 Linden Ave N",
    "active": false,
    "unitCount": 1,
    "severity": 0,
    "lat": 47.655874,
    "long": -122.348569,
    "neighborhood": "Fremont",
    "neighborhoodGroup": "Lake Union",
    "units": "E9"
  },
  {
    "id_str": "F210016822",
    "created_at": "2/19/2021 9:10:23 PM",
    "timestamp": 1613797823000,
    "description": "Rescue Elevator",
    "address": "1921 1st Ave",
    "active": false,
    "unitCount": 1,
    "severity": 0,
    "lat": 47.610448,
    "long": -122.341563,
    "neighborhood": "Belltown",
    "neighborhoodGroup": "Downtown",
    "units": "L4"
  },
  {
    "id_str": "F210016820",
    "created_at": "2/19/2021 8:59:44 PM",
    "timestamp": 1613797184000,
    "description": "Auto Fire Alarm",
    "address": "6339 34th Ave Sw",
    "active": false,
    "unitCount": 2,
    "severity": 0,
    "lat": 47.546215,
    "long": -122.375056,
    "neighborhood": "High Point",
    "neighborhoodGroup": "Delridge Neighborhoods",
    "units": "E37 L13"
  },
  {
    "id_str": "F210016821",
    "created_at": "2/19/2021 8:59:09 PM",
    "timestamp": 1613797149000,
    "description": "1RED 1 Unit",
    "address": "8319 8th Ave S",
    "active": false,
    "unitCount": 1,
    "severity": 0,
    "lat": 47.52885,
    "long": -122.322876,
    "neighborhood": "South Park",
    "neighborhoodGroup": "Greater Duwamish",
    "units": "E26"
  },
  {
    "id_str": "F210016819",
    "created_at": "2/19/2021 8:45:44 PM",
    "timestamp": 1613796344000,
    "description": "Aid Response",
    "address": "6940 62nd Ave Ne",
    "active": false,
    "unitCount": 1,
    "severity": 0,
    "lat": 47.678821,
    "long": -122.262227,
    "neighborhood": "Laurelhurst/Sand Point",
    "neighborhoodGroup": "Northeast",
    "units": "E40"
  },
  {
    "id_str": "F210016818",
    "created_at": "2/19/2021 8:44:29 PM",
    "timestamp": 1613796269000,
    "description": "Aid Response",
    "address": "22nd Ave W / Gilman Ave W",
    "active": false,
    "unitCount": 1,
    "severity": 0,
    "lat": 47.653979,
    "long": -122.384616,
    "neighborhood": "Interbay",
    "neighborhoodGroup": "Magnolia/Queen Anne",
    "units": "E20"
  },
  {
    "id_str": "F210016816",
    "created_at": "2/19/2021 8:39:37 PM",
    "timestamp": 1613795977000,
    "description": "Medic Response",
    "address": "1123 Sunset Ave Sw",
    "active": false,
    "unitCount": 2,
    "severity": 0,
    "lat": 47.593063,
    "long": -122.387059,
    "neighborhood": "Alki/Admiral",
    "neighborhoodGroup": "Southwest",
    "units": "E29 M32"
  },
  {
    "id_str": "F210016815",
    "created_at": "2/19/2021 8:35:51 PM",
    "timestamp": 1613795751000,
    "description": "MVI - Motor Vehicle Incident",
    "address": "8th Ave Nw / Nw 46th St",
    "active": false,
    "unitCount": 1,
    "severity": 0,
    "lat": 47.662193,
    "long": -122.366195,
    "neighborhood": "Fremont",
    "neighborhoodGroup": "Lake Union",
    "units": "L8"
  },
  {
    "id_str": "F210016814",
    "created_at": "2/19/2021 8:29:56 PM",
    "timestamp": 1613795396000,
    "description": "Aid Response",
    "address": "Leary Ave Nw / Nw Vernon Pl",
    "active": false,
    "unitCount": 1,
    "severity": 0,
    "lat": 47.666863,
    "long": -122.382354,
    "neighborhood": "Ballard",
    "neighborhoodGroup": "Ballard",
    "units": "E18"
  },
  {
    "id_str": "F210016813",
    "created_at": "2/19/2021 8:22:50 PM",
    "timestamp": 1613794970000,
    "description": "Medic Response",
    "address": "4718 38th Ave Ne",
    "active": false,
    "unitCount": 2,
    "severity": 0,
    "lat": 47.66261,
    "long": -122.287877,
    "neighborhood": "Ravenna/Bryant",
    "neighborhoodGroup": "Northeast",
    "units": "E38 M17"
  },
  {
    "id_str": "F210016812",
    "created_at": "2/19/2021 8:11:29 PM",
    "timestamp": 1613794289000,
    "description": "Medic Response",
    "address": "811 Maynard Ave S",
    "active": false,
    "unitCount": 2,
    "severity": 0,
    "lat": 47.595741,
    "long": -122.325068,
    "neighborhood": "Duwamish/SODO",
    "neighborhoodGroup": "Greater Duwamish",
    "units": "A10 M1"
  },
  {
    "id_str": "F210016811",
    "created_at": "2/19/2021 8:09:47 PM",
    "timestamp": 1613794187000,
    "description": "Aid Response",
    "address": "2720 E Madison St",
    "active": false,
    "unitCount": 1,
    "severity": 0,
    "lat": 47.623153,
    "long": -122.296667,
    "neighborhood": "Central Area/Squire Park",
    "neighborhoodGroup": "Central",
    "units": "E34"
  },
  {
    "id_str": "F210016810",
    "created_at": "2/19/2021 8:03:02 PM",
    "timestamp": 1613793782000,
    "description": "MVI - Motor Vehicle Incident",
    "address": "35TH AVE SW / SW SNOQUALMIE ST",
    "active": false,
    "unitCount": 1,
    "severity": 0,
    "lat": 47.562035,
    "long": -122.376202,
    "neighborhood": "North Delridge",
    "neighborhoodGroup": "Delridge Neighborhoods",
    "units": "E32"
  },
  {
    "id_str": "F210016809",
    "created_at": "2/19/2021 7:57:50 PM",
    "timestamp": 1613793470000,
    "description": "Aid Response",
    "address": "N 130th St / Aurora Ave N",
    "active": false,
    "unitCount": 1,
    "severity": 0,
    "lat": 47.723212,
    "long": -122.344977,
    "neighborhood": "Haller Lake",
    "neighborhoodGroup": "Northwest",
    "units": "L5"
  },
  {
    "id_str": "F210016808",
    "created_at": "2/19/2021 7:56:25 PM",
    "timestamp": 1613793385000,
    "description": "Medic Response",
    "address": "12027 15th Ave Ne",
    "active": false,
    "unitCount": 2,
    "severity": 0,
    "lat": 47.715948,
    "long": -122.312561,
    "neighborhood": "Olympic Hills/Victory Heights",
    "neighborhoodGroup": "North",
    "units": "E39 M17"
  },
  {
    "id_str": "F210016807",
    "created_at": "2/19/2021 7:55:41 PM",
    "timestamp": 1613793341000,
    "description": "Rescue Lock In/Out",
    "address": "9455 27th Ave Sw",
    "active": false,
    "unitCount": 1,
    "severity": 0,
    "lat": 47.518178,
    "long": -122.367277,
    "neighborhood": "Roxhill/Westwood",
    "neighborhoodGroup": "Delridge Neighborhoods",
    "units": "E37"
  },
  {
    "id_str": "F210016806",
    "created_at": "2/19/2021 7:53:50 PM",
    "timestamp": 1613793230000,
    "description": "Rescue Lock In/Out",
    "address": "221 Minor Ave N",
    "active": false,
    "unitCount": 1,
    "severity": 0,
    "lat": 47.619897,
    "long": -122.332981,
    "neighborhood": "Cascade/Eastlake",
    "neighborhoodGroup": "Lake Union",
    "units": "L4"
  },
  {
    "id_str": "F210016805",
    "created_at": "2/19/2021 7:52:22 PM",
    "timestamp": 1613793142000,
    "description": "Medic Response",
    "address": "116 Fairview Ave N",
    "active": false,
    "unitCount": 2,
    "severity": 0,
    "lat": 47.618693,
    "long": -122.334256,
    "neighborhood": "Cascade/Eastlake",
    "neighborhoodGroup": "Lake Union",
    "units": "A2 M1"
  },
  {
    "id_str": "F210016804",
    "created_at": "2/19/2021 7:50:35 PM",
    "timestamp": 1613793035000,
    "description": "Aid Response",
    "address": "5112 S Kenyon St",
    "active": false,
    "unitCount": 1,
    "severity": 0,
    "lat": 47.531582,
    "long": -122.269691,
    "neighborhood": "Rainier Beach",
    "neighborhoodGroup": "Southeast",
    "units": "E33"
  },
  {
    "id_str": "F210016803",
    "created_at": "2/19/2021 7:50:27 PM",
    "timestamp": 1613793027000,
    "description": "Aid Response",
    "address": "11034 Phinney Ave N",
    "active": false,
    "unitCount": 1,
    "severity": 0,
    "lat": 47.709013,
    "long": -122.35415,
    "neighborhood": "North Beach/Blue Ridge",
    "neighborhoodGroup": "Ballard",
    "units": "A31"
  },
  {
    "id_str": "F210016802",
    "created_at": "2/19/2021 7:41:03 PM",
    "timestamp": 1613792463000,
    "description": "Medic Response, 6 per Rule",
    "address": "17th Ave / E Madison St",
    "active": false,
    "unitCount": 3,
    "severity": 0,
    "lat": 47.61559,
    "long": -122.310151,
    "neighborhood": "Central Area/Squire Park",
    "neighborhoodGroup": "Central",
    "units": "A25 L10 M10"
  },
  {
    "id_str": "F210016801",
    "created_at": "2/19/2021 7:38:13 PM",
    "timestamp": 1613792293000,
    "description": "4RED - 2 + 1 + 1",
    "address": "1101 AIRPORT WAY S",
    "active": false,
    "unitCount": 5,
    "severity": 1,
    "lat": 47.593245,
    "long": -122.324478,
    "neighborhood": "Duwamish/SODO",
    "neighborhoodGroup": "Greater Duwamish",
    "units": "B2 E10 E5 L1 MAR5"
  },
  {
    "id_str": "F210016800",
    "created_at": "2/19/2021 7:30:09 PM",
    "timestamp": 1613791809000,
    "description": "Aid Response",
    "address": "700 S Lane St",
    "active": false,
    "unitCount": 1,
    "severity": 0,
    "lat": 47.596672,
    "long": -122.32376,
    "neighborhood": "Pioneer Square/International District",
    "neighborhoodGroup": "Downtown",
    "units": "A5"
  },
  {
    "id_str": "F210016798",
    "created_at": "2/19/2021 7:27:13 PM",
    "timestamp": 1613791633000,
    "description": "Aid Response",
    "address": "516 1st Ave W",
    "active": false,
    "unitCount": 2,
    "severity": 0,
    "lat": 47.623472,
    "long": -122.358023,
    "neighborhood": "Queen Anne",
    "neighborhoodGroup": "Magnolia/Queen Anne",
    "units": "A2 A4"
  },
  {
    "id_str": "F210016797",
    "created_at": "2/19/2021 7:25:40 PM",
    "timestamp": 1613791540000,
    "description": "1RED 1 Unit",
    "address": "7th Ave Ne / Ne 40th St",
    "active": false,
    "unitCount": 1,
    "severity": 0,
    "lat": 47.655893,
    "long": -122.320854,
    "neighborhood": "Wallingford",
    "neighborhoodGroup": "Lake Union",
    "units": "E31"
  },
  {
    "id_str": "F210016795",
    "created_at": "2/19/2021 7:22:05 PM",
    "timestamp": 1613791325000,
    "description": "Aid Response",
    "address": "1200 University St",
    "active": false,
    "unitCount": 1,
    "severity": 0,
    "lat": 47.611943,
    "long": -122.325987,
    "neighborhood": "First Hill",
    "neighborhoodGroup": "East",
    "units": "E25"
  },
  {
    "id_str": "F210016793",
    "created_at": "2/19/2021 7:07:53 PM",
    "timestamp": 1613790473000,
    "description": "Aid Response",
    "address": "4311 12th Ave Ne",
    "active": false,
    "unitCount": 1,
    "severity": 0,
    "lat": 47.659897,
    "long": -122.315479,
    "neighborhood": "University District",
    "neighborhoodGroup": "Northeast",
    "units": "E17"
  },
  {
    "id_str": "F210016792",
    "created_at": "2/19/2021 7:05:53 PM",
    "timestamp": 1613790353000,
    "description": "Aid Response",
    "address": "1825 HARVARD AVE",
    "active": false,
    "unitCount": 2,
    "severity": 0,
    "lat": 47.61785,
    "long": -122.322173,
    "neighborhood": "Capitol Hill",
    "neighborhoodGroup": "East",
    "units": "A25 E25"
  },
  {
    "id_str": "F210016791",
    "created_at": "2/19/2021 7:03:51 PM",
    "timestamp": 1613790231000,
    "description": "Aid Response",
    "address": "7401 Rainier Ave S",
    "active": false,
    "unitCount": 1,
    "severity": 0,
    "lat": 47.5359,
    "long": -122.270028,
    "neighborhood": "Seward Park",
    "neighborhoodGroup": "Southeast",
    "units": "E28"
  },
  {
    "id_str": "F210016789",
    "created_at": "2/19/2021 7:01:35 PM",
    "timestamp": 1613790095000,
    "description": "Aid Response",
    "address": "532 N 137th St",
    "active": false,
    "unitCount": 1,
    "severity": 0,
    "lat": 47.728473,
    "long": -122.351691,
    "neighborhood": "Broadview/Bitter Lake",
    "neighborhoodGroup": "Northwest",
    "units": "E39"
  },
  {
    "id_str": "F210016788",
    "created_at": "2/19/2021 6:58:58 PM",
    "timestamp": 1613789938000,
    "description": "Low Acuity Response",
    "address": "1056 N 35th St",
    "active": false,
    "unitCount": 1,
    "severity": 0,
    "lat": 47.649694,
    "long": -122.344342,
    "neighborhood": "Fremont",
    "neighborhoodGroup": "Lake Union",
    "units": "E9"
  },
  {
    "id_str": "F210016787",
    "created_at": "2/19/2021 6:58:03 PM",
    "timestamp": 1613789883000,
    "description": "Aid Response",
    "address": "34th Ave / E Union St",
    "active": false,
    "unitCount": 1,
    "severity": 0,
    "lat": 47.612888,
    "long": -122.289306,
    "neighborhood": "Madrona/Leschi",
    "neighborhoodGroup": "Central",
    "units": "A25"
  },
  {
    "id_str": "F210016786",
    "created_at": "2/19/2021 6:56:34 PM",
    "timestamp": 1613789794000,
    "description": "Aid Response",
    "address": "2101 S Washington St",
    "active": false,
    "unitCount": 1,
    "severity": 0,
    "lat": 47.600832,
    "long": -122.305011,
    "neighborhood": "Judkins Park",
    "neighborhoodGroup": "Central",
    "units": "E6"
  },
  {
    "id_str": "F210016785",
    "created_at": "2/19/2021 6:54:39 PM",
    "timestamp": 1613789679000,
    "description": "Aid Response",
    "address": "Denny Way / 5th Ave N",
    "active": false,
    "unitCount": 1,
    "severity": 0,
    "lat": 47.618571,
    "long": -122.347621,
    "neighborhood": "Cascade/Eastlake",
    "neighborhoodGroup": "Lake Union",
    "units": "A4"
  },
  {
    "id_str": "F210016784",
    "created_at": "2/19/2021 6:52:55 PM",
    "timestamp": 1613789575000,
    "description": "Illegal Burn",
    "address": "11234 Cornell Ave S",
    "active": false,
    "unitCount": 1,
    "severity": 0,
    "lat": 47.502656,
    "long": -122.241266,
    "units": "E33"
  },
  {
    "id_str": "F210016781",
    "created_at": "2/19/2021 6:41:08 PM",
    "timestamp": 1613788868000,
    "description": "Aid Response",
    "address": "13575 Linden Ave N",
    "active": false,
    "unitCount": 2,
    "severity": 0,
    "lat": 47.727201,
    "long": -122.347718,
    "neighborhood": "Broadview/Bitter Lake",
    "neighborhoodGroup": "Northwest",
    "units": "E24 E31"
  },
  {
    "id_str": "F210016780",
    "created_at": "2/19/2021 6:39:05 PM",
    "timestamp": 1613788745000,
    "description": "Car Fire",
    "address": "Beacon Ave S / S Eddy St",
    "active": false,
    "unitCount": 1,
    "severity": 0,
    "lat": 47.545345,
    "long": -122.30033,
    "neighborhood": "South Beacon Hill/NewHolly",
    "neighborhoodGroup": "Greater Duwamish",
    "units": "E27"
  },
  {
    "id_str": "F210016779",
    "created_at": "2/19/2021 6:32:15 PM",
    "timestamp": 1613788335000,
    "description": "Aid Response",
    "address": "2615 Sw Barton St",
    "active": false,
    "unitCount": 1,
    "severity": 0,
    "lat": 47.521023,
    "long": -122.366095,
    "neighborhood": "Roxhill/Westwood",
    "neighborhoodGroup": "Delridge Neighborhoods",
    "units": "E11"
  },
  {
    "id_str": "F210016778",
    "created_at": "2/19/2021 6:31:59 PM",
    "timestamp": 1613788319000,
    "description": "Aid Response",
    "address": "12507 Greenwood Ave N",
    "active": false,
    "unitCount": 1,
    "severity": 0,
    "lat": 47.719656,
    "long": -122.355539,
    "neighborhood": "Broadview/Bitter Lake",
    "neighborhoodGroup": "Northwest",
    "units": "A31"
  },
  {
    "id_str": "F210016777",
    "created_at": "2/19/2021 6:29:07 PM",
    "timestamp": 1613788147000,
    "description": "Aid Response",
    "address": "222 Pike St",
    "active": false,
    "unitCount": 1,
    "severity": 0,
    "lat": 47.609389,
    "long": -122.338655,
    "neighborhood": "Downtown Commercial Core",
    "neighborhoodGroup": "Downtown",
    "units": "E5"
  },
  {
    "id_str": "F210016776",
    "created_at": "2/19/2021 6:27:40 PM",
    "timestamp": 1613788060000,
    "description": "Advised Incident",
    "address": "Cherry St / 3rd Ave",
    "active": false,
    "unitCount": 3,
    "severity": 0,
    "units": "A10 E10 M32"
  },
  {
    "id_str": "F210016774",
    "created_at": "2/19/2021 6:24:57 PM",
    "timestamp": 1613787897000,
    "description": "Aid Response",
    "address": "4218 Roosevelt Way Ne",
    "active": false,
    "unitCount": 1,
    "severity": 0,
    "lat": 47.658777,
    "long": -122.31777,
    "neighborhood": "Wallingford",
    "neighborhoodGroup": "Lake Union",
    "units": "E17"
  },
  {
    "id_str": "F210016772",
    "created_at": "2/19/2021 6:16:02 PM",
    "timestamp": 1613787362000,
    "description": "Aid Response",
    "address": "3838 S Edmunds St",
    "active": false,
    "unitCount": 1,
    "severity": 0,
    "lat": 47.558654,
    "long": -122.284677,
    "neighborhood": "Columbia City",
    "neighborhoodGroup": "Southeast",
    "units": "E28"
  },
  {
    "id_str": "F210016769",
    "created_at": "2/19/2021 6:07:24 PM",
    "timestamp": 1613786844000,
    "description": "Medic Response",
    "address": "8022 15th Ave Nw",
    "active": false,
    "unitCount": 2,
    "severity": 0,
    "lat": 47.687008,
    "long": -122.376793,
    "neighborhood": "Whittier Heights",
    "neighborhoodGroup": "Ballard",
    "units": "E35 M17"
  },
  {
    "id_str": "F210016770",
    "created_at": "2/19/2021 6:07:14 PM",
    "timestamp": 1613786834000,
    "description": "Medic Response",
    "address": "2400 4th Ave",
    "active": false,
    "unitCount": 2,
    "severity": 0,
    "lat": 47.616138,
    "long": -122.345235,
    "neighborhood": "Cascade/Eastlake",
    "neighborhoodGroup": "Lake Union",
    "units": "A4 M1"
  },
  {
    "id_str": "F210016767",
    "created_at": "2/19/2021 6:06:26 PM",
    "timestamp": 1613786786000,
    "description": "Aid Response",
    "address": "4840 Terrace Dr Ne",
    "active": false,
    "unitCount": 1,
    "severity": 0,
    "lat": 47.663756,
    "long": -122.285552,
    "neighborhood": "Ravenna/Bryant",
    "neighborhoodGroup": "Northeast",
    "units": "E38"
  },
  {
    "id_str": "F210016766",
    "created_at": "2/19/2021 6:02:14 PM",
    "timestamp": 1613786534000,
    "description": "Medic Response",
    "address": "3015 Nw Market St",
    "active": false,
    "unitCount": 2,
    "severity": 0,
    "lat": 47.668647,
    "long": -122.394671,
    "neighborhood": "Sunset Hill/Loyal Heights",
    "neighborhoodGroup": "Ballard",
    "units": "E18 M18"
  },
  {
    "id_str": "F210016765",
    "created_at": "2/19/2021 5:54:20 PM",
    "timestamp": 1613786060000,
    "description": "Aid Response",
    "address": "12509 27th Ave Ne",
    "active": false,
    "unitCount": 2,
    "severity": 0,
    "lat": 47.719374,
    "long": -122.29909,
    "neighborhood": "Olympic Hills/Victory Heights",
    "neighborhoodGroup": "North",
    "units": "E31 M17"
  },
  {
    "id_str": "F210016763",
    "created_at": "2/19/2021 5:33:46 PM",
    "timestamp": 1613784826000,
    "description": "Medic Response",
    "address": "318 2nd Ave Et S",
    "active": false,
    "unitCount": 3,
    "severity": 0,
    "lat": 47.600194,
    "long": -122.330541,
    "neighborhood": "Pioneer Square/International District",
    "neighborhoodGroup": "Downtown",
    "units": "A5 L1 M10"
  },
  {
    "id_str": "F210016762",
    "created_at": "2/19/2021 5:24:53 PM",
    "timestamp": 1613784293000,
    "description": "Aid Response",
    "address": "1827 15TH AVE W",
    "active": false,
    "unitCount": 1,
    "severity": 0,
    "lat": 47.635125,
    "long": -122.376135,
    "neighborhood": "Interbay",
    "neighborhoodGroup": "Magnolia/Queen Anne",
    "units": "E20"
  },
  {
    "id_str": "F210016761",
    "created_at": "2/19/2021 5:19:41 PM",
    "timestamp": 1613783981000,
    "description": "Aid Response",
    "address": "4215 Ne 105th St",
    "active": false,
    "unitCount": 1,
    "severity": 0,
    "lat": 47.70468,
    "long": -122.282165,
    "neighborhood": "Cedar Park/Meadowbrook",
    "neighborhoodGroup": "North",
    "units": "E40"
  },
  {
    "id_str": "F210016760",
    "created_at": "2/19/2021 5:09:13 PM",
    "timestamp": 1613783353000,
    "description": "Aid Response",
    "address": "3266 SW AVALON WAY",
    "active": false,
    "unitCount": 1,
    "severity": 0,
    "lat": 47.56422,
    "long": -122.373106,
    "neighborhood": "North Delridge",
    "neighborhoodGroup": "Delridge Neighborhoods",
    "units": "E32"
  },
  {
    "id_str": "F210016759",
    "created_at": "2/19/2021 5:04:56 PM",
    "timestamp": 1613783096000,
    "description": "Medic Response, 6 per Rule",
    "address": "NB I5 EXP AT 50",
    "active": false,
    "unitCount": 6,
    "severity": 1,
    "lat": 47.656044,
    "long": -122.322369,
    "neighborhood": "Wallingford",
    "neighborhoodGroup": "Lake Union",
    "units": "A10 E10 E22 E5 M1 M44"
  },
  {
    "id_str": "F210016758",
    "created_at": "2/19/2021 5:03:41 PM",
    "timestamp": 1613783021000,
    "description": "Aid Response",
    "address": "329 23RD AVE S",
    "active": false,
    "unitCount": 2,
    "severity": 0,
    "lat": 47.599276,
    "long": -122.303156,
    "neighborhood": "Judkins Park",
    "neighborhoodGroup": "Central",
    "units": "CHAP5 E6"
  },
  {
    "id_str": "F210016757",
    "created_at": "2/19/2021 5:03:37 PM",
    "timestamp": 1613783017000,
    "description": "Medic Response",
    "address": "4426 37th Ave S",
    "active": false,
    "unitCount": 2,
    "severity": 0,
    "lat": 47.563772,
    "long": -122.28605,
    "neighborhood": "Columbia City",
    "neighborhoodGroup": "Southeast",
    "units": "E28 M28"
  },
  {
    "id_str": "F210016754",
    "created_at": "2/19/2021 4:51:45 PM",
    "timestamp": 1613782305000,
    "description": "MVI Freeway",
    "address": "Nb I5 At Lake City",
    "active": false,
    "unitCount": 3,
    "severity": 0,
    "lat": 47.67769,
    "long": -122.320387,
    "neighborhood": "Green Lake",
    "neighborhoodGroup": "Northwest",
    "units": "A25 E17 E22"
  },
  {
    "id_str": "F210016752",
    "created_at": "2/19/2021 4:45:46 PM",
    "timestamp": 1613781946000,
    "description": "Aid Response",
    "address": "2700 Ne 123rd St",
    "active": false,
    "unitCount": 1,
    "severity": 0,
    "lat": 47.717456,
    "long": -122.298945,
    "neighborhood": "Olympic Hills/Victory Heights",
    "neighborhoodGroup": "North",
    "units": "E31"
  },
  {
    "id_str": "F210016750",
    "created_at": "2/19/2021 4:33:00 PM",
    "timestamp": 1613781180000,
    "description": "Medic Response, 7 per Rule",
    "address": "13202 Bitter Pl N",
    "active": false,
    "unitCount": 5,
    "severity": 1,
    "lat": 47.725053,
    "long": -122.352505,
    "neighborhood": "Broadview/Bitter Lake",
    "neighborhoodGroup": "Northwest",
    "units": "CHAP5 E24 E31 E35 M31"
  },
  {
    "id_str": "F210016749",
    "created_at": "2/19/2021 4:32:23 PM",
    "timestamp": 1613781143000,
    "description": "Aid Response",
    "address": "4th Ave S / S Findlay St",
    "active": false,
    "unitCount": 1,
    "severity": 0,
    "lat": 47.552688,
    "long": -122.329558,
    "neighborhood": "Georgetown",
    "neighborhoodGroup": "Greater Duwamish",
    "units": "E27"
  },
  {
    "id_str": "F210016748",
    "created_at": "2/19/2021 4:30:19 PM",
    "timestamp": 1613781019000,
    "description": "Low Acuity Response",
    "address": "6039 35th Ave Nw",
    "active": false,
    "unitCount": 1,
    "severity": 0,
    "lat": 47.672668,
    "long": -122.401789,
    "neighborhood": "Sunset Hill/Loyal Heights",
    "neighborhoodGroup": "Ballard",
    "units": "E18"
  },
  {
    "id_str": "F210016747",
    "created_at": "2/19/2021 4:23:38 PM",
    "timestamp": 1613780618000,
    "description": "Aid Response",
    "address": "2215 1st Ave",
    "active": false,
    "unitCount": 1,
    "severity": 0,
    "lat": 47.612716,
    "long": -122.345399,
    "neighborhood": "Belltown",
    "neighborhoodGroup": "Downtown",
    "units": "A2"
  },
  {
    "id_str": "F210016746",
    "created_at": "2/19/2021 4:21:35 PM",
    "timestamp": 1613780495000,
    "description": "Aid Response",
    "address": "8606 35th Ave Ne",
    "active": false,
    "unitCount": 1,
    "severity": 0,
    "lat": 47.690963,
    "long": -122.290694,
    "neighborhood": "Wedgwood/View Ridge",
    "neighborhoodGroup": "Northeast",
    "units": "E40"
  },
  {
    "id_str": "F210016745",
    "created_at": "2/19/2021 4:20:31 PM",
    "timestamp": 1613780431000,
    "description": "MVI - Motor Vehicle Incident",
    "address": "Rainier Ave S / S Edmunds St",
    "active": false,
    "unitCount": 1,
    "severity": 0,
    "lat": 47.558656,
    "long": -122.285443,
    "neighborhood": "Columbia City",
    "neighborhoodGroup": "Southeast",
    "units": "E28"
  },
  {
    "id_str": "F210016744",
    "created_at": "2/19/2021 4:19:50 PM",
    "timestamp": 1613780390000,
    "description": "Aid Response",
    "address": "4116 California Ave Sw",
    "active": false,
    "unitCount": 1,
    "severity": 0,
    "lat": 47.56644,
    "long": -122.386771,
    "neighborhood": "West Seattle Junction/Genesee Hill",
    "neighborhoodGroup": "Southwest",
    "units": "E32"
  },
  {
    "id_str": "F210016743",
    "created_at": "2/19/2021 4:16:44 PM",
    "timestamp": 1613780204000,
    "description": "Aid Response",
    "address": "1811 Eastlake Ave",
    "active": false,
    "unitCount": 1,
    "severity": 0,
    "lat": 47.618002,
    "long": -122.329182,
    "neighborhood": "Cascade/Eastlake",
    "neighborhoodGroup": "Lake Union",
    "units": "A4"
  },
  {
    "id_str": "F210016742",
    "created_at": "2/19/2021 4:14:50 PM",
    "timestamp": 1613780090000,
    "description": "Aid Response",
    "address": "12739 28th Ave Ne",
    "active": false,
    "unitCount": 2,
    "severity": 0,
    "lat": 47.722208,
    "long": -122.297729,
    "neighborhood": "Olympic Hills/Victory Heights",
    "neighborhoodGroup": "North",
    "units": "A31 E31"
  },
  {
    "id_str": "F210016741",
    "created_at": "2/19/2021 4:01:27 PM",
    "timestamp": 1613779287000,
    "description": "Rubbish Fire",
    "address": "216 Stewart St",
    "active": false,
    "unitCount": 1,
    "severity": 0,
    "lat": 47.611073,
    "long": -122.340312,
    "neighborhood": "Belltown",
    "neighborhoodGroup": "Downtown",
    "units": "E5"
  }
]