[
  {
    "id_str": "F210011243",
    "created_at": "2/3/2021 3:55:54 PM",
    "timestamp": 1612396554000,
    "description": "Medic Response",
    "address": "2028 3rd Ave",
    "active": false,
    "unitCount": 3,
    "severity": 0,
    "lat": 47.61261,
    "long": -122.34125,
    "neighborhood": "Cascade/Eastlake",
    "neighborhoodGroup": "Lake Union",
    "units": "A2 L12 M10"
  },
  {
    "id_str": "F210011240",
    "created_at": "2/3/2021 3:47:49 PM",
    "timestamp": 1612396069000,
    "description": "Aid Response",
    "address": "3rd Ave / Cedar St",
    "active": false,
    "unitCount": 1,
    "severity": 0,
    "lat": 47.617131,
    "long": -122.348898,
    "neighborhood": "Cascade/Eastlake",
    "neighborhoodGroup": "Lake Union",
    "units": "A4"
  },
  {
    "id_str": "F210011238",
    "created_at": "2/3/2021 3:41:03 PM",
    "timestamp": 1612395663000,
    "description": "Aid Response",
    "address": "9414 10th Ave Sw",
    "active": false,
    "unitCount": 1,
    "severity": 0,
    "lat": 47.518748,
    "long": -122.347979,
    "neighborhood": "Highland Park",
    "neighborhoodGroup": "Delridge Neighborhoods",
    "units": "L13"
  },
  {
    "id_str": "F210011237",
    "created_at": "2/3/2021 3:39:39 PM",
    "timestamp": 1612395579000,
    "description": "Auto Fire Alarm",
    "address": "900 University St",
    "active": false,
    "unitCount": 2,
    "severity": 0,
    "lat": 47.61055,
    "long": -122.329318,
    "neighborhood": "First Hill",
    "neighborhoodGroup": "East",
    "units": "E25 L10"
  },
  {
    "id_str": "F210011236",
    "created_at": "2/3/2021 3:30:01 PM",
    "timestamp": 1612395001000,
    "description": "Auto Fire Alarm",
    "address": "80 Stewart St",
    "active": false,
    "unitCount": 2,
    "severity": 0,
    "lat": 47.609799,
    "long": -122.34195,
    "neighborhood": "Downtown Commercial Core",
    "neighborhoodGroup": "Downtown",
    "units": "E5 L4"
  },
  {
    "id_str": "F210011234",
    "created_at": "2/3/2021 3:10:17 PM",
    "timestamp": 1612393817000,
    "description": "Electrical Problem",
    "address": "7101 62nd Av Ne",
    "active": false,
    "unitCount": 1,
    "severity": 0,
    "lat": 47.679973,
    "long": -122.262231,
    "neighborhood": "Laurelhurst/Sand Point",
    "neighborhoodGroup": "Northeast",
    "units": "E38"
  },
  {
    "id_str": "F210011233",
    "created_at": "2/3/2021 3:09:34 PM",
    "timestamp": 1612393774000,
    "description": "Medic Response",
    "address": "4550 38th Av Sw",
    "active": false,
    "unitCount": 2,
    "severity": 0,
    "lat": 47.56207,
    "long": -122.380088,
    "neighborhood": "West Seattle Junction/Genesee Hill",
    "neighborhoodGroup": "Southwest",
    "units": "E32 M32"
  },
  {
    "id_str": "F210011232",
    "created_at": "2/3/2021 3:04:38 PM",
    "timestamp": 1612393478000,
    "description": "Aid Response",
    "address": "9675 48th Ave Sw",
    "active": false,
    "unitCount": 1,
    "severity": 0,
    "lat": 47.516117,
    "long": -122.394227,
    "neighborhood": "Arbor Heights",
    "neighborhoodGroup": "Southwest",
    "units": "E37"
  },
  {
    "id_str": "F210011230",
    "created_at": "2/3/2021 2:44:56 PM",
    "timestamp": 1612392296000,
    "description": "Aid Response",
    "address": "8025 25th Ave Nw",
    "active": false,
    "unitCount": 1,
    "severity": 0,
    "lat": 47.686972,
    "long": -122.388712,
    "neighborhood": "Sunset Hill/Loyal Heights",
    "neighborhoodGroup": "Ballard",
    "units": "E18"
  },
  {
    "id_str": "F210011229",
    "created_at": "2/3/2021 2:43:47 PM",
    "timestamp": 1612392227000,
    "description": "Medic Response",
    "address": "2611 S Dearborn St",
    "active": false,
    "unitCount": 3,
    "severity": 0,
    "lat": 47.595541,
    "long": -122.298643,
    "neighborhood": "Madrona/Leschi",
    "neighborhoodGroup": "Central",
    "units": "A10 E6 M1"
  },
  {
    "id_str": "F210011228",
    "created_at": "2/3/2021 2:37:35 PM",
    "timestamp": 1612391855000,
    "description": "Aid Response",
    "address": "14th Ave / E Pine St",
    "active": false,
    "unitCount": 1,
    "severity": 0,
    "lat": 47.615282,
    "long": -122.314242,
    "neighborhood": "Capitol Hill",
    "neighborhoodGroup": "East",
    "units": "L3"
  },
  {
    "id_str": "F210011227",
    "created_at": "2/3/2021 2:31:51 PM",
    "timestamp": 1612391511000,
    "description": "Medic Response",
    "address": "Melrose Ave E / E Mercer St",
    "active": false,
    "unitCount": 3,
    "severity": 0,
    "lat": 47.624282,
    "long": -122.327881,
    "neighborhood": "Capitol Hill",
    "neighborhoodGroup": "East",
    "units": "A25 H1 M10"
  },
  {
    "id_str": "F210011224",
    "created_at": "2/3/2021 2:26:41 PM",
    "timestamp": 1612391201000,
    "description": "Low Acuity Response",
    "address": "1118 5th Av",
    "active": false,
    "unitCount": 2,
    "severity": 0,
    "lat": 47.60739,
    "long": -122.332564,
    "neighborhood": "Downtown Commercial Core",
    "neighborhoodGroup": "Downtown",
    "units": "A4 E2"
  },
  {
    "id_str": "F210011223",
    "created_at": "2/3/2021 2:26:09 PM",
    "timestamp": 1612391169000,
    "description": "Medic Response",
    "address": "6715 3rd Ave Nw",
    "active": false,
    "unitCount": 3,
    "severity": 0,
    "lat": 47.677862,
    "long": -122.360476,
    "neighborhood": "Greenwood/Phinney Ridge",
    "neighborhoodGroup": "Northwest",
    "units": "E21 M1 M31"
  },
  {
    "id_str": "F210011222",
    "created_at": "2/3/2021 2:25:11 PM",
    "timestamp": 1612391111000,
    "description": "Medic Response",
    "address": "3016 12th Ave W",
    "active": false,
    "unitCount": 2,
    "severity": 0,
    "lat": 47.646827,
    "long": -122.372566,
    "neighborhood": "Queen Anne",
    "neighborhoodGroup": "Magnolia/Queen Anne",
    "units": "E20 M17"
  },
  {
    "id_str": "F210011221",
    "created_at": "2/3/2021 2:25:05 PM",
    "timestamp": 1612391105000,
    "description": "Aid Response",
    "address": "21st Ave / E James St",
    "active": false,
    "unitCount": 1,
    "severity": 0,
    "lat": 47.607169,
    "long": -122.305028,
    "neighborhood": "Central Area/Squire Park",
    "neighborhoodGroup": "Central",
    "units": "E6"
  },
  {
    "id_str": "F210011220",
    "created_at": "2/3/2021 2:21:43 PM",
    "timestamp": 1612390903000,
    "description": "Aid Response",
    "address": "720 3rd Av",
    "active": false,
    "unitCount": 1,
    "severity": 0,
    "lat": 47.603622,
    "long": -122.332188,
    "neighborhood": "Downtown Commercial Core",
    "neighborhoodGroup": "Downtown",
    "units": "A5"
  },
  {
    "id_str": "F210011218",
    "created_at": "2/3/2021 2:14:39 PM",
    "timestamp": 1612390479000,
    "description": "Aid Response",
    "address": "1218 Ne Campus Pkwy",
    "active": false,
    "unitCount": 1,
    "severity": 0,
    "lat": 47.656233,
    "long": -122.315363,
    "neighborhood": "University District",
    "neighborhoodGroup": "Northeast",
    "units": "E31"
  },
  {
    "id_str": "F210011217",
    "created_at": "2/3/2021 2:14:35 PM",
    "timestamp": 1612390475000,
    "description": "Natural Gas Odor",
    "address": "3930 Leary Way Nw",
    "active": false,
    "unitCount": 1,
    "severity": 0,
    "lat": 47.65475,
    "long": -122.360649,
    "neighborhood": "Fremont",
    "neighborhoodGroup": "Lake Union",
    "units": "L8"
  },
  {
    "id_str": "F210011216",
    "created_at": "2/3/2021 2:11:24 PM",
    "timestamp": 1612390284000,
    "description": "Aid Response Yellow",
    "address": "3716 Ne 75th St",
    "active": false,
    "unitCount": 1,
    "severity": 0,
    "lat": 47.683046,
    "long": -122.288274,
    "neighborhood": "Wedgwood/View Ridge",
    "neighborhoodGroup": "Northeast",
    "units": "E40"
  },
  {
    "id_str": "F210011214",
    "created_at": "2/3/2021 2:04:54 PM",
    "timestamp": 1612389894000,
    "description": "Aid Response",
    "address": "825 Eastlake Av E",
    "active": false,
    "unitCount": 1,
    "severity": 0,
    "lat": 47.626215,
    "long": -122.329199,
    "neighborhood": "Cascade/Eastlake",
    "neighborhoodGroup": "Lake Union",
    "units": "A25"
  },
  {
    "id_str": "F210011213",
    "created_at": "2/3/2021 2:03:12 PM",
    "timestamp": 1612389792000,
    "description": "AFA4 - Auto Alarm 2 + 1 + 1",
    "address": "701 5th Av",
    "active": false,
    "unitCount": 4,
    "severity": 0,
    "lat": 47.604413,
    "long": -122.329842,
    "neighborhood": "First Hill",
    "neighborhoodGroup": "East",
    "units": "B2 E10 E5 L1"
  },
  {
    "id_str": "F210011212",
    "created_at": "2/3/2021 1:58:21 PM",
    "timestamp": 1612389501000,
    "description": "MVI - Motor Vehicle Incident",
    "address": "Nb I5 Cd At I90",
    "active": false,
    "unitCount": 4,
    "severity": 0,
    "lat": 47.589961,
    "long": -122.320533,
    "neighborhood": "Duwamish/SODO",
    "neighborhoodGroup": "Greater Duwamish",
    "units": "A10 E13 E27 E30"
  },
  {
    "id_str": "F210011211",
    "created_at": "2/3/2021 1:57:39 PM",
    "timestamp": 1612389459000,
    "description": "Medic Response, 7 per Rule",
    "address": "10546 Palatine Ave N",
    "active": false,
    "unitCount": 3,
    "severity": 0,
    "lat": 47.705505,
    "long": -122.356785,
    "neighborhood": "North Beach/Blue Ridge",
    "neighborhoodGroup": "Ballard",
    "units": "E24 E35 M18"
  },
  {
    "id_str": "F210011209",
    "created_at": "2/3/2021 1:52:43 PM",
    "timestamp": 1612389163000,
    "description": "Aid Response",
    "address": "11030 5th Av Ne",
    "active": false,
    "unitCount": 1,
    "severity": 0,
    "lat": 47.709488,
    "long": -122.323301,
    "neighborhood": "Northgate/Maple Leaf",
    "neighborhoodGroup": "North",
    "units": "A31"
  },
  {
    "id_str": "F210011210",
    "created_at": "2/3/2021 1:52:05 PM",
    "timestamp": 1612389125000,
    "description": "Aid Response",
    "address": "Nb I5 Fr Cherry",
    "active": false,
    "unitCount": 3,
    "severity": 0,
    "lat": 47.605266,
    "long": -122.327801,
    "neighborhood": "First Hill",
    "neighborhoodGroup": "East",
    "units": "A25 E10 E5"
  },
  {
    "id_str": "F210011208",
    "created_at": "2/3/2021 1:50:04 PM",
    "timestamp": 1612389004000,
    "description": "Aid Response",
    "address": "Airport Way S / S Holgate St",
    "active": false,
    "unitCount": 1,
    "severity": 0,
    "lat": 47.58639,
    "long": -122.321393,
    "neighborhood": "Duwamish/SODO",
    "neighborhoodGroup": "Greater Duwamish",
    "units": "L3"
  },
  {
    "id_str": "F210011207",
    "created_at": "2/3/2021 1:46:27 PM",
    "timestamp": 1612388787000,
    "description": "Aid Response",
    "address": "Broadway / E Pine St",
    "active": false,
    "unitCount": 1,
    "severity": 0,
    "lat": 47.615235,
    "long": -122.320799,
    "neighborhood": "Capitol Hill",
    "neighborhoodGroup": "East",
    "units": "A25"
  },
  {
    "id_str": "F210011205",
    "created_at": "2/3/2021 1:42:06 PM",
    "timestamp": 1612388526000,
    "description": "Aid Response",
    "address": "11034 Lake City Way Ne",
    "active": false,
    "unitCount": 1,
    "severity": 0,
    "lat": 47.708658,
    "long": -122.301284,
    "neighborhood": "Olympic Hills/Victory Heights",
    "neighborhoodGroup": "North",
    "units": "E39"
  },
  {
    "id_str": "F210011204",
    "created_at": "2/3/2021 1:35:50 PM",
    "timestamp": 1612388150000,
    "description": "Aid Response",
    "address": "1000 Lenora St",
    "active": false,
    "unitCount": 2,
    "severity": 0,
    "lat": 47.617818,
    "long": -122.336177,
    "neighborhood": "Cascade/Eastlake",
    "neighborhoodGroup": "Lake Union",
    "units": "A2 A4"
  },
  {
    "id_str": "F210011202",
    "created_at": "2/3/2021 1:30:09 PM",
    "timestamp": 1612387809000,
    "description": "MVI - Motor Vehicle Incident",
    "address": "5020 Rainier Av S",
    "active": false,
    "unitCount": 1,
    "severity": 0,
    "lat": 47.556776,
    "long": -122.284439,
    "neighborhood": "Columbia City",
    "neighborhoodGroup": "Southeast",
    "units": "E28"
  },
  {
    "id_str": "F210011201",
    "created_at": "2/3/2021 1:26:02 PM",
    "timestamp": 1612387562000,
    "description": "4RED - 2 + 1 + 1",
    "address": "1606 39th Ave",
    "active": false,
    "unitCount": 4,
    "severity": 0,
    "lat": 47.615649,
    "long": -122.283228,
    "neighborhood": "Madrona/Leschi",
    "neighborhoodGroup": "Central",
    "units": "B2 E34 E6 L10"
  },
  {
    "id_str": "F210011200",
    "created_at": "2/3/2021 1:22:54 PM",
    "timestamp": 1612387374000,
    "description": "Auto Fire Alarm",
    "address": "2034 Nw 56th St",
    "active": false,
    "unitCount": 2,
    "severity": 0,
    "lat": 47.669448,
    "long": -122.382563,
    "neighborhood": "Ballard",
    "neighborhoodGroup": "Ballard",
    "units": "E9 L8"
  },
  {
    "id_str": "F210011199",
    "created_at": "2/3/2021 1:21:48 PM",
    "timestamp": 1612387308000,
    "description": "Illegal Burn",
    "address": "N 125th St / Stone Ave N",
    "active": false,
    "unitCount": 1,
    "severity": 0,
    "lat": 47.719572,
    "long": -122.342248,
    "neighborhood": "Haller Lake",
    "neighborhoodGroup": "Northwest",
    "units": "E24"
  },
  {
    "id_str": "F210011197",
    "created_at": "2/3/2021 1:11:32 PM",
    "timestamp": 1612386692000,
    "description": "Aid Response",
    "address": "981 20th Av",
    "active": false,
    "unitCount": 1,
    "severity": 0,
    "lat": 47.610762,
    "long": -122.306295,
    "neighborhood": "Central Area/Squire Park",
    "neighborhoodGroup": "Central",
    "units": "A25"
  },
  {
    "id_str": "F210011194",
    "created_at": "2/3/2021 1:10:53 PM",
    "timestamp": 1612386653000,
    "description": "Medic Response",
    "address": "Ne Northgate Way / Roosevelt Way Ne",
    "active": false,
    "unitCount": 2,
    "severity": 0,
    "lat": 47.708561,
    "long": -122.317852,
    "neighborhood": "Northgate/Maple Leaf",
    "neighborhoodGroup": "North",
    "units": "L5 M31"
  },
  {
    "id_str": "F210011193",
    "created_at": "2/3/2021 1:10:46 PM",
    "timestamp": 1612386646000,
    "description": "Auto Fire Alarm",
    "address": "1400 6th Av",
    "active": false,
    "unitCount": 2,
    "severity": 0,
    "lat": 47.61015,
    "long": -122.333556,
    "neighborhood": "First Hill",
    "neighborhoodGroup": "East",
    "units": "E10 L1"
  },
  {
    "id_str": "F210011196",
    "created_at": "2/3/2021 1:10:32 PM",
    "timestamp": 1612386632000,
    "description": "Aid Response",
    "address": "1752 Nw Market St",
    "active": false,
    "unitCount": 1,
    "severity": 0,
    "lat": 47.668674,
    "long": -122.381214,
    "neighborhood": "Ballard",
    "neighborhoodGroup": "Ballard",
    "units": "E18"
  },
  {
    "id_str": "F210011191",
    "created_at": "2/3/2021 1:03:32 PM",
    "timestamp": 1612386212000,
    "description": "Aid Response",
    "address": "10720 15th Ave Ne",
    "active": false,
    "unitCount": 1,
    "severity": 0,
    "lat": 47.706816,
    "long": -122.31243,
    "neighborhood": "Northgate/Maple Leaf",
    "neighborhoodGroup": "North",
    "units": "E39"
  },
  {
    "id_str": "F210011189",
    "created_at": "2/3/2021 1:02:50 PM",
    "timestamp": 1612386170000,
    "description": "Aid Response",
    "address": "1208 S Concord St",
    "active": false,
    "unitCount": 1,
    "severity": 0,
    "lat": 47.523899,
    "long": -122.317313,
    "neighborhood": "South Park",
    "neighborhoodGroup": "Greater Duwamish",
    "units": "E26"
  },
  {
    "id_str": "F210011188",
    "created_at": "2/3/2021 1:01:14 PM",
    "timestamp": 1612386074000,
    "description": "Aid Response",
    "address": "2nd Ave / Union St",
    "active": false,
    "unitCount": 1,
    "severity": 0,
    "lat": 47.608292,
    "long": -122.337995,
    "neighborhood": "Downtown Commercial Core",
    "neighborhoodGroup": "Downtown",
    "units": "A2"
  },
  {
    "id_str": "F210011190",
    "created_at": "2/3/2021 1:00:47 PM",
    "timestamp": 1612386047000,
    "description": "MVI Freeway",
    "address": "NB SR509 AT 1 AVE S BRIDGE",
    "active": false,
    "unitCount": 4,
    "severity": 0,
    "lat": 47.543296,
    "long": -122.334417,
    "neighborhood": "Georgetown",
    "neighborhoodGroup": "Greater Duwamish",
    "units": "A5 E13 E28 E37"
  },
  {
    "id_str": "F210011186",
    "created_at": "2/3/2021 12:57:31 PM",
    "timestamp": 1612385851000,
    "description": "Aid Response",
    "address": "219 Pontius Av N",
    "active": false,
    "unitCount": 2,
    "severity": 0,
    "lat": 47.619877,
    "long": -122.331698,
    "neighborhood": "Cascade/Eastlake",
    "neighborhoodGroup": "Lake Union",
    "units": "A2 A4"
  },
  {
    "id_str": "F210011185",
    "created_at": "2/3/2021 12:55:10 PM",
    "timestamp": 1612385710000,
    "description": "Aid Response",
    "address": "950 17th Ave E",
    "active": false,
    "unitCount": 1,
    "severity": 0,
    "lat": 47.627315,
    "long": -122.309959,
    "neighborhood": "Miller Park",
    "neighborhoodGroup": "East",
    "units": "E25"
  },
  {
    "id_str": "F210011182",
    "created_at": "2/3/2021 12:35:07 PM",
    "timestamp": 1612384507000,
    "description": "Medic Response",
    "address": "613 19th Av E",
    "active": false,
    "unitCount": 2,
    "severity": 0,
    "lat": 47.624519,
    "long": -122.307291,
    "neighborhood": "Miller Park",
    "neighborhoodGroup": "East",
    "units": "A25 M17"
  },
  {
    "id_str": "F210011181",
    "created_at": "2/3/2021 12:33:36 PM",
    "timestamp": 1612384416000,
    "description": "Aid Response",
    "address": "Denny Way / 2nd Ave N",
    "active": false,
    "unitCount": 1,
    "severity": 0,
    "lat": 47.618592,
    "long": -122.352839,
    "neighborhood": "Belltown",
    "neighborhoodGroup": "Downtown",
    "units": "A4"
  },
  {
    "id_str": "F210011180",
    "created_at": "2/3/2021 12:32:41 PM",
    "timestamp": 1612384361000,
    "description": "Auto Fire Alarm",
    "address": "1400 6th Av",
    "active": false,
    "unitCount": 2,
    "severity": 0,
    "lat": 47.61015,
    "long": -122.333556,
    "neighborhood": "First Hill",
    "neighborhoodGroup": "East",
    "units": "E5 L4"
  },
  {
    "id_str": "F210011179",
    "created_at": "2/3/2021 12:25:58 PM",
    "timestamp": 1612383958000,
    "description": "Rubbish Fire",
    "address": "13800 Linden Ave N",
    "active": false,
    "unitCount": 1,
    "severity": 0,
    "lat": 47.729593,
    "long": -122.347747,
    "neighborhood": "Broadview/Bitter Lake",
    "neighborhoodGroup": "Northwest",
    "units": "E24"
  },
  {
    "id_str": "F210011178",
    "created_at": "2/3/2021 12:14:17 PM",
    "timestamp": 1612383257000,
    "description": "Aid Response",
    "address": "3rd Ave / Seneca St",
    "active": false,
    "unitCount": 1,
    "severity": 0,
    "lat": 47.60705,
    "long": -122.335324,
    "neighborhood": "Downtown Commercial Core",
    "neighborhoodGroup": "Downtown",
    "units": "A5"
  },
  {
    "id_str": "F210011176",
    "created_at": "2/3/2021 12:07:00 PM",
    "timestamp": 1612382820000,
    "description": "Rescue Rope",
    "address": "1120 Denny Way",
    "active": false,
    "unitCount": 13,
    "severity": 2,
    "lat": 47.618522,
    "long": -122.335371,
    "neighborhood": "Cascade/Eastlake",
    "neighborhoodGroup": "Lake Union",
    "units": "A2 A4 B2 B6 E2 E25 E8 L10 L4 M10 M44 R80 SAFT2"
  },
  {
    "id_str": "F210011175",
    "created_at": "2/3/2021 12:06:25 PM",
    "timestamp": 1612382785000,
    "description": "Aid Response",
    "address": "2312 Nw 98th St",
    "active": false,
    "unitCount": 1,
    "severity": 0,
    "lat": 47.700463,
    "long": -122.385547,
    "neighborhood": "North Beach/Blue Ridge",
    "neighborhoodGroup": "Ballard",
    "units": "E35"
  },
  {
    "id_str": "F210011172",
    "created_at": "2/3/2021 11:52:21 AM",
    "timestamp": 1612381941000,
    "description": "Auto Fire Alarm",
    "address": "921 Aurora Av N",
    "active": false,
    "unitCount": 2,
    "severity": 0,
    "lat": 47.627826,
    "long": -122.343602,
    "neighborhood": "Queen Anne",
    "neighborhoodGroup": "Magnolia/Queen Anne",
    "units": "E8 L6"
  },
  {
    "id_str": "F210011171",
    "created_at": "2/3/2021 11:50:43 AM",
    "timestamp": 1612381843000,
    "description": "Aid Response",
    "address": "4601 PHINNEY AV N",
    "active": false,
    "unitCount": 1,
    "severity": 0,
    "lat": 47.662141,
    "long": -122.353981,
    "neighborhood": "Fremont",
    "neighborhoodGroup": "Lake Union",
    "units": "E9"
  },
  {
    "id_str": "F210011169",
    "created_at": "2/3/2021 11:37:22 AM",
    "timestamp": 1612381042000,
    "description": "Low Acuity Response",
    "address": "3501 Rainier Av S",
    "active": false,
    "unitCount": 1,
    "severity": 0,
    "lat": 47.571853,
    "long": -122.293193,
    "neighborhood": "Columbia City",
    "neighborhoodGroup": "Southeast",
    "units": "H1"
  },
  {
    "id_str": "F210011168",
    "created_at": "2/3/2021 11:31:30 AM",
    "timestamp": 1612380690000,
    "description": "Illegal Burn",
    "address": "1902 S Main St",
    "active": false,
    "unitCount": 1,
    "severity": 0,
    "lat": 47.599999,
    "long": -122.307634,
    "neighborhood": "Judkins Park",
    "neighborhoodGroup": "Central",
    "units": "E6"
  },
  {
    "id_str": "F210011167",
    "created_at": "2/3/2021 11:31:23 AM",
    "timestamp": 1612380683000,
    "description": "Aid Response",
    "address": "13010 Aurora Ave N",
    "active": false,
    "unitCount": 1,
    "severity": 0,
    "lat": 47.723278,
    "long": -122.344978,
    "neighborhood": "Haller Lake",
    "neighborhoodGroup": "Northwest",
    "units": "E24"
  },
  {
    "id_str": "F210011165",
    "created_at": "2/3/2021 11:24:23 AM",
    "timestamp": 1612380263000,
    "description": "Aid Response",
    "address": "6940 62nd Av Ne",
    "active": false,
    "unitCount": 1,
    "severity": 0,
    "lat": 47.678821,
    "long": -122.262227,
    "neighborhood": "Laurelhurst/Sand Point",
    "neighborhoodGroup": "Northeast",
    "units": "E38"
  },
  {
    "id_str": "F210011163",
    "created_at": "2/3/2021 11:11:43 AM",
    "timestamp": 1612379503000,
    "description": "Medic Response",
    "address": "523 Broadway E",
    "active": false,
    "unitCount": 2,
    "severity": 0,
    "lat": 47.623385,
    "long": -122.320928,
    "neighborhood": "Capitol Hill",
    "neighborhoodGroup": "East",
    "units": "A25 M1"
  },
  {
    "id_str": "F210011162",
    "created_at": "2/3/2021 11:08:57 AM",
    "timestamp": 1612379337000,
    "description": "Aid Response",
    "address": "220 2nd Av S",
    "active": false,
    "unitCount": 2,
    "severity": 0,
    "lat": 47.600711,
    "long": -122.331572,
    "neighborhood": "Pioneer Square/International District",
    "neighborhoodGroup": "Downtown",
    "units": "A2 A4"
  },
  {
    "id_str": "F210011161",
    "created_at": "2/3/2021 11:08:32 AM",
    "timestamp": 1612379312000,
    "description": "Low Acuity Response",
    "address": "6941 24th Ave Sw",
    "active": false,
    "unitCount": 2,
    "severity": 0,
    "lat": 47.540269,
    "long": -122.363016,
    "neighborhood": "High Point",
    "neighborhoodGroup": "Delridge Neighborhoods",
    "units": "E37 L13"
  },
  {
    "id_str": "F210011160",
    "created_at": "2/3/2021 11:02:52 AM",
    "timestamp": 1612378972000,
    "description": "Aid Response",
    "address": "1565 Nw 90th St",
    "active": false,
    "unitCount": 1,
    "severity": 0,
    "lat": 47.694684,
    "long": -122.37902,
    "neighborhood": "North Beach/Blue Ridge",
    "neighborhoodGroup": "Ballard",
    "units": "E35"
  },
  {
    "id_str": "F210011156",
    "created_at": "2/3/2021 10:57:47 AM",
    "timestamp": 1612378667000,
    "description": "Auto Fire Alarm",
    "address": "6831 62nd Av Ne",
    "active": false,
    "unitCount": 2,
    "severity": 0,
    "lat": 47.678042,
    "long": -122.262216,
    "neighborhood": "Laurelhurst/Sand Point",
    "neighborhoodGroup": "Northeast",
    "units": "E38 L9"
  },
  {
    "id_str": "F210011155",
    "created_at": "2/3/2021 10:56:32 AM",
    "timestamp": 1612378592000,
    "description": "Aid Response",
    "address": "11301 3rd Av Ne",
    "active": false,
    "unitCount": 1,
    "severity": 0,
    "lat": 47.71049,
    "long": -122.326004,
    "neighborhood": "Northgate/Maple Leaf",
    "neighborhoodGroup": "North",
    "units": "A31"
  },
  {
    "id_str": "F210011154",
    "created_at": "2/3/2021 10:54:22 AM",
    "timestamp": 1612378462000,
    "description": "Aid Response",
    "address": "130 29th Ave",
    "active": false,
    "unitCount": 1,
    "severity": 0,
    "lat": 47.602226,
    "long": -122.294932,
    "neighborhood": "Central Area/Squire Park",
    "neighborhoodGroup": "Central",
    "units": "A5"
  },
  {
    "id_str": "F210011153",
    "created_at": "2/3/2021 10:51:02 AM",
    "timestamp": 1612378262000,
    "description": "Medic Response",
    "address": "7939 7th Ave Sw",
    "active": false,
    "unitCount": 2,
    "severity": 0,
    "lat": 47.531664,
    "long": -122.344228,
    "neighborhood": "Highland Park",
    "neighborhoodGroup": "Delridge Neighborhoods",
    "units": "E11 M26"
  },
  {
    "id_str": "F210011152",
    "created_at": "2/3/2021 10:48:58 AM",
    "timestamp": 1612378138000,
    "description": "MVI - Motor Vehicle Incident",
    "address": "S Bangor St / 56th Ave S",
    "active": false,
    "unitCount": 1,
    "severity": 0,
    "lat": 47.506124,
    "long": -122.263103,
    "neighborhood": "Rainier Beach",
    "neighborhoodGroup": "Southeast",
    "units": "E33"
  },
  {
    "id_str": "F210011151",
    "created_at": "2/3/2021 10:47:34 AM",
    "timestamp": 1612378054000,
    "description": "Aid Response",
    "address": "3619 Ne 75th St",
    "active": false,
    "unitCount": 1,
    "severity": 0,
    "lat": 47.683047,
    "long": -122.289218,
    "neighborhood": "Wedgwood/View Ridge",
    "neighborhoodGroup": "Northeast",
    "units": "E40"
  },
  {
    "id_str": "F210011150",
    "created_at": "2/3/2021 10:45:30 AM",
    "timestamp": 1612377930000,
    "description": "Trans to AMR",
    "address": "1710 S Jackson St",
    "active": false,
    "unitCount": 1,
    "severity": 0,
    "lat": 47.599233,
    "long": -122.310139,
    "neighborhood": "Judkins Park",
    "neighborhoodGroup": "Central",
    "units": "A10"
  },
  {
    "id_str": "F210011147",
    "created_at": "2/3/2021 10:28:08 AM",
    "timestamp": 1612376888000,
    "description": "Aid Response Yellow",
    "address": "1500 3rd Ave",
    "active": false,
    "unitCount": 1,
    "severity": 0,
    "lat": 47.60975,
    "long": -122.337793,
    "neighborhood": "Downtown Commercial Core",
    "neighborhoodGroup": "Downtown",
    "units": "A2"
  },
  {
    "id_str": "F210011146",
    "created_at": "2/3/2021 10:16:33 AM",
    "timestamp": 1612376193000,
    "description": "Aid Response",
    "address": "1612 5th Ave N",
    "active": false,
    "unitCount": 1,
    "severity": 0,
    "lat": 47.633252,
    "long": -122.347156,
    "neighborhood": "Queen Anne",
    "neighborhoodGroup": "Magnolia/Queen Anne",
    "units": "A4"
  },
  {
    "id_str": "F210011145",
    "created_at": "2/3/2021 10:15:20 AM",
    "timestamp": 1612376120000,
    "description": "Medic Response",
    "address": "4755 Fauntleroy Way Sw",
    "active": false,
    "unitCount": 2,
    "severity": 0,
    "lat": 47.560074,
    "long": -122.381457,
    "neighborhood": "West Seattle Junction/Genesee Hill",
    "neighborhoodGroup": "Southwest",
    "units": "E32 M32"
  },
  {
    "id_str": "F210011144",
    "created_at": "2/3/2021 10:13:39 AM",
    "timestamp": 1612376019000,
    "description": "Aid Response",
    "address": "140 Broadway E",
    "active": false,
    "unitCount": 1,
    "severity": 0,
    "lat": 47.619205,
    "long": -122.320862,
    "neighborhood": "Capitol Hill",
    "neighborhoodGroup": "East",
    "units": "A25"
  },
  {
    "id_str": "F210011143",
    "created_at": "2/3/2021 10:13:21 AM",
    "timestamp": 1612376001000,
    "description": "Medic Response",
    "address": "2150 N 107th St",
    "active": false,
    "unitCount": 2,
    "severity": 0,
    "lat": 47.70684,
    "long": -122.332461,
    "neighborhood": "Northgate/Maple Leaf",
    "neighborhoodGroup": "North",
    "units": "E16 M18"
  },
  {
    "id_str": "F210011139",
    "created_at": "2/3/2021 10:12:05 AM",
    "timestamp": 1612375925000,
    "description": "Aid Response",
    "address": "3rd Ave / Madison St",
    "active": false,
    "unitCount": 1,
    "severity": 0,
    "lat": 47.605624,
    "long": -122.334019,
    "neighborhood": "Downtown Commercial Core",
    "neighborhoodGroup": "Downtown",
    "units": "A5"
  },
  {
    "id_str": "F210011140",
    "created_at": "2/3/2021 10:11:32 AM",
    "timestamp": 1612375892000,
    "description": "MVI Medic",
    "address": "Montlake Blvd Ne / Ne Pacific St",
    "active": false,
    "unitCount": 3,
    "severity": 0,
    "lat": 47.648997,
    "long": -122.304591,
    "neighborhood": "University District",
    "neighborhoodGroup": "Northeast",
    "units": "E17 E22 M17"
  },
  {
    "id_str": "F210011138",
    "created_at": "2/3/2021 10:09:11 AM",
    "timestamp": 1612375751000,
    "description": "Aid Response",
    "address": "7605 Rainier Av S",
    "active": false,
    "unitCount": 1,
    "severity": 0,
    "lat": 47.534478,
    "long": -122.269989,
    "neighborhood": "Seward Park",
    "neighborhoodGroup": "Southeast",
    "units": "E33"
  },
  {
    "id_str": "F210011136",
    "created_at": "2/3/2021 10:06:44 AM",
    "timestamp": 1612375604000,
    "description": "4RED - 2 + 1 + 1",
    "address": "622 6th Av W",
    "active": false,
    "unitCount": 4,
    "severity": 0,
    "lat": 47.625392,
    "long": -122.364454,
    "neighborhood": "Interbay",
    "neighborhoodGroup": "Magnolia/Queen Anne",
    "units": "B2 E2 E8 L6"
  },
  {
    "id_str": "F210011135",
    "created_at": "2/3/2021 10:03:13 AM",
    "timestamp": 1612375393000,
    "description": "Medic Response",
    "address": "5809 45th Ave Ne",
    "active": false,
    "unitCount": 2,
    "severity": 0,
    "lat": 47.671234,
    "long": -122.279484,
    "neighborhood": "Ravenna/Bryant",
    "neighborhoodGroup": "Northeast",
    "units": "E38 M17"
  },
  {
    "id_str": "F210011132",
    "created_at": "2/3/2021 9:59:12 AM",
    "timestamp": 1612375152000,
    "description": "MVI - Motor Vehicle Incident",
    "address": "11th Ave E / E John St",
    "active": false,
    "unitCount": 1,
    "severity": 0,
    "lat": 47.619927,
    "long": -122.318234,
    "neighborhood": "Capitol Hill",
    "neighborhoodGroup": "East",
    "units": "L10"
  },
  {
    "id_str": "F210011131",
    "created_at": "2/3/2021 9:52:23 AM",
    "timestamp": 1612374743000,
    "description": "Aid Response Yellow",
    "address": "6901 Delridge Way Sw",
    "active": false,
    "unitCount": 1,
    "severity": 0,
    "lat": 47.540874,
    "long": -122.360855,
    "neighborhood": "Riverview",
    "neighborhoodGroup": "Delridge Neighborhoods",
    "units": "E37"
  },
  {
    "id_str": "F210011130",
    "created_at": "2/3/2021 9:50:59 AM",
    "timestamp": 1612374659000,
    "description": "4RED - 2 + 1 + 1",
    "address": "28 S Brandon St",
    "active": false,
    "unitCount": 4,
    "severity": 0,
    "lat": 47.55418,
    "long": -122.336692,
    "neighborhood": "Georgetown",
    "neighborhoodGroup": "Greater Duwamish",
    "units": "B6 E11 E26 L11"
  },
  {
    "id_str": "F210011127",
    "created_at": "2/3/2021 9:48:56 AM",
    "timestamp": 1612374536000,
    "description": "AFA4 - Auto Alarm 2 + 1 + 1",
    "address": "3501 Rainier Av S",
    "active": false,
    "unitCount": 5,
    "severity": 1,
    "lat": 47.571853,
    "long": -122.293193,
    "neighborhood": "Columbia City",
    "neighborhoodGroup": "Southeast",
    "units": "B2 B6 E10 E30 L12"
  },
  {
    "id_str": "F210011124",
    "created_at": "2/3/2021 9:39:41 AM",
    "timestamp": 1612373981000,
    "description": "Aid Response",
    "address": "1950 Alaskan Way",
    "active": false,
    "unitCount": 1,
    "severity": 0,
    "lat": 47.608901,
    "long": -122.344442,
    "neighborhood": "Downtown Commercial Core",
    "neighborhoodGroup": "Downtown",
    "units": "A4"
  },
  {
    "id_str": "F210011119",
    "created_at": "2/3/2021 9:28:03 AM",
    "timestamp": 1612373283000,
    "description": "Aid Response",
    "address": "7801 Detroit Ave Sw",
    "active": false,
    "unitCount": 1,
    "severity": 0,
    "lat": 47.533045,
    "long": -122.337863,
    "neighborhood": "Highland Park",
    "neighborhoodGroup": "Delridge Neighborhoods",
    "units": "E26"
  },
  {
    "id_str": "F210011118",
    "created_at": "2/3/2021 9:26:51 AM",
    "timestamp": 1612373211000,
    "description": "Medic Response",
    "address": "4336 S Bennett St",
    "active": false,
    "unitCount": 3,
    "severity": 0,
    "lat": 47.554303,
    "long": -122.277991,
    "neighborhood": "Columbia City",
    "neighborhoodGroup": "Southeast",
    "units": "A25 E28 M28"
  },
  {
    "id_str": "F210011116",
    "created_at": "2/3/2021 9:22:06 AM",
    "timestamp": 1612372926000,
    "description": "Fire in Building",
    "address": "1419 32ND AVE",
    "active": false,
    "unitCount": 22,
    "severity": 2,
    "lat": 47.590145,
    "long": -122.291357,
    "neighborhood": "Mt. Baker/North Rainier",
    "neighborhoodGroup": "Southeast",
    "units": "A5 AIR10 B2 B5 B6 DEP1 E10 E25 E28 E30 E34 E6 L1 L12 L3 L4 M10 M44 MAR5 REHAB1 SAFT2 STAF10"
  },
  {
    "id_str": "F210011115",
    "created_at": "2/3/2021 9:21:30 AM",
    "timestamp": 1612372890000,
    "description": "Medic Response",
    "address": "11034 12th Ave Ne",
    "active": false,
    "unitCount": 3,
    "severity": 0,
    "lat": 47.709171,
    "long": -122.315199,
    "neighborhood": "Northgate/Maple Leaf",
    "neighborhoodGroup": "North",
    "units": "E39 FAC M31"
  },
  {
    "id_str": "F210011113",
    "created_at": "2/3/2021 9:15:23 AM",
    "timestamp": 1612372523000,
    "description": "AFA4 - Auto Alarm 2 + 1 + 1",
    "address": "1624 Boren Av",
    "active": false,
    "unitCount": 5,
    "severity": 1,
    "lat": 47.61469,
    "long": -122.330035,
    "neighborhood": "First Hill",
    "neighborhoodGroup": "East",
    "units": "B2 B6 E2 E5 L10"
  },
  {
    "id_str": "F210011112",
    "created_at": "2/3/2021 9:12:07 AM",
    "timestamp": 1612372327000,
    "description": "Aid Response",
    "address": "Rainier Ave S / S Dearborn St",
    "active": false,
    "unitCount": 1,
    "severity": 0,
    "lat": 47.595874,
    "long": -122.31153,
    "neighborhood": "Judkins Park",
    "neighborhoodGroup": "Central",
    "units": "A10"
  },
  {
    "id_str": "F210011111",
    "created_at": "2/3/2021 9:04:09 AM",
    "timestamp": 1612371849000,
    "description": "Illegal Burn",
    "address": "4th Ave S / S Massachusetts St",
    "active": false,
    "unitCount": 1,
    "severity": 0,
    "lat": 47.588227,
    "long": -122.329051,
    "neighborhood": "Duwamish/SODO",
    "neighborhoodGroup": "Greater Duwamish",
    "units": "E10"
  },
  {
    "id_str": "F210011109",
    "created_at": "2/3/2021 8:49:37 AM",
    "timestamp": 1612370977000,
    "description": "Aid Response",
    "address": "1124 Columbia St",
    "active": false,
    "unitCount": 2,
    "severity": 0,
    "lat": 47.608025,
    "long": -122.323562,
    "neighborhood": "First Hill",
    "neighborhoodGroup": "East",
    "units": "A10 E10"
  },
  {
    "id_str": "F210011108",
    "created_at": "2/3/2021 8:47:14 AM",
    "timestamp": 1612370834000,
    "description": "Low Acuity Response",
    "address": "223 Yesler Way",
    "active": false,
    "unitCount": 1,
    "severity": 0,
    "lat": 47.601718,
    "long": -122.331581,
    "neighborhood": "Downtown Commercial Core",
    "neighborhoodGroup": "Downtown",
    "units": "A5"
  },
  {
    "id_str": "F210011105",
    "created_at": "2/3/2021 8:33:40 AM",
    "timestamp": 1612370020000,
    "description": "Aid Response",
    "address": "OLIVE WAY / BOREN AVE",
    "active": false,
    "unitCount": 1,
    "severity": 0,
    "lat": 47.613528,
    "long": -122.332042,
    "neighborhood": "First Hill",
    "neighborhoodGroup": "East",
    "units": "A25"
  },
  {
    "id_str": "F210011103",
    "created_at": "2/3/2021 8:27:00 AM",
    "timestamp": 1612369620000,
    "description": "Aid Response",
    "address": "Alaskan Way W / Broad St",
    "active": false,
    "unitCount": 2,
    "severity": 0,
    "lat": 47.615034,
    "long": -122.354876,
    "neighborhood": "Belltown",
    "neighborhoodGroup": "Downtown",
    "units": "A2 L4"
  },
  {
    "id_str": "F210011102",
    "created_at": "2/3/2021 8:18:14 AM",
    "timestamp": 1612369094000,
    "description": "Aid Response",
    "address": "7040 16th Ave Sw",
    "active": false,
    "unitCount": 1,
    "severity": 0,
    "lat": 47.539668,
    "long": -122.354981,
    "neighborhood": "Riverview",
    "neighborhoodGroup": "Delridge Neighborhoods",
    "units": "E11"
  },
  {
    "id_str": "F210011101",
    "created_at": "2/3/2021 8:17:09 AM",
    "timestamp": 1612369029000,
    "description": "MVI - Motor Vehicle Incident",
    "address": "2040 15th Av W",
    "active": false,
    "unitCount": 1,
    "severity": 0,
    "lat": 47.637352,
    "long": -122.376142,
    "neighborhood": "Interbay",
    "neighborhoodGroup": "Magnolia/Queen Anne",
    "units": "E20"
  },
  {
    "id_str": "F210011100",
    "created_at": "2/3/2021 8:16:00 AM",
    "timestamp": 1612368960000,
    "description": "Automatic Fire Alarm Resd",
    "address": "11029 37th Ave Sw",
    "active": false,
    "unitCount": 1,
    "severity": 0,
    "lat": 47.504507,
    "long": -122.378906,
    "neighborhood": "Arbor Heights",
    "neighborhoodGroup": "Southwest",
    "units": "E37"
  },
  {
    "id_str": "F210011098",
    "created_at": "2/3/2021 8:04:19 AM",
    "timestamp": 1612368259000,
    "description": "Aid Response",
    "address": "4201 Ne 75th St",
    "active": false,
    "unitCount": 1,
    "severity": 0,
    "lat": 47.683041,
    "long": -122.283714,
    "neighborhood": "Wedgwood/View Ridge",
    "neighborhoodGroup": "Northeast",
    "units": "E38"
  },
  {
    "id_str": "F210011099",
    "created_at": "2/3/2021 8:04:00 AM",
    "timestamp": 1612368240000,
    "description": "Aid Response",
    "address": "Broadway / E Pike St",
    "active": false,
    "unitCount": 1,
    "severity": 0,
    "lat": 47.614076,
    "long": -122.32078,
    "neighborhood": "Capitol Hill",
    "neighborhoodGroup": "East",
    "units": "A25"
  },
  {
    "id_str": "F210011097",
    "created_at": "2/3/2021 7:56:37 AM",
    "timestamp": 1612367797000,
    "description": "Aid Response",
    "address": "2445 Nw 57th St",
    "active": false,
    "unitCount": 1,
    "severity": 0,
    "lat": 47.670187,
    "long": -122.388155,
    "neighborhood": "Sunset Hill/Loyal Heights",
    "neighborhoodGroup": "Ballard",
    "units": "E18"
  },
  {
    "id_str": "F210011094",
    "created_at": "2/3/2021 7:41:19 AM",
    "timestamp": 1612366879000,
    "description": "Illegal Burn",
    "address": "19th Ave E / E Thomas St",
    "active": false,
    "unitCount": 1,
    "severity": 0,
    "lat": 47.620487,
    "long": -122.30735,
    "neighborhood": "Miller Park",
    "neighborhoodGroup": "East",
    "units": "E25"
  },
  {
    "id_str": "F210011093",
    "created_at": "2/3/2021 7:33:39 AM",
    "timestamp": 1612366419000,
    "description": "Aid Response",
    "address": "915 Nw 45th St",
    "active": false,
    "unitCount": 1,
    "severity": 0,
    "lat": 47.661467,
    "long": -122.368768,
    "neighborhood": "Ballard",
    "neighborhoodGroup": "Ballard",
    "units": "E18"
  },
  {
    "id_str": "F210011091",
    "created_at": "2/3/2021 7:25:19 AM",
    "timestamp": 1612365919000,
    "description": "Auto Fire Alarm",
    "address": "419 E Thomas St",
    "active": false,
    "unitCount": 2,
    "severity": 0,
    "lat": 47.620832,
    "long": -122.326331,
    "neighborhood": "Capitol Hill",
    "neighborhoodGroup": "East",
    "units": "E25 L4"
  },
  {
    "id_str": "F210011087",
    "created_at": "2/3/2021 7:18:33 AM",
    "timestamp": 1612365513000,
    "description": "1RED 1 Unit",
    "address": "2nd Ave Et S / Yesler Way",
    "active": false,
    "unitCount": 1,
    "severity": 0,
    "lat": 47.601719,
    "long": -122.331984,
    "neighborhood": "Downtown Commercial Core",
    "neighborhoodGroup": "Downtown",
    "units": "E25"
  },
  {
    "id_str": "F210011085",
    "created_at": "2/3/2021 7:16:20 AM",
    "timestamp": 1612365380000,
    "description": "4RED - 2 + 1 + 1",
    "address": "2nd Ave / James St",
    "active": false,
    "unitCount": 5,
    "severity": 1,
    "lat": 47.602306,
    "long": -122.332519,
    "neighborhood": "Downtown Commercial Core",
    "neighborhoodGroup": "Downtown",
    "units": "B2 E10 E2 L1 L4"
  },
  {
    "id_str": "F210011083",
    "created_at": "2/3/2021 7:15:17 AM",
    "timestamp": 1612365317000,
    "description": "Auto Fire Alarm",
    "address": "1301 5th Av",
    "active": false,
    "unitCount": 2,
    "severity": 0,
    "lat": 47.608693,
    "long": -122.333757,
    "neighborhood": "Downtown Commercial Core",
    "neighborhoodGroup": "Downtown",
    "units": "E5 L1"
  },
  {
    "id_str": "F210011082",
    "created_at": "2/3/2021 7:10:13 AM",
    "timestamp": 1612365013000,
    "description": "Aid Response",
    "address": "8 W Crockett St",
    "active": false,
    "unitCount": 2,
    "severity": 0,
    "lat": 47.63717,
    "long": -122.357037,
    "neighborhood": "Queen Anne",
    "neighborhoodGroup": "Magnolia/Queen Anne",
    "units": "E8 M18"
  },
  {
    "id_str": "F210011078",
    "created_at": "2/3/2021 7:00:01 AM",
    "timestamp": 1612364401000,
    "description": "AFA4 - Auto Alarm 2 + 1 + 1",
    "address": "99 S Spokane St",
    "active": false,
    "unitCount": 4,
    "severity": 0,
    "lat": 47.571393,
    "long": -122.334194,
    "neighborhood": "Duwamish/SODO",
    "neighborhoodGroup": "Greater Duwamish",
    "units": "B5 E13 E36 R1"
  },
  {
    "id_str": "F210011077",
    "created_at": "2/3/2021 6:56:05 AM",
    "timestamp": 1612364165000,
    "description": "Aid Response",
    "address": "612 22nd Ave",
    "active": false,
    "unitCount": 1,
    "severity": 0,
    "lat": 47.607262,
    "long": -122.303776,
    "neighborhood": "Central Area/Squire Park",
    "neighborhoodGroup": "Central",
    "units": "A25"
  },
  {
    "id_str": "F210011073",
    "created_at": "2/3/2021 6:48:57 AM",
    "timestamp": 1612363737000,
    "description": "Auto Fire Alarm",
    "address": "501 Rainier Ave S",
    "active": false,
    "unitCount": 2,
    "severity": 0,
    "lat": 47.598322,
    "long": -122.3134,
    "neighborhood": "Judkins Park",
    "neighborhoodGroup": "Central",
    "units": "E6 L3"
  },
  {
    "id_str": "F210011066",
    "created_at": "2/3/2021 6:21:13 AM",
    "timestamp": 1612362073000,
    "description": "Aid Response",
    "address": "225 Ward St",
    "active": false,
    "unitCount": 1,
    "severity": 0,
    "lat": 47.627975,
    "long": -122.352445,
    "neighborhood": "Queen Anne",
    "neighborhoodGroup": "Magnolia/Queen Anne",
    "units": "E8"
  },
  {
    "id_str": "F210011065",
    "created_at": "2/3/2021 6:20:42 AM",
    "timestamp": 1612362042000,
    "description": "Medic Response",
    "address": "2143 N Northgate Way",
    "active": false,
    "unitCount": 2,
    "severity": 0,
    "lat": 47.708656,
    "long": -122.332818,
    "neighborhood": "Northgate/Maple Leaf",
    "neighborhoodGroup": "North",
    "units": "E24 M17"
  },
  {
    "id_str": "F210011064",
    "created_at": "2/3/2021 6:10:38 AM",
    "timestamp": 1612361438000,
    "description": "Low Acuity Response",
    "address": "4336 S Bennett St",
    "active": false,
    "unitCount": 1,
    "severity": 0,
    "lat": 47.554303,
    "long": -122.277991,
    "neighborhood": "Columbia City",
    "neighborhoodGroup": "Southeast",
    "units": "E28"
  },
  {
    "id_str": "F210011063",
    "created_at": "2/3/2021 6:08:02 AM",
    "timestamp": 1612361282000,
    "description": "Aid Response",
    "address": "1301 Spring St",
    "active": false,
    "unitCount": 1,
    "severity": 0,
    "lat": 47.610986,
    "long": -122.32356,
    "neighborhood": "Capitol Hill",
    "neighborhoodGroup": "East",
    "units": "A25"
  },
  {
    "id_str": "F210011058",
    "created_at": "2/3/2021 5:50:10 AM",
    "timestamp": 1612360210000,
    "description": "Aid Response",
    "address": "116 Fairview Av N",
    "active": false,
    "unitCount": 1,
    "severity": 0,
    "lat": 47.618693,
    "long": -122.334256,
    "neighborhood": "Cascade/Eastlake",
    "neighborhoodGroup": "Lake Union",
    "units": "A2"
  },
  {
    "id_str": "F210011057",
    "created_at": "2/3/2021 5:48:43 AM",
    "timestamp": 1612360123000,
    "description": "Aid Response",
    "address": "Nb I5 At Corson",
    "active": false,
    "unitCount": 3,
    "severity": 0,
    "lat": 47.548716,
    "long": -122.311984,
    "neighborhood": "Beacon Hill",
    "neighborhoodGroup": "Greater Duwamish",
    "units": "A14 E27 E33"
  },
  {
    "id_str": "F210011056",
    "created_at": "2/3/2021 5:20:02 AM",
    "timestamp": 1612358402000,
    "description": "Aid Response",
    "address": "9262 Rainier Av S",
    "active": false,
    "unitCount": 1,
    "severity": 0,
    "lat": 47.519853,
    "long": -122.268364,
    "neighborhood": "Rainier Beach",
    "neighborhoodGroup": "Southeast",
    "units": "E33"
  },
  {
    "id_str": "F210011055",
    "created_at": "2/3/2021 5:16:01 AM",
    "timestamp": 1612358161000,
    "description": "Aid Response",
    "address": "7070 East Marginal Way S",
    "active": false,
    "unitCount": 1,
    "severity": 0,
    "lat": 47.539666,
    "long": -122.322298,
    "neighborhood": "Georgetown",
    "neighborhoodGroup": "Greater Duwamish",
    "units": "E27"
  },
  {
    "id_str": "F210011052",
    "created_at": "2/3/2021 4:46:19 AM",
    "timestamp": 1612356379000,
    "description": "Aid Response",
    "address": "930 N 104th St",
    "active": false,
    "unitCount": 1,
    "severity": 0,
    "lat": 47.704334,
    "long": -122.346968,
    "neighborhood": "Licton Springs",
    "neighborhoodGroup": "Northwest",
    "units": "E24"
  },
  {
    "id_str": "F210011050",
    "created_at": "2/3/2021 3:47:12 AM",
    "timestamp": 1612352832000,
    "description": "Aid Response",
    "address": "6285 AIRPORT WAY S",
    "active": false,
    "unitCount": 1,
    "severity": 0,
    "lat": 47.546839,
    "long": -122.313371,
    "neighborhood": "Georgetown",
    "neighborhoodGroup": "Greater Duwamish",
    "units": "E27"
  },
  {
    "id_str": "F210011049",
    "created_at": "2/3/2021 3:47:11 AM",
    "timestamp": 1612352831000,
    "description": "Medic Response",
    "address": "1239 17th Ave E",
    "active": false,
    "unitCount": 2,
    "severity": 0,
    "lat": 47.630845,
    "long": -122.309909,
    "neighborhood": "Miller Park",
    "neighborhoodGroup": "East",
    "units": "A25 M10"
  },
  {
    "id_str": "F210011047",
    "created_at": "2/3/2021 3:28:37 AM",
    "timestamp": 1612351717000,
    "description": "Unk Odor",
    "address": "4425 M L King Jr Way S",
    "active": false,
    "unitCount": 1,
    "severity": 0,
    "lat": 47.563567,
    "long": -122.29522,
    "neighborhood": "North Beacon Hill/Jefferson Park",
    "neighborhoodGroup": "Greater Duwamish",
    "units": "E30"
  },
  {
    "id_str": "F210011045",
    "created_at": "2/3/2021 3:27:15 AM",
    "timestamp": 1612351635000,
    "description": "Auto Fire Alarm",
    "address": "1124 Pike St",
    "active": false,
    "unitCount": 2,
    "severity": 0,
    "lat": 47.61358,
    "long": -122.328642,
    "neighborhood": "First Hill",
    "neighborhoodGroup": "East",
    "units": "E25 L10"
  },
  {
    "id_str": "F210011044",
    "created_at": "2/3/2021 3:24:14 AM",
    "timestamp": 1612351454000,
    "description": "Aid Response",
    "address": "2615 Sw Barton St",
    "active": false,
    "unitCount": 1,
    "severity": 0,
    "lat": 47.521023,
    "long": -122.366095,
    "neighborhood": "Roxhill/Westwood",
    "neighborhoodGroup": "Delridge Neighborhoods",
    "units": "E11"
  },
  {
    "id_str": "F210011043",
    "created_at": "2/3/2021 3:16:10 AM",
    "timestamp": 1612350970000,
    "description": "Medic Response, 6 per Rule",
    "address": "4502 S Othello St",
    "active": false,
    "unitCount": 3,
    "severity": 0,
    "lat": 47.53706,
    "long": -122.27666,
    "neighborhood": "Columbia City",
    "neighborhoodGroup": "Southeast",
    "units": "E28 L12 M26"
  },
  {
    "id_str": "F210011042",
    "created_at": "2/3/2021 3:15:37 AM",
    "timestamp": 1612350937000,
    "description": "Aid Response",
    "address": "2720 Ne 144th St",
    "active": false,
    "unitCount": 1,
    "severity": 0,
    "lat": 47.733066,
    "long": -122.299052,
    "neighborhood": "Olympic Hills/Victory Heights",
    "neighborhoodGroup": "North",
    "units": "E39"
  },
  {
    "id_str": "F210011041",
    "created_at": "2/3/2021 3:13:36 AM",
    "timestamp": 1612350816000,
    "description": "Aid Response",
    "address": "501 Rainier Ave S",
    "active": false,
    "unitCount": 1,
    "severity": 0,
    "lat": 47.598322,
    "long": -122.3134,
    "neighborhood": "Judkins Park",
    "neighborhoodGroup": "Central",
    "units": "E6"
  },
  {
    "id_str": "F210011039",
    "created_at": "2/3/2021 3:06:23 AM",
    "timestamp": 1612350383000,
    "description": "Low Acuity Response",
    "address": "223 Yesler Way",
    "active": false,
    "unitCount": 1,
    "severity": 0,
    "lat": 47.601718,
    "long": -122.331581,
    "neighborhood": "Downtown Commercial Core",
    "neighborhoodGroup": "Downtown",
    "units": "A10"
  },
  {
    "id_str": "F210011038",
    "created_at": "2/3/2021 2:52:25 AM",
    "timestamp": 1612349545000,
    "description": "Aid Response",
    "address": "2300 Elliott Av",
    "active": false,
    "unitCount": 1,
    "severity": 0,
    "lat": 47.612046,
    "long": -122.348232,
    "neighborhood": "Belltown",
    "neighborhoodGroup": "Downtown",
    "units": "E2"
  },
  {
    "id_str": "F210011037",
    "created_at": "2/3/2021 2:50:53 AM",
    "timestamp": 1612349453000,
    "description": "Aid Response",
    "address": "912 Dexter Av N",
    "active": false,
    "unitCount": 1,
    "severity": 0,
    "lat": 47.627233,
    "long": -122.342326,
    "neighborhood": "Queen Anne",
    "neighborhoodGroup": "Magnolia/Queen Anne",
    "units": "A2"
  },
  {
    "id_str": "F210011036",
    "created_at": "2/3/2021 2:41:55 AM",
    "timestamp": 1612348915000,
    "description": "Aid Response",
    "address": "7748 23rd Ave Nw",
    "active": false,
    "unitCount": 1,
    "severity": 0,
    "lat": 47.685278,
    "long": -122.385393,
    "neighborhood": "Sunset Hill/Loyal Heights",
    "neighborhoodGroup": "Ballard",
    "units": "E35"
  },
  {
    "id_str": "F210011035",
    "created_at": "2/3/2021 2:22:26 AM",
    "timestamp": 1612347746000,
    "description": "Medic Response",
    "address": "7500 Seward Park Av S",
    "active": false,
    "unitCount": 2,
    "severity": 0,
    "lat": 47.535387,
    "long": -122.267284,
    "neighborhood": "Seward Park",
    "neighborhoodGroup": "Southeast",
    "units": "E28 M28"
  },
  {
    "id_str": "F210011034",
    "created_at": "2/3/2021 1:47:44 AM",
    "timestamp": 1612345664000,
    "description": "Aid Response Freeway",
    "address": "Nb I5 At Corson",
    "active": false,
    "unitCount": 3,
    "severity": 0,
    "lat": 47.548716,
    "long": -122.311984,
    "neighborhood": "Beacon Hill",
    "neighborhoodGroup": "Greater Duwamish",
    "units": "A14 E27 E33"
  },
  {
    "id_str": "F210011033",
    "created_at": "2/3/2021 1:46:35 AM",
    "timestamp": 1612345595000,
    "description": "Aid Response",
    "address": "3926 Aurora Av N",
    "active": false,
    "unitCount": 1,
    "severity": 0,
    "lat": 47.654462,
    "long": -122.347201,
    "neighborhood": "Fremont",
    "neighborhoodGroup": "Lake Union",
    "units": "E9"
  },
  {
    "id_str": "F210011032",
    "created_at": "2/3/2021 1:43:53 AM",
    "timestamp": 1612345433000,
    "description": "Medic Response",
    "address": "2326 California Av Sw",
    "active": false,
    "unitCount": 2,
    "severity": 0,
    "lat": 47.582838,
    "long": -122.386485,
    "neighborhood": "Alki/Admiral",
    "neighborhoodGroup": "Southwest",
    "units": "E29 M32"
  },
  {
    "id_str": "F210011031",
    "created_at": "2/3/2021 1:26:55 AM",
    "timestamp": 1612344415000,
    "description": "Aid Response",
    "address": "7500 Seward Park Av S",
    "active": false,
    "unitCount": 1,
    "severity": 0,
    "lat": 47.535387,
    "long": -122.267284,
    "neighborhood": "Seward Park",
    "neighborhoodGroup": "Southeast",
    "units": "E28"
  },
  {
    "id_str": "F210011030",
    "created_at": "2/3/2021 1:09:07 AM",
    "timestamp": 1612343347000,
    "description": "Rescue Elevator",
    "address": "401 5th Av S",
    "active": false,
    "unitCount": 1,
    "severity": 0,
    "lat": 47.599186,
    "long": -122.327667,
    "neighborhood": "Pioneer Square/International District",
    "neighborhoodGroup": "Downtown",
    "units": "L1"
  },
  {
    "id_str": "F210011029",
    "created_at": "2/3/2021 1:04:42 AM",
    "timestamp": 1612343082000,
    "description": "1RED 1 Unit",
    "address": "6501 29th Ave S",
    "active": false,
    "unitCount": 1,
    "severity": 0,
    "lat": 47.544407,
    "long": -122.295818,
    "neighborhood": "South Beacon Hill/NewHolly",
    "neighborhoodGroup": "Greater Duwamish",
    "units": "E28"
  },
  {
    "id_str": "F210011028",
    "created_at": "2/3/2021 1:01:57 AM",
    "timestamp": 1612342917000,
    "description": "Aid Response",
    "address": "2633 S Ferdinand St",
    "active": false,
    "unitCount": 1,
    "severity": 0,
    "lat": 47.55851,
    "long": -122.298778,
    "neighborhood": "Beacon Hill",
    "neighborhoodGroup": "Greater Duwamish",
    "units": "E13"
  },
  {
    "id_str": "F210011027",
    "created_at": "2/3/2021 12:37:01 AM",
    "timestamp": 1612341421000,
    "description": "Aid Response",
    "address": "2209 1st Av",
    "active": false,
    "unitCount": 1,
    "severity": 0,
    "lat": 47.612669,
    "long": -122.345319,
    "neighborhood": "Belltown",
    "neighborhoodGroup": "Downtown",
    "units": "A2"
  },
  {
    "id_str": "F210011026",
    "created_at": "2/3/2021 12:10:31 AM",
    "timestamp": 1612339831000,
    "description": "Illegal Burn",
    "address": "400 Pine St",
    "active": false,
    "unitCount": 1,
    "severity": 0,
    "lat": 47.611207,
    "long": -122.337592,
    "neighborhood": "Downtown Commercial Core",
    "neighborhoodGroup": "Downtown",
    "units": "E2"
  },
  {
    "id_str": "F210011025",
    "created_at": "2/2/2021 11:57:40 PM",
    "timestamp": 1612339060000,
    "description": "Aid Response",
    "address": "810 Virginia St",
    "active": false,
    "unitCount": 1,
    "severity": 0,
    "lat": 47.615789,
    "long": -122.336507,
    "neighborhood": "Cascade/Eastlake",
    "neighborhoodGroup": "Lake Union",
    "units": "A2"
  },
  {
    "id_str": "F210011024",
    "created_at": "2/2/2021 11:44:55 PM",
    "timestamp": 1612338295000,
    "description": "Aid Response",
    "address": "619 3rd Av",
    "active": false,
    "unitCount": 1,
    "severity": 0,
    "lat": 47.6029,
    "long": -122.331529,
    "neighborhood": "Downtown Commercial Core",
    "neighborhoodGroup": "Downtown",
    "units": "A5"
  },
  {
    "id_str": "F210011021",
    "created_at": "2/2/2021 11:31:17 PM",
    "timestamp": 1612337477000,
    "description": "Aid Response",
    "address": "1000 4th Av",
    "active": false,
    "unitCount": 1,
    "severity": 0,
    "lat": 47.606088,
    "long": -122.332909,
    "neighborhood": "Downtown Commercial Core",
    "neighborhoodGroup": "Downtown",
    "units": "A10"
  },
  {
    "id_str": "F210011020",
    "created_at": "2/2/2021 11:18:15 PM",
    "timestamp": 1612336695000,
    "description": "Aid Response",
    "address": "11300 3rd Av Ne",
    "active": false,
    "unitCount": 1,
    "severity": 0,
    "lat": 47.710481,
    "long": -122.326004,
    "neighborhood": "Northgate/Maple Leaf",
    "neighborhoodGroup": "North",
    "units": "E39"
  },
  {
    "id_str": "F210011018",
    "created_at": "2/2/2021 11:15:27 PM",
    "timestamp": 1612336527000,
    "description": "Automatic Fire Alarm Resd",
    "address": "620 N 34th St",
    "active": false,
    "unitCount": 1,
    "severity": 0,
    "lat": 47.649775,
    "long": -122.350985,
    "neighborhood": "Fremont",
    "neighborhoodGroup": "Lake Union",
    "units": "E9"
  },
  {
    "id_str": "F210011015",
    "created_at": "2/2/2021 10:54:43 PM",
    "timestamp": 1612335283000,
    "description": "Aid Response",
    "address": "810 Virginia St",
    "active": false,
    "unitCount": 1,
    "severity": 0,
    "lat": 47.615789,
    "long": -122.336507,
    "neighborhood": "Cascade/Eastlake",
    "neighborhoodGroup": "Lake Union",
    "units": "A2"
  },
  {
    "id_str": "F210011014",
    "created_at": "2/2/2021 10:53:41 PM",
    "timestamp": 1612335221000,
    "description": "Aid Response",
    "address": "14100 Linden Av N",
    "active": false,
    "unitCount": 1,
    "severity": 0,
    "lat": 47.73104,
    "long": -122.347764,
    "neighborhood": "Broadview/Bitter Lake",
    "neighborhoodGroup": "Northwest",
    "units": "E24"
  },
  {
    "id_str": "F210011013",
    "created_at": "2/2/2021 10:46:59 PM",
    "timestamp": 1612334819000,
    "description": "Activated CO Detector",
    "address": "1717 12th Av",
    "active": false,
    "unitCount": 1,
    "severity": 0,
    "lat": 47.616623,
    "long": -122.316876,
    "neighborhood": "Capitol Hill",
    "neighborhoodGroup": "East",
    "units": "L10"
  },
  {
    "id_str": "F210011012",
    "created_at": "2/2/2021 10:41:18 PM",
    "timestamp": 1612334478000,
    "description": "Aid Response",
    "address": "1753 Nw 56th St",
    "active": false,
    "unitCount": 1,
    "severity": 0,
    "lat": 47.669446,
    "long": -122.37945,
    "neighborhood": "Ballard",
    "neighborhoodGroup": "Ballard",
    "units": "E18"
  },
  {
    "id_str": "F210011011",
    "created_at": "2/2/2021 10:26:08 PM",
    "timestamp": 1612333568000,
    "description": "Aid Response",
    "address": "27th Ave Sw/sw Roxbury St",
    "active": false,
    "unitCount": 1,
    "severity": 0,
    "lat": 47.517379,
    "long": -122.367284,
    "units": "E37"
  },
  {
    "id_str": "F210011010",
    "created_at": "2/2/2021 10:18:55 PM",
    "timestamp": 1612333135000,
    "description": "Automatic Fire Alarm Resd",
    "address": "5006 15th Ave Ne",
    "active": false,
    "unitCount": 1,
    "severity": 0,
    "lat": 47.664932,
    "long": -122.311936,
    "neighborhood": "University District",
    "neighborhoodGroup": "Northeast",
    "units": "E17"
  },
  {
    "id_str": "F210011009",
    "created_at": "2/2/2021 10:11:18 PM",
    "timestamp": 1612332678000,
    "description": "Aid Response",
    "address": "8915 30th Ave Nw",
    "active": false,
    "unitCount": 1,
    "severity": 0,
    "lat": 47.693785,
    "long": -122.395705,
    "neighborhood": "North Beach/Blue Ridge",
    "neighborhoodGroup": "Ballard",
    "units": "E35"
  },
  {
    "id_str": "F210011007",
    "created_at": "2/2/2021 10:03:26 PM",
    "timestamp": 1612332206000,
    "description": "Auto Fire Alarm",
    "address": "5341 Ballard Av Nw",
    "active": false,
    "unitCount": 2,
    "severity": 0,
    "lat": 47.666932,
    "long": -122.383815,
    "neighborhood": "Ballard",
    "neighborhoodGroup": "Ballard",
    "units": "E18 L8"
  },
  {
    "id_str": "F210011004",
    "created_at": "2/2/2021 9:57:06 PM",
    "timestamp": 1612331826000,
    "description": "AFA4 - Auto Alarm 2 + 1 + 1",
    "address": "3501 Rainier Av S",
    "active": false,
    "unitCount": 4,
    "severity": 0,
    "lat": 47.571853,
    "long": -122.293193,
    "neighborhood": "Columbia City",
    "neighborhoodGroup": "Southeast",
    "units": "B5 E13 E30 L12"
  },
  {
    "id_str": "F210011003",
    "created_at": "2/2/2021 9:55:51 PM",
    "timestamp": 1612331751000,
    "description": "Aid Response",
    "address": "1400 Broadway",
    "active": false,
    "unitCount": 1,
    "severity": 0,
    "lat": 47.612963,
    "long": -122.320762,
    "neighborhood": "Capitol Hill",
    "neighborhoodGroup": "East",
    "units": "L10"
  },
  {
    "id_str": "F210011002",
    "created_at": "2/2/2021 9:53:00 PM",
    "timestamp": 1612331580000,
    "description": "Aid Response",
    "address": "2001 E Union St",
    "active": false,
    "unitCount": 1,
    "severity": 0,
    "lat": 47.61291,
    "long": -122.306233,
    "neighborhood": "Central Area/Squire Park",
    "neighborhoodGroup": "Central",
    "units": "A25"
  },
  {
    "id_str": "F210011001",
    "created_at": "2/2/2021 9:51:46 PM",
    "timestamp": 1612331506000,
    "description": "Aid Response",
    "address": "1508 Ne 102nd St",
    "active": false,
    "unitCount": 2,
    "severity": 0,
    "lat": 47.702158,
    "long": -122.312209,
    "neighborhood": "Olympic Hills/Victory Heights",
    "neighborhoodGroup": "North",
    "units": "A14 E40"
  },
  {
    "id_str": "F210011000",
    "created_at": "2/2/2021 9:49:18 PM",
    "timestamp": 1612331358000,
    "description": "Aid Response",
    "address": "Fairview Ave N / Valley St",
    "active": false,
    "unitCount": 2,
    "severity": 0,
    "lat": 47.625769,
    "long": -122.334353,
    "neighborhood": "Cascade/Eastlake",
    "neighborhoodGroup": "Lake Union",
    "units": "A2 E2"
  },
  {
    "id_str": "F210010999",
    "created_at": "2/2/2021 9:44:45 PM",
    "timestamp": 1612331085000,
    "description": "Aid Response",
    "address": "4147 44th Ave Sw",
    "active": false,
    "unitCount": 1,
    "severity": 0,
    "lat": 47.566304,
    "long": -122.388111,
    "neighborhood": "West Seattle Junction/Genesee Hill",
    "neighborhoodGroup": "Southwest",
    "units": "E32"
  },
  {
    "id_str": "F210010998",
    "created_at": "2/2/2021 9:41:03 PM",
    "timestamp": 1612330863000,
    "description": "Medic Response",
    "address": "700 Minor Ave",
    "active": false,
    "unitCount": 2,
    "severity": 0,
    "lat": 47.607661,
    "long": -122.322073,
    "neighborhood": "First Hill",
    "neighborhoodGroup": "East",
    "units": "E25 M1"
  },
  {
    "id_str": "F210010995",
    "created_at": "2/2/2021 9:26:54 PM",
    "timestamp": 1612330014000,
    "description": "Aid Response",
    "address": "1526 3rd Av",
    "active": false,
    "unitCount": 1,
    "severity": 0,
    "lat": 47.610003,
    "long": -122.338025,
    "neighborhood": "Downtown Commercial Core",
    "neighborhoodGroup": "Downtown",
    "units": "A2"
  },
  {
    "id_str": "F210010993",
    "created_at": "2/2/2021 9:26:38 PM",
    "timestamp": 1612329998000,
    "description": "Aid Response",
    "address": "5th Ave S / S Weller St",
    "active": false,
    "unitCount": 1,
    "severity": 0,
    "lat": 47.597517,
    "long": -122.327675,
    "neighborhood": "Pioneer Square/International District",
    "neighborhoodGroup": "Downtown",
    "units": "A10"
  },
  {
    "id_str": "F210010992",
    "created_at": "2/2/2021 9:26:31 PM",
    "timestamp": 1612329991000,
    "description": "Medic Response",
    "address": "4416 S Brandon St",
    "active": false,
    "unitCount": 2,
    "severity": 0,
    "lat": 47.553402,
    "long": -122.279146,
    "neighborhood": "Columbia City",
    "neighborhoodGroup": "Southeast",
    "units": "E28 M28"
  },
  {
    "id_str": "F210010994",
    "created_at": "2/2/2021 9:25:58 PM",
    "timestamp": 1612329958000,
    "description": "Medic Response",
    "address": "800 Jefferson St",
    "active": false,
    "unitCount": 2,
    "severity": 0,
    "lat": 47.604377,
    "long": -122.325207,
    "neighborhood": "First Hill",
    "neighborhoodGroup": "East",
    "units": "A5 M10"
  },
  {
    "id_str": "F210010989",
    "created_at": "2/2/2021 9:11:28 PM",
    "timestamp": 1612329088000,
    "description": "Aid Response",
    "address": "2222 32nd Av W",
    "active": false,
    "unitCount": 1,
    "severity": 0,
    "lat": 47.638407,
    "long": -122.39835,
    "neighborhood": "Magnolia",
    "neighborhoodGroup": "Magnolia/Queen Anne",
    "units": "E41"
  },
  {
    "id_str": "F210010988",
    "created_at": "2/2/2021 9:08:29 PM",
    "timestamp": 1612328909000,
    "description": "Aid Response",
    "address": "109 23rd Av E",
    "active": false,
    "unitCount": 1,
    "severity": 0,
    "lat": 47.619215,
    "long": -122.302545,
    "neighborhood": "Central Area/Squire Park",
    "neighborhoodGroup": "Central",
    "units": "A25"
  },
  {
    "id_str": "F210010987",
    "created_at": "2/2/2021 9:06:30 PM",
    "timestamp": 1612328790000,
    "description": "Aid Response",
    "address": "28th Ave Nw / Nw Market St",
    "active": false,
    "unitCount": 1,
    "severity": 0,
    "lat": 47.668655,
    "long": -122.392858,
    "neighborhood": "Sunset Hill/Loyal Heights",
    "neighborhoodGroup": "Ballard",
    "units": "E18"
  },
  {
    "id_str": "F210010986",
    "created_at": "2/2/2021 9:03:13 PM",
    "timestamp": 1612328593000,
    "description": "Auto Fire Alarm",
    "address": "220 11th Av",
    "active": false,
    "unitCount": 2,
    "severity": 0,
    "lat": 47.60368,
    "long": -122.318103,
    "neighborhood": "First Hill",
    "neighborhoodGroup": "East",
    "units": "E25 L10"
  },
  {
    "id_str": "F210010985",
    "created_at": "2/2/2021 9:01:05 PM",
    "timestamp": 1612328465000,
    "description": "Aid Response",
    "address": "4th Ave S / S Jackson St",
    "active": false,
    "unitCount": 1,
    "severity": 0,
    "lat": 47.599197,
    "long": -122.328968,
    "neighborhood": "Pioneer Square/International District",
    "neighborhoodGroup": "Downtown",
    "units": "A10"
  },
  {
    "id_str": "F210010984",
    "created_at": "2/2/2021 8:54:49 PM",
    "timestamp": 1612328089000,
    "description": "Auto Fire Alarm",
    "address": "720 Nob Hill Av N",
    "active": false,
    "unitCount": 1,
    "severity": 0,
    "lat": 47.625599,
    "long": -122.350173,
    "neighborhood": "Queen Anne",
    "neighborhoodGroup": "Magnolia/Queen Anne",
    "units": "E8"
  },
  {
    "id_str": "F210010983",
    "created_at": "2/2/2021 8:54:04 PM",
    "timestamp": 1612328044000,
    "description": "Medic Response",
    "address": "46 W Etruria St",
    "active": false,
    "unitCount": 2,
    "severity": 0,
    "lat": 47.647777,
    "long": -122.358378,
    "neighborhood": "Queen Anne",
    "neighborhoodGroup": "Magnolia/Queen Anne",
    "units": "E9 M18"
  },
  {
    "id_str": "F210010982",
    "created_at": "2/2/2021 8:49:37 PM",
    "timestamp": 1612327777000,
    "description": "Aid Response",
    "address": "9602 41st Ave Sw",
    "active": false,
    "unitCount": 1,
    "severity": 0,
    "lat": 47.517475,
    "long": -122.384858,
    "neighborhood": "Fauntleroy/Seaview",
    "neighborhoodGroup": "Southwest",
    "units": "E37"
  },
  {
    "id_str": "F210010981",
    "created_at": "2/2/2021 8:36:23 PM",
    "timestamp": 1612326983000,
    "description": "Aid Response",
    "address": "Nw 100th Pl / 7th Ave Nw",
    "active": false,
    "unitCount": 1,
    "severity": 0,
    "lat": 47.702503,
    "long": -122.363849,
    "neighborhood": "North Beach/Blue Ridge",
    "neighborhoodGroup": "Ballard",
    "units": "E35"
  },
  {
    "id_str": "F210010978",
    "created_at": "2/2/2021 8:25:58 PM",
    "timestamp": 1612326358000,
    "description": "Aid Response",
    "address": "3843 54th Ave Sw",
    "active": false,
    "unitCount": 1,
    "severity": 0,
    "lat": 47.569971,
    "long": -122.401491,
    "neighborhood": "Alki/Admiral",
    "neighborhoodGroup": "Southwest",
    "units": "E32"
  },
  {
    "id_str": "F210010977",
    "created_at": "2/2/2021 8:24:39 PM",
    "timestamp": 1612326279000,
    "description": "Aid Response",
    "address": "6716 26th Ave Nw",
    "active": false,
    "unitCount": 1,
    "severity": 0,
    "lat": 47.677762,
    "long": -122.389725,
    "neighborhood": "Sunset Hill/Loyal Heights",
    "neighborhoodGroup": "Ballard",
    "units": "E18"
  },
  {
    "id_str": "F210010976",
    "created_at": "2/2/2021 8:24:38 PM",
    "timestamp": 1612326278000,
    "description": "Auto Fire Alarm",
    "address": "615 E Mercer St",
    "active": false,
    "unitCount": 2,
    "severity": 0,
    "lat": 47.62429,
    "long": -122.323884,
    "neighborhood": "Capitol Hill",
    "neighborhoodGroup": "East",
    "units": "E25 L10"
  },
  {
    "id_str": "F210010974",
    "created_at": "2/2/2021 8:15:47 PM",
    "timestamp": 1612325747000,
    "description": "Auto Fire Alarm",
    "address": "201 Yesler Way",
    "active": false,
    "unitCount": 2,
    "severity": 0,
    "lat": 47.601719,
    "long": -122.331966,
    "neighborhood": "Downtown Commercial Core",
    "neighborhoodGroup": "Downtown",
    "units": "E10 L1"
  },
  {
    "id_str": "F210010973",
    "created_at": "2/2/2021 8:07:37 PM",
    "timestamp": 1612325257000,
    "description": "Auto Fire Alarm",
    "address": "551 Boren Av N",
    "active": false,
    "unitCount": 2,
    "severity": 0,
    "lat": 47.623885,
    "long": -122.335832,
    "neighborhood": "Cascade/Eastlake",
    "neighborhoodGroup": "Lake Union",
    "units": "E2 L4"
  },
  {
    "id_str": "F210010972",
    "created_at": "2/2/2021 8:05:15 PM",
    "timestamp": 1612325115000,
    "description": "Aid Response",
    "address": "3209 56th Ave Sw",
    "active": false,
    "unitCount": 1,
    "severity": 0,
    "lat": 47.575732,
    "long": -122.403652,
    "neighborhood": "Alki/Admiral",
    "neighborhoodGroup": "Southwest",
    "units": "E29"
  },
  {
    "id_str": "F210010969",
    "created_at": "2/2/2021 7:46:13 PM",
    "timestamp": 1612323973000,
    "description": "1RED 1 Unit",
    "address": "111 Yale Av N",
    "active": false,
    "unitCount": 1,
    "severity": 0,
    "lat": 47.618823,
    "long": -122.330413,
    "neighborhood": "Cascade/Eastlake",
    "neighborhoodGroup": "Lake Union",
    "units": "E2"
  },
  {
    "id_str": "F210010968",
    "created_at": "2/2/2021 7:40:28 PM",
    "timestamp": 1612323628000,
    "description": "Aid Response Yellow",
    "address": "1401 Broadway",
    "active": false,
    "unitCount": 1,
    "severity": 0,
    "lat": 47.612963,
    "long": -122.320762,
    "neighborhood": "Capitol Hill",
    "neighborhoodGroup": "East",
    "units": "A25"
  },
  {
    "id_str": "F210010966",
    "created_at": "2/2/2021 7:34:36 PM",
    "timestamp": 1612323276000,
    "description": "Aid Response",
    "address": "614 W Garfield St",
    "active": false,
    "unitCount": 2,
    "severity": 0,
    "lat": 47.633528,
    "long": -122.365211,
    "neighborhood": "Queen Anne",
    "neighborhoodGroup": "Magnolia/Queen Anne",
    "units": "E8 L6"
  },
  {
    "id_str": "F210010963",
    "created_at": "2/2/2021 7:18:30 PM",
    "timestamp": 1612322310000,
    "description": "Aid Response",
    "address": "Aurora Ave N / N 100th St",
    "active": false,
    "unitCount": 1,
    "severity": 0,
    "lat": 47.70143,
    "long": -122.344651,
    "neighborhood": "Licton Springs",
    "neighborhoodGroup": "Northwest",
    "units": "A31"
  },
  {
    "id_str": "F210010961",
    "created_at": "2/2/2021 7:16:29 PM",
    "timestamp": 1612322189000,
    "description": "Low Acuity Response",
    "address": "2801 Ne 130th St",
    "active": false,
    "unitCount": 1,
    "severity": 0,
    "lat": 47.72291,
    "long": -122.297733,
    "neighborhood": "Olympic Hills/Victory Heights",
    "neighborhoodGroup": "North",
    "units": "E39"
  },
  {
    "id_str": "F210010960",
    "created_at": "2/2/2021 7:12:07 PM",
    "timestamp": 1612321927000,
    "description": "Aid Response",
    "address": "500 5th Av",
    "active": false,
    "unitCount": 1,
    "severity": 0,
    "lat": 47.602985,
    "long": -122.328535,
    "neighborhood": "First Hill",
    "neighborhoodGroup": "East",
    "units": "A5"
  },
  {
    "id_str": "F210010955",
    "created_at": "2/2/2021 7:03:19 PM",
    "timestamp": 1612321399000,
    "description": "Aid Response",
    "address": "3rd Ave / Pike St",
    "active": false,
    "unitCount": 1,
    "severity": 0,
    "lat": 47.60975,
    "long": -122.337793,
    "neighborhood": "Downtown Commercial Core",
    "neighborhoodGroup": "Downtown",
    "units": "A4"
  },
  {
    "id_str": "F210010953",
    "created_at": "2/2/2021 6:20:14 PM",
    "timestamp": 1612318814000,
    "description": "Medic Response",
    "address": "2722 Sw Elmgrove St",
    "active": false,
    "unitCount": 2,
    "severity": 0,
    "lat": 47.530084,
    "long": -122.367484,
    "neighborhood": "Roxhill/Westwood",
    "neighborhoodGroup": "Delridge Neighborhoods",
    "units": "L13 M32"
  },
  {
    "id_str": "F210010952",
    "created_at": "2/2/2021 6:18:49 PM",
    "timestamp": 1612318729000,
    "description": "Natural Gas Odor",
    "address": "6567 34th Ave Ne",
    "active": false,
    "unitCount": 1,
    "severity": 0,
    "lat": 47.676184,
    "long": -122.291639,
    "neighborhood": "Ravenna/Bryant",
    "neighborhoodGroup": "Northeast",
    "units": "L9"
  },
  {
    "id_str": "F210010951",
    "created_at": "2/2/2021 6:16:56 PM",
    "timestamp": 1612318616000,
    "description": "Medic Response",
    "address": "2722 Sw Elmgrove St",
    "active": false,
    "unitCount": 2,
    "severity": 0,
    "lat": 47.530084,
    "long": -122.367484,
    "neighborhood": "Roxhill/Westwood",
    "neighborhoodGroup": "Delridge Neighborhoods",
    "units": "E37 M32"
  },
  {
    "id_str": "F210010950",
    "created_at": "2/2/2021 5:51:15 PM",
    "timestamp": 1612317075000,
    "description": "Aid Response",
    "address": "Ne 130th St / Lake City Way Ne",
    "active": false,
    "unitCount": 2,
    "severity": 0,
    "lat": 47.722899,
    "long": -122.293194,
    "neighborhood": "Cedar Park/Meadowbrook",
    "neighborhoodGroup": "North",
    "units": "E39 L5"
  },
  {
    "id_str": "F210010948",
    "created_at": "2/2/2021 5:48:37 PM",
    "timestamp": 1612316917000,
    "description": "Aid Response",
    "address": "133 Pontius Ave N",
    "active": false,
    "unitCount": 1,
    "severity": 0,
    "lat": 47.619624,
    "long": -122.332269,
    "neighborhood": "Cascade/Eastlake",
    "neighborhoodGroup": "Lake Union",
    "units": "A4"
  },
  {
    "id_str": "F210010947",
    "created_at": "2/2/2021 5:40:11 PM",
    "timestamp": 1612316411000,
    "description": "Auto Fire Alarm",
    "address": "2225 4th Ave",
    "active": false,
    "unitCount": 2,
    "severity": 0,
    "lat": 47.614788,
    "long": -122.342952,
    "neighborhood": "Cascade/Eastlake",
    "neighborhoodGroup": "Lake Union",
    "units": "E5 L4"
  },
  {
    "id_str": "F210010946",
    "created_at": "2/2/2021 5:40:03 PM",
    "timestamp": 1612316403000,
    "description": "Aid Response",
    "address": "2821 S Walden St",
    "active": false,
    "unitCount": 1,
    "severity": 0,
    "lat": 47.572163,
    "long": -122.296173,
    "neighborhood": "Columbia City",
    "neighborhoodGroup": "Southeast",
    "units": "E30"
  },
  {
    "id_str": "F210010945",
    "created_at": "2/2/2021 5:34:55 PM",
    "timestamp": 1612316095000,
    "description": "Aid Response",
    "address": "1531 13th Av S",
    "active": false,
    "unitCount": 1,
    "severity": 0,
    "lat": 47.589745,
    "long": -122.315986,
    "neighborhood": "North Beacon Hill/Jefferson Park",
    "neighborhoodGroup": "Greater Duwamish",
    "units": "E13"
  },
  {
    "id_str": "F210010944",
    "created_at": "2/2/2021 5:29:58 PM",
    "timestamp": 1612315798000,
    "description": "Medic Response, 6 per Rule",
    "address": "Roosevelt Way Ne / Ne 45th St",
    "active": false,
    "unitCount": 4,
    "severity": 0,
    "lat": 47.661299,
    "long": -122.317638,
    "neighborhood": "Wallingford",
    "neighborhoodGroup": "Lake Union",
    "units": "A25 E17 E31 M1"
  },
  {
    "id_str": "F210010943",
    "created_at": "2/2/2021 5:28:03 PM",
    "timestamp": 1612315683000,
    "description": "Medic Response",
    "address": "4700 Phinney Av N",
    "active": false,
    "unitCount": 2,
    "severity": 0,
    "lat": 47.66288,
    "long": -122.353974,
    "neighborhood": "Fremont",
    "neighborhoodGroup": "Lake Union",
    "units": "E21 M18"
  },
  {
    "id_str": "F210010942",
    "created_at": "2/2/2021 5:23:41 PM",
    "timestamp": 1612315421000,
    "description": "Low Acuity Response",
    "address": "1215 N 45th St",
    "active": false,
    "unitCount": 1,
    "severity": 0,
    "lat": 47.661385,
    "long": -122.343048,
    "neighborhood": "Wallingford",
    "neighborhoodGroup": "Lake Union",
    "units": "E9"
  },
  {
    "id_str": "F210010941",
    "created_at": "2/2/2021 5:16:39 PM",
    "timestamp": 1612314999000,
    "description": "Aid Response",
    "address": "2320 4th Av",
    "active": false,
    "unitCount": 2,
    "severity": 0,
    "lat": 47.615516,
    "long": -122.344184,
    "neighborhood": "Cascade/Eastlake",
    "neighborhoodGroup": "Lake Union",
    "units": "E2 MAR5"
  },
  {
    "id_str": "F210010940",
    "created_at": "2/2/2021 5:13:40 PM",
    "timestamp": 1612314820000,
    "description": "Aid Response",
    "address": "12740 30th Av Ne",
    "active": false,
    "unitCount": 1,
    "severity": 0,
    "lat": 47.721329,
    "long": -122.296339,
    "neighborhood": "Cedar Park/Meadowbrook",
    "neighborhoodGroup": "North",
    "units": "L5"
  },
  {
    "id_str": "F210010939",
    "created_at": "2/2/2021 5:10:52 PM",
    "timestamp": 1612314652000,
    "description": "Medic Response",
    "address": "3315 Ne 137th St",
    "active": false,
    "unitCount": 2,
    "severity": 0,
    "lat": 47.728288,
    "long": -122.291933,
    "neighborhood": "Cedar Park/Meadowbrook",
    "neighborhoodGroup": "North",
    "units": "E39 M17"
  },
  {
    "id_str": "F210010937",
    "created_at": "2/2/2021 5:01:02 PM",
    "timestamp": 1612314062000,
    "description": "Aid Response",
    "address": "7500 Seward Park Av S",
    "active": false,
    "unitCount": 1,
    "severity": 0,
    "lat": 47.535387,
    "long": -122.267284,
    "neighborhood": "Seward Park",
    "neighborhoodGroup": "Southeast",
    "units": "E28"
  },
  {
    "id_str": "F210010936",
    "created_at": "2/2/2021 4:55:37 PM",
    "timestamp": 1612313737000,
    "description": "Aid Response",
    "address": "222 Wall St",
    "active": false,
    "unitCount": 1,
    "severity": 0,
    "lat": 47.61551,
    "long": -122.347694,
    "neighborhood": "Belltown",
    "neighborhoodGroup": "Downtown",
    "units": "A4"
  },
  {
    "id_str": "F210010935",
    "created_at": "2/2/2021 4:52:03 PM",
    "timestamp": 1612313523000,
    "description": "Aid Response",
    "address": "3402 Claremont Ave S",
    "active": false,
    "unitCount": 1,
    "severity": 0,
    "lat": 47.572493,
    "long": -122.295164,
    "neighborhood": "Columbia City",
    "neighborhoodGroup": "Southeast",
    "units": "E30"
  },
  {
    "id_str": "F210010934",
    "created_at": "2/2/2021 4:46:16 PM",
    "timestamp": 1612313176000,
    "description": "Aid Response",
    "address": "3711 S Chicago St",
    "active": false,
    "unitCount": 1,
    "severity": 0,
    "lat": 47.532332,
    "long": -122.28582,
    "neighborhood": "South Beacon Hill/NewHolly",
    "neighborhoodGroup": "Greater Duwamish",
    "units": "E33"
  },
  {
    "id_str": "F210010933",
    "created_at": "2/2/2021 4:36:10 PM",
    "timestamp": 1612312570000,
    "description": "Aid Response",
    "address": "5206 Wallingford Ave N",
    "active": false,
    "unitCount": 1,
    "severity": 0,
    "lat": 47.666533,
    "long": -122.336397,
    "neighborhood": "Green Lake",
    "neighborhoodGroup": "Northwest",
    "units": "E17"
  },
  {
    "id_str": "F210010932",
    "created_at": "2/2/2021 4:21:42 PM",
    "timestamp": 1612311702000,
    "description": "Aid Response",
    "address": "2947 Eastlake Av E",
    "active": false,
    "unitCount": 2,
    "severity": 0,
    "lat": 47.64771,
    "long": -122.324267,
    "neighborhood": "Montlake/Portage Bay",
    "neighborhoodGroup": "Northeast",
    "units": "B6 E22"
  },
  {
    "id_str": "F210010931",
    "created_at": "2/2/2021 4:17:58 PM",
    "timestamp": 1612311478000,
    "description": "Medic Response",
    "address": "825 Eastlake Av E",
    "active": false,
    "unitCount": 3,
    "severity": 0,
    "lat": 47.626215,
    "long": -122.329199,
    "neighborhood": "Cascade/Eastlake",
    "neighborhoodGroup": "Lake Union",
    "units": "A2 A4 M10"
  },
  {
    "id_str": "F210010930",
    "created_at": "2/2/2021 4:17:08 PM",
    "timestamp": 1612311428000,
    "description": "Aid Response",
    "address": "8406 37th Ave S",
    "active": false,
    "unitCount": 1,
    "severity": 0,
    "lat": 47.527826,
    "long": -122.285957,
    "neighborhood": "South Beacon Hill/NewHolly",
    "neighborhoodGroup": "Greater Duwamish",
    "units": "E33"
  },
  {
    "id_str": "F210010928",
    "created_at": "2/2/2021 4:09:54 PM",
    "timestamp": 1612310994000,
    "description": "Aid Response",
    "address": "500 5th Av",
    "active": false,
    "unitCount": 1,
    "severity": 0,
    "lat": 47.602985,
    "long": -122.328535,
    "neighborhood": "First Hill",
    "neighborhoodGroup": "East",
    "units": "A10"
  },
  {
    "id_str": "F210010926",
    "created_at": "2/2/2021 4:09:01 PM",
    "timestamp": 1612310941000,
    "description": "Medic Response",
    "address": "607 3rd Av",
    "active": false,
    "unitCount": 2,
    "severity": 0,
    "lat": 47.602813,
    "long": -122.331449,
    "neighborhood": "Downtown Commercial Core",
    "neighborhoodGroup": "Downtown",
    "units": "A5 M1"
  },
  {
    "id_str": "F210010923",
    "created_at": "2/2/2021 4:03:38 PM",
    "timestamp": 1612310618000,
    "description": "MVI - Motor Vehicle Incident",
    "address": "32nd Ave Nw / Nw 65th St",
    "active": false,
    "unitCount": 1,
    "severity": 0,
    "lat": 47.675825,
    "long": -122.398366,
    "neighborhood": "Sunset Hill/Loyal Heights",
    "neighborhoodGroup": "Ballard",
    "units": "E18"
  }
]