[
  {
    "id_str": "F210089072",
    "created_at": "8/17/2021 4:51:54 PM",
    "timestamp": 1629244314000,
    "description": "Aid Response",
    "address": "N 105th St / Aurora Ave N",
    "active": false,
    "unitCount": 1,
    "severity": 0,
    "lat": 47.705051,
    "long": -122.344694,
    "neighborhood": "Licton Springs",
    "neighborhoodGroup": "Northwest",
    "units": "E24"
  },
  {
    "id_str": "F210089071",
    "created_at": "8/17/2021 4:49:58 PM",
    "timestamp": 1629244198000,
    "description": "Medic Response",
    "address": "303 10th Ave",
    "active": false,
    "unitCount": 2,
    "severity": 0,
    "lat": 47.604377,
    "long": -122.319411,
    "neighborhood": "First Hill",
    "neighborhoodGroup": "East",
    "units": "A10 M10"
  },
  {
    "id_str": "F210089070",
    "created_at": "8/17/2021 4:45:08 PM",
    "timestamp": 1629243908000,
    "description": "Aid Response",
    "address": "MONTLAKE BLVD E / E LAKE WASHINGTON BLVD",
    "active": false,
    "unitCount": 1,
    "severity": 0,
    "lat": 47.643961,
    "long": -122.304098,
    "neighborhood": "Montlake/Portage Bay",
    "neighborhoodGroup": "Northeast",
    "units": "E22"
  },
  {
    "id_str": "F210089069",
    "created_at": "8/17/2021 4:43:52 PM",
    "timestamp": 1629243832000,
    "description": "Aid Response",
    "address": "1407 2nd Ave W",
    "active": false,
    "unitCount": 1,
    "severity": 0,
    "lat": 47.631378,
    "long": -122.359203,
    "neighborhood": "Queen Anne",
    "neighborhoodGroup": "Magnolia/Queen Anne",
    "units": "E8"
  },
  {
    "id_str": "F210089068",
    "created_at": "8/17/2021 4:42:51 PM",
    "timestamp": 1629243771000,
    "description": "Low Acuity Response",
    "address": "1431 Minor Ave",
    "active": false,
    "unitCount": 1,
    "severity": 0,
    "lat": 47.613247,
    "long": -122.327187,
    "neighborhood": "Capitol Hill",
    "neighborhoodGroup": "East",
    "units": "A25"
  },
  {
    "id_str": "F210089067",
    "created_at": "8/17/2021 4:35:19 PM",
    "timestamp": 1629243319000,
    "description": "Aid Response",
    "address": "601 5th Ave",
    "active": false,
    "unitCount": 1,
    "severity": 0,
    "lat": 47.603698,
    "long": -122.329187,
    "neighborhood": "First Hill",
    "neighborhoodGroup": "East",
    "units": "A5"
  },
  {
    "id_str": "F210089066",
    "created_at": "8/17/2021 4:32:13 PM",
    "timestamp": 1629243133000,
    "description": "Aid Response",
    "address": "10521 Meridian Ave N",
    "active": false,
    "unitCount": 2,
    "severity": 0,
    "lat": 47.705221,
    "long": -122.333933,
    "neighborhood": "Northgate/Maple Leaf",
    "neighborhoodGroup": "North",
    "units": "A31 E24"
  },
  {
    "id_str": "F210089065",
    "created_at": "8/17/2021 4:25:09 PM",
    "timestamp": 1629242709000,
    "description": "Medic Response",
    "address": "2519 1st Ave",
    "active": false,
    "unitCount": 2,
    "severity": 0,
    "lat": 47.614798,
    "long": -122.348918,
    "neighborhood": "Belltown",
    "neighborhoodGroup": "Downtown",
    "units": "A4 M1"
  },
  {
    "id_str": "F210089063",
    "created_at": "8/17/2021 4:23:03 PM",
    "timestamp": 1629242583000,
    "description": "Aid Response",
    "address": "1526 45th Ave Sw",
    "active": false,
    "unitCount": 1,
    "severity": 0,
    "lat": 47.590302,
    "long": -122.388909,
    "neighborhood": "Alki/Admiral",
    "neighborhoodGroup": "Southwest",
    "units": "E29"
  },
  {
    "id_str": "F210089062",
    "created_at": "8/17/2021 4:21:56 PM",
    "timestamp": 1629242516000,
    "description": "Aid Response",
    "address": "3604 26th Pl W",
    "active": false,
    "unitCount": 1,
    "severity": 0,
    "lat": 47.652198,
    "long": -122.388781,
    "neighborhood": "Interbay",
    "neighborhoodGroup": "Magnolia/Queen Anne",
    "units": "E20"
  },
  {
    "id_str": "F210089061",
    "created_at": "8/17/2021 4:21:00 PM",
    "timestamp": 1629242460000,
    "description": "Aid Response",
    "address": "12546 33rd Ave Ne",
    "active": false,
    "unitCount": 2,
    "severity": 0,
    "lat": 47.719585,
    "long": -122.292729,
    "neighborhood": "Cedar Park/Meadowbrook",
    "neighborhoodGroup": "North",
    "units": "E39 L5"
  },
  {
    "id_str": "F210089060",
    "created_at": "8/17/2021 4:18:58 PM",
    "timestamp": 1629242338000,
    "description": "Fire in Building",
    "address": "4137 LEXINGTON PL S",
    "active": false,
    "unitCount": 19,
    "severity": 2,
    "lat": 47.564473,
    "long": -122.291597,
    "neighborhood": "Columbia City",
    "neighborhoodGroup": "Southeast",
    "units": "A10 AIR10 B2 B5 DEP1 E13 E27 E28 E30 E6 L1 L12 L3 M28 M44 MAR5 REHAB1 SAFT2 STAF10"
  },
  {
    "id_str": "F210089059",
    "created_at": "8/17/2021 4:17:45 PM",
    "timestamp": 1629242265000,
    "description": "Low Acuity Response",
    "address": "419 Queen Anne Ave N",
    "active": false,
    "unitCount": 2,
    "severity": 0,
    "lat": 47.622323,
    "long": -122.356727,
    "neighborhood": "Queen Anne",
    "neighborhoodGroup": "Magnolia/Queen Anne",
    "units": "H1 H2"
  },
  {
    "id_str": "F210089058",
    "created_at": "8/17/2021 4:14:01 PM",
    "timestamp": 1629242041000,
    "description": "Aid Response",
    "address": "801 12th Ave",
    "active": false,
    "unitCount": 2,
    "severity": 0,
    "lat": 47.609227,
    "long": -122.31678,
    "neighborhood": "First Hill",
    "neighborhoodGroup": "East",
    "units": "E25 L10"
  },
  {
    "id_str": "F210089055",
    "created_at": "8/17/2021 4:12:45 PM",
    "timestamp": 1629241965000,
    "description": "Aid Response",
    "address": "10049 College Way N",
    "active": false,
    "unitCount": 1,
    "severity": 0,
    "lat": 47.701742,
    "long": -122.335029,
    "neighborhood": "Licton Springs",
    "neighborhoodGroup": "Northwest",
    "units": "A31"
  },
  {
    "id_str": "F210089054",
    "created_at": "8/17/2021 4:06:39 PM",
    "timestamp": 1629241599000,
    "description": "Aid Response",
    "address": "1502 Lake Washington Blvd E",
    "active": false,
    "unitCount": 1,
    "severity": 0,
    "lat": 47.632377,
    "long": -122.297075,
    "neighborhood": "Montlake/Portage Bay",
    "neighborhoodGroup": "Northeast",
    "units": "E22"
  },
  {
    "id_str": "F210089052",
    "created_at": "8/17/2021 4:03:31 PM",
    "timestamp": 1629241411000,
    "description": "Rubbish Fire",
    "address": "E Mercer St / 15th Ave E",
    "active": false,
    "unitCount": 1,
    "severity": 0,
    "lat": 47.624249,
    "long": -122.312607,
    "neighborhood": "Miller Park",
    "neighborhoodGroup": "East",
    "units": "E25"
  },
  {
    "id_str": "F210089053",
    "created_at": "8/17/2021 4:02:10 PM",
    "timestamp": 1629241330000,
    "description": "Investigate Out Of Service",
    "address": "7523 33rd Ave Nw",
    "active": false,
    "unitCount": 1,
    "severity": 0,
    "lat": 47.683322,
    "long": -122.399358,
    "neighborhood": "Sunset Hill/Loyal Heights",
    "neighborhoodGroup": "Ballard",
    "units": "E35"
  },
  {
    "id_str": "F210089049",
    "created_at": "8/17/2021 3:55:40 PM",
    "timestamp": 1629240940000,
    "description": "Aid Response",
    "address": "1211 E Boston St",
    "active": false,
    "unitCount": 1,
    "severity": 0,
    "lat": 47.638292,
    "long": -122.317171,
    "neighborhood": "North Capitol Hill",
    "neighborhoodGroup": "East",
    "units": "E22"
  },
  {
    "id_str": "F210089050",
    "created_at": "8/17/2021 3:55:24 PM",
    "timestamp": 1629240924000,
    "description": "Aid Response",
    "address": "1550 4th Ave S",
    "active": false,
    "unitCount": 2,
    "severity": 0,
    "lat": 47.589111,
    "long": -122.329046,
    "neighborhood": "Duwamish/SODO",
    "neighborhoodGroup": "Greater Duwamish",
    "units": "A10 A5"
  },
  {
    "id_str": "F210089048",
    "created_at": "8/17/2021 3:53:06 PM",
    "timestamp": 1629240786000,
    "description": "Aid Response",
    "address": "555 16th Ave",
    "active": false,
    "unitCount": 1,
    "severity": 0,
    "lat": 47.606687,
    "long": -122.31155,
    "neighborhood": "Central Area/Squire Park",
    "neighborhoodGroup": "Central",
    "units": "A25"
  },
  {
    "id_str": "F210089047",
    "created_at": "8/17/2021 3:46:14 PM",
    "timestamp": 1629240374000,
    "description": "Advised Incident",
    "address": "16th Ave Ne / Ne 45th St",
    "active": false,
    "unitCount": 1,
    "severity": 0,
    "lat": 47.661261,
    "long": -122.310857,
    "neighborhood": "University District",
    "neighborhoodGroup": "Northeast",
    "units": "E17"
  },
  {
    "id_str": "F210089045",
    "created_at": "8/17/2021 3:45:34 PM",
    "timestamp": 1629240334000,
    "description": "AFA4 - Auto Alarm 2 + 1 + 1",
    "address": "1818 E Madison St",
    "active": false,
    "unitCount": 4,
    "severity": 0,
    "lat": 47.616245,
    "long": -122.308579,
    "neighborhood": "Central Area/Squire Park",
    "neighborhoodGroup": "Central",
    "units": "B2 E25 E34 L10"
  },
  {
    "id_str": "F210089046",
    "created_at": "8/17/2021 3:45:28 PM",
    "timestamp": 1629240328000,
    "description": "Aid Response",
    "address": "831 6th Ave S",
    "active": false,
    "unitCount": 1,
    "severity": 0,
    "lat": 47.595614,
    "long": -122.326375,
    "neighborhood": "Duwamish/SODO",
    "neighborhoodGroup": "Greater Duwamish",
    "units": "A10"
  },
  {
    "id_str": "F210089043",
    "created_at": "8/17/2021 3:38:49 PM",
    "timestamp": 1629239929000,
    "description": "Aid Response",
    "address": "3204 Sw Morgan St",
    "active": false,
    "unitCount": 1,
    "severity": 0,
    "lat": 47.544669,
    "long": -122.373777,
    "neighborhood": "High Point",
    "neighborhoodGroup": "Delridge Neighborhoods",
    "units": "E37"
  },
  {
    "id_str": "F210089042",
    "created_at": "8/17/2021 3:32:28 PM",
    "timestamp": 1629239548000,
    "description": "Aid Response",
    "address": "3610 33rd Ave S",
    "active": false,
    "unitCount": 1,
    "severity": 0,
    "lat": 47.571499,
    "long": -122.290999,
    "neighborhood": "Columbia City",
    "neighborhoodGroup": "Southeast",
    "units": "E30"
  },
  {
    "id_str": "F210089040",
    "created_at": "8/17/2021 3:31:53 PM",
    "timestamp": 1629239513000,
    "description": "Aid Response",
    "address": "829 Ne 67th St",
    "active": false,
    "unitCount": 1,
    "severity": 0,
    "lat": 47.677305,
    "long": -122.319698,
    "neighborhood": "Green Lake",
    "neighborhoodGroup": "Northwest",
    "units": "E16"
  },
  {
    "id_str": "F210089039",
    "created_at": "8/17/2021 3:30:26 PM",
    "timestamp": 1629239426000,
    "description": "Low Acuity Response",
    "address": "212 Alaskan Way S",
    "active": false,
    "unitCount": 1,
    "severity": 0,
    "lat": 47.600591,
    "long": -122.335915,
    "neighborhood": "Pioneer Square/International District",
    "neighborhoodGroup": "Downtown",
    "units": "H2"
  },
  {
    "id_str": "F210089038",
    "created_at": "8/17/2021 3:21:08 PM",
    "timestamp": 1629238868000,
    "description": "Medic Response",
    "address": "801 Alaskan Way",
    "active": false,
    "unitCount": 2,
    "severity": 0,
    "lat": 47.602348,
    "long": -122.337148,
    "neighborhood": "Downtown Commercial Core",
    "neighborhoodGroup": "Downtown",
    "units": "E5 M10"
  },
  {
    "id_str": "F210089037",
    "created_at": "8/17/2021 3:18:13 PM",
    "timestamp": 1629238693000,
    "description": "Illegal Burn",
    "address": "6th Ave / Cherry St",
    "active": false,
    "unitCount": 1,
    "severity": 0,
    "lat": 47.604876,
    "long": -122.328734,
    "neighborhood": "First Hill",
    "neighborhoodGroup": "East",
    "units": "E10"
  },
  {
    "id_str": "F210089035",
    "created_at": "8/17/2021 3:08:44 PM",
    "timestamp": 1629238124000,
    "description": "Aid Response",
    "address": "255 S King St",
    "active": false,
    "unitCount": 1,
    "severity": 0,
    "lat": 47.598287,
    "long": -122.330894,
    "neighborhood": "Duwamish/SODO",
    "neighborhoodGroup": "Greater Duwamish",
    "units": "A5"
  },
  {
    "id_str": "F210089034",
    "created_at": "8/17/2021 3:04:21 PM",
    "timestamp": 1629237861000,
    "description": "Aid Response",
    "address": "2445 Nw 57th St",
    "active": false,
    "unitCount": 1,
    "severity": 0,
    "lat": 47.670187,
    "long": -122.388155,
    "neighborhood": "Sunset Hill/Loyal Heights",
    "neighborhoodGroup": "Ballard",
    "units": "E18"
  },
  {
    "id_str": "F210089032",
    "created_at": "8/17/2021 3:03:22 PM",
    "timestamp": 1629237802000,
    "description": "Aid Response",
    "address": "1521 10th Ave",
    "active": false,
    "unitCount": 1,
    "severity": 0,
    "lat": 47.614322,
    "long": -122.319451,
    "neighborhood": "Capitol Hill",
    "neighborhoodGroup": "East",
    "units": "A25"
  },
  {
    "id_str": "F210089031",
    "created_at": "8/17/2021 2:56:49 PM",
    "timestamp": 1629237409000,
    "description": "Aid Response",
    "address": "4200 Sw Edmunds St",
    "active": false,
    "unitCount": 1,
    "severity": 0,
    "lat": 47.559319,
    "long": -122.385509,
    "neighborhood": "West Seattle Junction/Genesee Hill",
    "neighborhoodGroup": "Southwest",
    "units": "E32"
  },
  {
    "id_str": "F210089030",
    "created_at": "8/17/2021 2:54:51 PM",
    "timestamp": 1629237291000,
    "description": "Aid Response",
    "address": "2900 3rd Ave W",
    "active": false,
    "unitCount": 1,
    "severity": 0,
    "lat": 47.645803,
    "long": -122.360896,
    "neighborhood": "Queen Anne",
    "neighborhoodGroup": "Magnolia/Queen Anne",
    "units": "E9"
  },
  {
    "id_str": "F210089028",
    "created_at": "8/17/2021 2:50:20 PM",
    "timestamp": 1629237020000,
    "description": "Aid Response",
    "address": "2320 4th Ave",
    "active": false,
    "unitCount": 2,
    "severity": 0,
    "lat": 47.615516,
    "long": -122.344184,
    "neighborhood": "Cascade/Eastlake",
    "neighborhoodGroup": "Lake Union",
    "units": "A4 H2"
  },
  {
    "id_str": "F210089027",
    "created_at": "8/17/2021 2:50:05 PM",
    "timestamp": 1629237005000,
    "description": "Aid Response",
    "address": "118 Bell St",
    "active": false,
    "unitCount": 2,
    "severity": 0,
    "lat": 47.613497,
    "long": -122.346355,
    "neighborhood": "Belltown",
    "neighborhoodGroup": "Downtown",
    "units": "A2 A4"
  },
  {
    "id_str": "F210089026",
    "created_at": "8/17/2021 2:45:39 PM",
    "timestamp": 1629236739000,
    "description": "Rescue Elevator",
    "address": "221 18th Ave S",
    "active": false,
    "unitCount": 1,
    "severity": 0,
    "lat": 47.600659,
    "long": -122.308964,
    "neighborhood": "Judkins Park",
    "neighborhoodGroup": "Central",
    "units": "L3"
  },
  {
    "id_str": "F210089025",
    "created_at": "8/17/2021 2:44:48 PM",
    "timestamp": 1629236688000,
    "description": "Aid Response",
    "address": "8606 35th Ave Ne",
    "active": false,
    "unitCount": 1,
    "severity": 0,
    "lat": 47.690963,
    "long": -122.290694,
    "neighborhood": "Wedgwood/View Ridge",
    "neighborhoodGroup": "Northeast",
    "units": "E38"
  },
  {
    "id_str": "F210089024",
    "created_at": "8/17/2021 2:42:55 PM",
    "timestamp": 1629236575000,
    "description": "Aid Response",
    "address": "5411 S Roxbury St",
    "active": false,
    "unitCount": 1,
    "severity": 0,
    "lat": 47.516822,
    "long": -122.26503,
    "neighborhood": "Rainier Beach",
    "neighborhoodGroup": "Southeast",
    "units": "E33"
  },
  {
    "id_str": "F210089021",
    "created_at": "8/17/2021 2:30:19 PM",
    "timestamp": 1629235819000,
    "description": "Brush Fire",
    "address": "37th Ave S / S Myrtle St",
    "active": false,
    "unitCount": 1,
    "severity": 0,
    "lat": 47.538878,
    "long": -122.286096,
    "neighborhood": "South Beacon Hill/NewHolly",
    "neighborhoodGroup": "Greater Duwamish",
    "units": "E28"
  },
  {
    "id_str": "F210089020",
    "created_at": "8/17/2021 2:25:48 PM",
    "timestamp": 1629235548000,
    "description": "4RED - 2 + 1 + 1",
    "address": "12040 28TH AVE NE",
    "active": false,
    "unitCount": 4,
    "severity": 0,
    "lat": 47.715863,
    "long": -122.298022,
    "neighborhood": "Olympic Hills/Victory Heights",
    "neighborhoodGroup": "North",
    "units": "B6 E39 E40 L5"
  },
  {
    "id_str": "F210089019",
    "created_at": "8/17/2021 2:09:57 PM",
    "timestamp": 1629234597000,
    "description": "Low Acuity Response",
    "address": "13000 Linden Ave N",
    "active": false,
    "unitCount": 1,
    "severity": 0,
    "lat": 47.723218,
    "long": -122.348195,
    "neighborhood": "Broadview/Bitter Lake",
    "neighborhoodGroup": "Northwest",
    "units": "H1"
  },
  {
    "id_str": "F210089017",
    "created_at": "8/17/2021 2:03:50 PM",
    "timestamp": 1629234230000,
    "description": "Medic Response",
    "address": "1700 17th Ave",
    "active": false,
    "unitCount": 2,
    "severity": 0,
    "lat": 47.616443,
    "long": -122.310151,
    "neighborhood": "Central Area/Squire Park",
    "neighborhoodGroup": "Central",
    "units": "A25 M10"
  },
  {
    "id_str": "F210089015",
    "created_at": "8/17/2021 1:59:42 PM",
    "timestamp": 1629233982000,
    "description": "Aid Response",
    "address": "4201 Roosevelt Way Ne",
    "active": false,
    "unitCount": 1,
    "severity": 0,
    "lat": 47.657514,
    "long": -122.317802,
    "neighborhood": "Wallingford",
    "neighborhoodGroup": "Lake Union",
    "units": "E31"
  },
  {
    "id_str": "F210089013",
    "created_at": "8/17/2021 1:55:59 PM",
    "timestamp": 1629233759000,
    "description": "Aid Response",
    "address": "7312 8th Ave Nw",
    "active": false,
    "unitCount": 1,
    "severity": 0,
    "lat": 47.68187,
    "long": -122.366013,
    "neighborhood": "Greenwood/Phinney Ridge",
    "neighborhoodGroup": "Northwest",
    "units": "E21"
  },
  {
    "id_str": "F210089012",
    "created_at": "8/17/2021 1:53:04 PM",
    "timestamp": 1629233584000,
    "description": "Aid Response",
    "address": "801 E HARRISON ST",
    "active": false,
    "unitCount": 1,
    "severity": 0,
    "lat": 47.620884,
    "long": -122.341076,
    "neighborhood": "Cascade/Eastlake",
    "neighborhoodGroup": "Lake Union",
    "units": "A4"
  },
  {
    "id_str": "F210089011",
    "created_at": "8/17/2021 1:51:21 PM",
    "timestamp": 1629233481000,
    "description": "Aid Response",
    "address": "7519 45th Ave S",
    "active": false,
    "unitCount": 1,
    "severity": 0,
    "lat": 47.535046,
    "long": -122.276565,
    "neighborhood": "Columbia City",
    "neighborhoodGroup": "Southeast",
    "units": "E28"
  },
  {
    "id_str": "F210089010",
    "created_at": "8/17/2021 1:45:05 PM",
    "timestamp": 1629233105000,
    "description": "Aid Response",
    "address": "9329 31ST PL SW",
    "active": false,
    "unitCount": 3,
    "severity": 0,
    "lat": 47.519576,
    "long": -122.373401,
    "neighborhood": "Roxhill/Westwood",
    "neighborhoodGroup": "Delridge Neighborhoods",
    "units": "CHAP5 CHAP7 E37"
  },
  {
    "id_str": "F210089009",
    "created_at": "8/17/2021 1:39:36 PM",
    "timestamp": 1629232776000,
    "description": "Aid Response",
    "address": "2225 4th Ave",
    "active": false,
    "unitCount": 1,
    "severity": 0,
    "lat": 47.614788,
    "long": -122.342952,
    "neighborhood": "Cascade/Eastlake",
    "neighborhoodGroup": "Lake Union",
    "units": "A4"
  },
  {
    "id_str": "F210089008",
    "created_at": "8/17/2021 1:36:05 PM",
    "timestamp": 1629232565000,
    "description": "Aid Response",
    "address": "4616 M L King Jr Way S",
    "active": false,
    "unitCount": 2,
    "severity": 0,
    "lat": 47.561674,
    "long": -122.293783,
    "neighborhood": "Columbia City",
    "neighborhoodGroup": "Southeast",
    "units": "E28 E30"
  },
  {
    "id_str": "F210089007",
    "created_at": "8/17/2021 1:35:34 PM",
    "timestamp": 1629232534000,
    "description": "Medic Response",
    "address": "308 4th Ave S",
    "active": false,
    "unitCount": 2,
    "severity": 0,
    "lat": 47.599968,
    "long": -122.328965,
    "neighborhood": "Pioneer Square/International District",
    "neighborhoodGroup": "Downtown",
    "units": "A10 M1"
  },
  {
    "id_str": "F210089006",
    "created_at": "8/17/2021 1:31:45 PM",
    "timestamp": 1629232305000,
    "description": "Low Acuity Response",
    "address": "9th Ave Ne / Ne 50th St",
    "active": false,
    "unitCount": 1,
    "severity": 0,
    "lat": 47.664944,
    "long": -122.318438,
    "neighborhood": "Wallingford",
    "neighborhoodGroup": "Lake Union",
    "units": "H1"
  },
  {
    "id_str": "F210089005",
    "created_at": "8/17/2021 1:29:22 PM",
    "timestamp": 1629232162000,
    "description": "Aid Response",
    "address": "Western Ave / Yesler Way",
    "active": false,
    "unitCount": 1,
    "severity": 0,
    "lat": 47.601722,
    "long": -122.335549,
    "neighborhood": "Downtown Commercial Core",
    "neighborhoodGroup": "Downtown",
    "units": "A5"
  },
  {
    "id_str": "F210089004",
    "created_at": "8/17/2021 1:19:39 PM",
    "timestamp": 1629231579000,
    "description": "Aid Response",
    "address": "Western Ave / Yesler Way",
    "active": false,
    "unitCount": 1,
    "severity": 0,
    "lat": 47.601722,
    "long": -122.335549,
    "neighborhood": "Downtown Commercial Core",
    "neighborhoodGroup": "Downtown",
    "units": "A5"
  },
  {
    "id_str": "F210089000",
    "created_at": "8/17/2021 1:14:20 PM",
    "timestamp": 1629231260000,
    "description": "Low Acuity Response",
    "address": "190 Queen Anne Ave N",
    "active": false,
    "unitCount": 1,
    "severity": 0,
    "lat": 47.619666,
    "long": -122.356748,
    "neighborhood": "Queen Anne",
    "neighborhoodGroup": "Magnolia/Queen Anne",
    "units": "H2"
  },
  {
    "id_str": "F210088998",
    "created_at": "8/17/2021 1:05:01 PM",
    "timestamp": 1629230701000,
    "description": "Aid Response",
    "address": "4245 Roosevelt Way Ne",
    "active": false,
    "unitCount": 1,
    "severity": 0,
    "lat": 47.658298,
    "long": -122.317782,
    "neighborhood": "Wallingford",
    "neighborhoodGroup": "Lake Union",
    "units": "E17"
  },
  {
    "id_str": "F210088997",
    "created_at": "8/17/2021 12:47:19 PM",
    "timestamp": 1629229639000,
    "description": "Natural Gas Odor",
    "address": "9251 12th Ave Sw",
    "active": false,
    "unitCount": 1,
    "severity": 0,
    "lat": 47.520531,
    "long": -122.350635,
    "neighborhood": "Highland Park",
    "neighborhoodGroup": "Delridge Neighborhoods",
    "units": "L13"
  },
  {
    "id_str": "F210088996",
    "created_at": "8/17/2021 12:45:41 PM",
    "timestamp": 1629229541000,
    "description": "Aid Response",
    "address": "6420 California Ave Sw",
    "active": false,
    "unitCount": 1,
    "severity": 0,
    "lat": 47.545436,
    "long": -122.387209,
    "neighborhood": "Fauntleroy/Seaview",
    "neighborhoodGroup": "Southwest",
    "units": "E32"
  },
  {
    "id_str": "F210088995",
    "created_at": "8/17/2021 12:39:37 PM",
    "timestamp": 1629229177000,
    "description": "Medic Response",
    "address": "811 Maynard Ave S",
    "active": false,
    "unitCount": 2,
    "severity": 0,
    "lat": 47.595741,
    "long": -122.325068,
    "neighborhood": "Duwamish/SODO",
    "neighborhoodGroup": "Greater Duwamish",
    "units": "A5 M10"
  },
  {
    "id_str": "F210088993",
    "created_at": "8/17/2021 12:24:40 PM",
    "timestamp": 1629228280000,
    "description": "Aid Response",
    "address": "1700 17th Ave",
    "active": false,
    "unitCount": 1,
    "severity": 0,
    "lat": 47.616443,
    "long": -122.310151,
    "neighborhood": "Central Area/Squire Park",
    "neighborhoodGroup": "Central",
    "units": "A25"
  },
  {
    "id_str": "F210088992",
    "created_at": "8/17/2021 12:23:07 PM",
    "timestamp": 1629228187000,
    "description": "Aid Response",
    "address": "11032 39TH AVE NE",
    "active": false,
    "unitCount": 2,
    "severity": 0,
    "lat": 47.708478,
    "long": -122.286736,
    "neighborhood": "Cedar Park/Meadowbrook",
    "neighborhoodGroup": "North",
    "units": "L5 M17"
  },
  {
    "id_str": "F210088991",
    "created_at": "8/17/2021 12:14:26 PM",
    "timestamp": 1629227666000,
    "description": "Aid Response",
    "address": "90 Pike St",
    "active": false,
    "unitCount": 1,
    "severity": 0,
    "lat": 47.608629,
    "long": -122.340472,
    "neighborhood": "Downtown Commercial Core",
    "neighborhoodGroup": "Downtown",
    "units": "A4"
  },
  {
    "id_str": "F210088990",
    "created_at": "8/17/2021 12:12:47 PM",
    "timestamp": 1629227567000,
    "description": "Aid Response",
    "address": "5th Ave S / S Jackson St",
    "active": false,
    "unitCount": 1,
    "severity": 0,
    "lat": 47.599195,
    "long": -122.327667,
    "neighborhood": "Pioneer Square/International District",
    "neighborhoodGroup": "Downtown",
    "units": "A10"
  },
  {
    "id_str": "F210088989",
    "created_at": "8/17/2021 11:56:03 AM",
    "timestamp": 1629226563000,
    "description": "Aid Response",
    "address": "2139 N 140th St",
    "active": false,
    "unitCount": 1,
    "severity": 0,
    "lat": 47.730489,
    "long": -122.333654,
    "neighborhood": "Haller Lake",
    "neighborhoodGroup": "Northwest",
    "units": "E39"
  },
  {
    "id_str": "F210088988",
    "created_at": "8/17/2021 11:54:35 AM",
    "timestamp": 1629226475000,
    "description": "Aid Response",
    "address": "12313 36th Ave Ne",
    "active": false,
    "unitCount": 1,
    "severity": 0,
    "lat": 47.717446,
    "long": -122.289309,
    "neighborhood": "Cedar Park/Meadowbrook",
    "neighborhoodGroup": "North",
    "units": "L5"
  },
  {
    "id_str": "F210088987",
    "created_at": "8/17/2021 11:53:33 AM",
    "timestamp": 1629226413000,
    "description": "Low Acuity Response",
    "address": "3204 Sw Morgan St",
    "active": false,
    "unitCount": 1,
    "severity": 0,
    "lat": 47.544669,
    "long": -122.373777,
    "neighborhood": "High Point",
    "neighborhoodGroup": "Delridge Neighborhoods",
    "units": "L13"
  },
  {
    "id_str": "F210088986",
    "created_at": "8/17/2021 11:52:13 AM",
    "timestamp": 1629226333000,
    "description": "Aid Response",
    "address": "6720 East Green Lake Way N",
    "active": false,
    "unitCount": 1,
    "severity": 0,
    "lat": 47.67834,
    "long": -122.32895,
    "neighborhood": "Green Lake",
    "neighborhoodGroup": "Northwest",
    "units": "E31"
  },
  {
    "id_str": "F210088985",
    "created_at": "8/17/2021 11:48:57 AM",
    "timestamp": 1629226137000,
    "description": "Aid Response",
    "address": "4502 Sw Wildwood Pl",
    "active": false,
    "unitCount": 1,
    "severity": 0,
    "lat": 47.52079,
    "long": -122.390232,
    "neighborhood": "Fauntleroy/Seaview",
    "neighborhoodGroup": "Southwest",
    "units": "E37"
  },
  {
    "id_str": "F210088984",
    "created_at": "8/17/2021 11:43:40 AM",
    "timestamp": 1629225820000,
    "description": "Rescue Elevator",
    "address": "5650 24th Ave Nw",
    "active": false,
    "unitCount": 1,
    "severity": 0,
    "lat": 47.669822,
    "long": -122.387587,
    "neighborhood": "Sunset Hill/Loyal Heights",
    "neighborhoodGroup": "Ballard",
    "units": "L8"
  },
  {
    "id_str": "F210088983",
    "created_at": "8/17/2021 11:41:11 AM",
    "timestamp": 1629225671000,
    "description": "Aid Response",
    "address": "N 46th St / Fremont Ave N",
    "active": false,
    "unitCount": 1,
    "severity": 0,
    "lat": 47.662136,
    "long": -122.350034,
    "neighborhood": "Fremont",
    "neighborhoodGroup": "Lake Union",
    "units": "E9"
  },
  {
    "id_str": "F210088981",
    "created_at": "8/17/2021 11:26:16 AM",
    "timestamp": 1629224776000,
    "description": "Aid Response",
    "address": "525 14th Ave E",
    "active": false,
    "unitCount": 1,
    "severity": 0,
    "lat": 47.623391,
    "long": -122.314649,
    "neighborhood": "Capitol Hill",
    "neighborhoodGroup": "East",
    "units": "A25"
  },
  {
    "id_str": "F210088979",
    "created_at": "8/17/2021 11:16:35 AM",
    "timestamp": 1629224195000,
    "description": "Aid Response",
    "address": "919 Stewart St",
    "active": false,
    "unitCount": 1,
    "severity": 0,
    "lat": 47.615745,
    "long": -122.334269,
    "neighborhood": "Cascade/Eastlake",
    "neighborhoodGroup": "Lake Union",
    "units": "L4"
  },
  {
    "id_str": "F210088978",
    "created_at": "8/17/2021 11:09:56 AM",
    "timestamp": 1629223796000,
    "description": "Aid Response",
    "address": "2743 California Ave Sw",
    "active": false,
    "unitCount": 2,
    "severity": 0,
    "lat": 47.578121,
    "long": -122.386668,
    "neighborhood": "West Seattle Junction/Genesee Hill",
    "neighborhoodGroup": "Southwest",
    "units": "E29 M32"
  },
  {
    "id_str": "F210088977",
    "created_at": "8/17/2021 11:08:29 AM",
    "timestamp": 1629223709000,
    "description": "Aid Response",
    "address": "12040 28th Ave Ne",
    "active": false,
    "unitCount": 1,
    "severity": 0,
    "lat": 47.715863,
    "long": -122.298022,
    "neighborhood": "Olympic Hills/Victory Heights",
    "neighborhoodGroup": "North",
    "units": "L5"
  },
  {
    "id_str": "F210088976",
    "created_at": "8/17/2021 11:07:42 AM",
    "timestamp": 1629223662000,
    "description": "Aid Response",
    "address": "600 5th Ave S",
    "active": false,
    "unitCount": 1,
    "severity": 0,
    "lat": 47.597517,
    "long": -122.327675,
    "neighborhood": "Pioneer Square/International District",
    "neighborhoodGroup": "Downtown",
    "units": "A5"
  },
  {
    "id_str": "F210088975",
    "created_at": "8/17/2021 11:06:44 AM",
    "timestamp": 1629223604000,
    "description": "Auto Fire Alarm",
    "address": "515 Westlake Ave N",
    "active": false,
    "unitCount": 2,
    "severity": 0,
    "lat": 47.623409,
    "long": -122.338444,
    "neighborhood": "Cascade/Eastlake",
    "neighborhoodGroup": "Lake Union",
    "units": "E2 L4"
  },
  {
    "id_str": "F210088973",
    "created_at": "8/17/2021 11:04:16 AM",
    "timestamp": 1629223456000,
    "description": "Low Acuity Response",
    "address": "2001 W Garfield St",
    "active": false,
    "unitCount": 1,
    "severity": 0,
    "lat": 47.633255,
    "long": -122.378853,
    "neighborhood": "Interbay",
    "neighborhoodGroup": "Magnolia/Queen Anne",
    "units": "A4"
  },
  {
    "id_str": "F210088972",
    "created_at": "8/17/2021 11:02:49 AM",
    "timestamp": 1629223369000,
    "description": "Natural Gas Odor",
    "address": "2702 Beacon Ave S",
    "active": false,
    "unitCount": 1,
    "severity": 0,
    "lat": 47.579351,
    "long": -122.312266,
    "neighborhood": "North Beacon Hill/Jefferson Park",
    "neighborhoodGroup": "Greater Duwamish",
    "units": "L3"
  },
  {
    "id_str": "F210088971",
    "created_at": "8/17/2021 11:02:16 AM",
    "timestamp": 1629223336000,
    "description": "Aid Response",
    "address": "4015 Ne 113th St",
    "active": false,
    "unitCount": 1,
    "severity": 0,
    "lat": 47.710114,
    "long": -122.285207,
    "neighborhood": "Cedar Park/Meadowbrook",
    "neighborhoodGroup": "North",
    "units": "E39"
  },
  {
    "id_str": "F210088970",
    "created_at": "8/17/2021 10:54:46 AM",
    "timestamp": 1629222886000,
    "description": "MVI Freeway",
    "address": "Nb I5 Cd At James",
    "active": false,
    "unitCount": 4,
    "severity": 0,
    "lat": 47.603525,
    "long": -122.326315,
    "neighborhood": "First Hill",
    "neighborhoodGroup": "East",
    "units": "A10 E10 E13 E6"
  },
  {
    "id_str": "F210088969",
    "created_at": "8/17/2021 10:46:02 AM",
    "timestamp": 1629222362000,
    "description": "Aid Response",
    "address": "3720 Montlake Blvd Ne",
    "active": false,
    "unitCount": 1,
    "severity": 0,
    "lat": 47.649404,
    "long": -122.304574,
    "neighborhood": "University District",
    "neighborhoodGroup": "Northeast",
    "units": "E40"
  },
  {
    "id_str": "F210088966",
    "created_at": "8/17/2021 10:43:05 AM",
    "timestamp": 1629222185000,
    "description": "Aid Response",
    "address": "4719 12th Ave Ne",
    "active": false,
    "unitCount": 1,
    "severity": 0,
    "lat": 47.663215,
    "long": -122.315262,
    "neighborhood": "University District",
    "neighborhoodGroup": "Northeast",
    "units": "E16"
  },
  {
    "id_str": "F210088965",
    "created_at": "8/17/2021 10:42:48 AM",
    "timestamp": 1629222168000,
    "description": "Medic Response",
    "address": "4468 Linden Ave N",
    "active": false,
    "unitCount": 2,
    "severity": 0,
    "lat": 47.660967,
    "long": -122.348622,
    "neighborhood": "Fremont",
    "neighborhoodGroup": "Lake Union",
    "units": "E9 M18"
  },
  {
    "id_str": "F210088964",
    "created_at": "8/17/2021 10:36:29 AM",
    "timestamp": 1629221789000,
    "description": "Aid Response",
    "address": "824 BROADWAY",
    "active": false,
    "unitCount": 1,
    "severity": 0,
    "lat": 47.609577,
    "long": -122.320757,
    "neighborhood": "First Hill",
    "neighborhoodGroup": "East",
    "units": "A25"
  },
  {
    "id_str": "F210088963",
    "created_at": "8/17/2021 10:35:35 AM",
    "timestamp": 1629221735000,
    "description": "Aid Response",
    "address": "4th Ave S / S Jackson St",
    "active": false,
    "unitCount": 1,
    "severity": 0,
    "lat": 47.599197,
    "long": -122.328968,
    "neighborhood": "Pioneer Square/International District",
    "neighborhoodGroup": "Downtown",
    "units": "A14"
  },
  {
    "id_str": "F210088962",
    "created_at": "8/17/2021 10:32:28 AM",
    "timestamp": 1629221548000,
    "description": "Aid Response",
    "address": "3021 Sw Bradford St",
    "active": false,
    "unitCount": 4,
    "severity": 0,
    "lat": 47.569237,
    "long": -122.371429,
    "neighborhood": "North Delridge",
    "neighborhoodGroup": "Delridge Neighborhoods",
    "units": "B7 E36 L11 M32"
  },
  {
    "id_str": "F210088961",
    "created_at": "8/17/2021 10:31:08 AM",
    "timestamp": 1629221468000,
    "description": "Aid Response",
    "address": "2015 2nd Ave",
    "active": false,
    "unitCount": 1,
    "severity": 0,
    "lat": 47.611843,
    "long": -122.341939,
    "neighborhood": "Belltown",
    "neighborhoodGroup": "Downtown",
    "units": "A2"
  },
  {
    "id_str": "F210088960",
    "created_at": "8/17/2021 10:24:56 AM",
    "timestamp": 1629221096000,
    "description": "Aid Response",
    "address": "80 Stewart St",
    "active": false,
    "unitCount": 1,
    "severity": 0,
    "lat": 47.609799,
    "long": -122.34195,
    "neighborhood": "Downtown Commercial Core",
    "neighborhoodGroup": "Downtown",
    "units": "A4"
  },
  {
    "id_str": "F210088958",
    "created_at": "8/17/2021 10:20:56 AM",
    "timestamp": 1629220856000,
    "description": "Aid Response",
    "address": "8549 Greenwood Ave N",
    "active": false,
    "unitCount": 1,
    "severity": 0,
    "lat": 47.691528,
    "long": -122.355307,
    "neighborhood": "Greenwood/Phinney Ridge",
    "neighborhoodGroup": "Northwest",
    "units": "E35"
  },
  {
    "id_str": "F210088956",
    "created_at": "8/17/2021 10:14:04 AM",
    "timestamp": 1629220444000,
    "description": "Aid Response",
    "address": "5111 S Medley Ct",
    "active": false,
    "unitCount": 1,
    "severity": 0,
    "lat": 47.534287,
    "long": -122.269949,
    "neighborhood": "Seward Park",
    "neighborhoodGroup": "Southeast",
    "units": "L12"
  },
  {
    "id_str": "F210088955",
    "created_at": "8/17/2021 10:11:03 AM",
    "timestamp": 1629220263000,
    "description": "Aid Response",
    "address": "3823 47th Ave Sw",
    "active": false,
    "unitCount": 1,
    "severity": 0,
    "lat": 47.570053,
    "long": -122.392103,
    "neighborhood": "West Seattle Junction/Genesee Hill",
    "neighborhoodGroup": "Southwest",
    "units": "E32"
  },
  {
    "id_str": "F210088954",
    "created_at": "8/17/2021 10:06:42 AM",
    "timestamp": 1629220002000,
    "description": "Auto Fire Alarm",
    "address": "1620 43rd Ave E",
    "active": false,
    "unitCount": 4,
    "severity": 0,
    "lat": 47.633463,
    "long": -122.277157,
    "neighborhood": "Madison Park",
    "neighborhoodGroup": "East",
    "units": "E34 FB3 FIREBOAT L3"
  },
  {
    "id_str": "F210088952",
    "created_at": "8/17/2021 9:48:04 AM",
    "timestamp": 1629218884000,
    "description": "Aid Response",
    "address": "12045 8th Ave Nw",
    "active": false,
    "unitCount": 3,
    "severity": 0,
    "lat": 47.71643,
    "long": -122.366309,
    "neighborhood": "Broadview/Bitter Lake",
    "neighborhoodGroup": "Northwest",
    "units": "E24 E35 M31"
  },
  {
    "id_str": "F210088951",
    "created_at": "8/17/2021 9:44:50 AM",
    "timestamp": 1629218690000,
    "description": "Aid Response",
    "address": "1231 5th Ave N",
    "active": false,
    "unitCount": 1,
    "severity": 0,
    "lat": 47.630591,
    "long": -122.34756,
    "neighborhood": "Queen Anne",
    "neighborhoodGroup": "Magnolia/Queen Anne",
    "units": "E8"
  },
  {
    "id_str": "F210088950",
    "created_at": "8/17/2021 9:40:54 AM",
    "timestamp": 1629218454000,
    "description": "Aid Response",
    "address": "7115 West Marginal Way Sw",
    "active": false,
    "unitCount": 1,
    "severity": 0,
    "lat": 47.539733,
    "long": -122.341178,
    "neighborhood": "Highland Park",
    "neighborhoodGroup": "Delridge Neighborhoods",
    "units": "E36"
  },
  {
    "id_str": "F210088948",
    "created_at": "8/17/2021 9:36:14 AM",
    "timestamp": 1629218174000,
    "description": "MVI - Motor Vehicle Incident",
    "address": "5225 East Marginal Way S",
    "active": false,
    "unitCount": 1,
    "severity": 0,
    "lat": 47.555569,
    "long": -122.338135,
    "neighborhood": "Georgetown",
    "neighborhoodGroup": "Greater Duwamish",
    "units": "E27"
  },
  {
    "id_str": "F210088947",
    "created_at": "8/17/2021 9:34:48 AM",
    "timestamp": 1629218088000,
    "description": "Aid Response",
    "address": "2519 1st Ave",
    "active": false,
    "unitCount": 2,
    "severity": 0,
    "lat": 47.614798,
    "long": -122.348918,
    "neighborhood": "Belltown",
    "neighborhoodGroup": "Downtown",
    "units": "A4 E2"
  },
  {
    "id_str": "F210088946",
    "created_at": "8/17/2021 9:32:01 AM",
    "timestamp": 1629217921000,
    "description": "Aid Response",
    "address": "NE 81ST ST / 31ST AVE NE",
    "active": false,
    "unitCount": 1,
    "severity": 0,
    "lat": 47.68739,
    "long": -122.294957,
    "neighborhood": "Wedgwood/View Ridge",
    "neighborhoodGroup": "Northeast",
    "units": "E40"
  },
  {
    "id_str": "F210088944",
    "created_at": "8/17/2021 9:26:56 AM",
    "timestamp": 1629217616000,
    "description": "Low Acuity Response",
    "address": "1803 S Lane St",
    "active": false,
    "unitCount": 2,
    "severity": 0,
    "lat": 47.596646,
    "long": -122.308936,
    "neighborhood": "Judkins Park",
    "neighborhoodGroup": "Central",
    "units": "E6 L3"
  },
  {
    "id_str": "F210088943",
    "created_at": "8/17/2021 9:23:08 AM",
    "timestamp": 1629217388000,
    "description": "Aid Response",
    "address": "2119 3rd Ave",
    "active": false,
    "unitCount": 1,
    "severity": 0,
    "lat": 47.613308,
    "long": -122.342432,
    "neighborhood": "Cascade/Eastlake",
    "neighborhoodGroup": "Lake Union",
    "units": "A2"
  },
  {
    "id_str": "F210088940",
    "created_at": "8/17/2021 9:16:55 AM",
    "timestamp": 1629217015000,
    "description": "Illegal Burn",
    "address": "8011 Fauntleroy Way Sw",
    "active": false,
    "unitCount": 1,
    "severity": 0,
    "lat": 47.531494,
    "long": -122.392698,
    "neighborhood": "Fauntleroy/Seaview",
    "neighborhoodGroup": "Southwest",
    "units": "E37"
  },
  {
    "id_str": "F210088939",
    "created_at": "8/17/2021 9:11:09 AM",
    "timestamp": 1629216669000,
    "description": "Aid Response",
    "address": "423 Eastlake Ave E",
    "active": false,
    "unitCount": 2,
    "severity": 0,
    "lat": 47.622234,
    "long": -122.329151,
    "neighborhood": "Cascade/Eastlake",
    "neighborhoodGroup": "Lake Union",
    "units": "A4 E2"
  },
  {
    "id_str": "F210088937",
    "created_at": "8/17/2021 9:09:27 AM",
    "timestamp": 1629216567000,
    "description": "Aid Response",
    "address": "S Holgate St / Airport Way S",
    "active": false,
    "unitCount": 1,
    "severity": 0,
    "lat": 47.585854,
    "long": -122.321393,
    "neighborhood": "Duwamish/SODO",
    "neighborhoodGroup": "Greater Duwamish",
    "units": "A14"
  },
  {
    "id_str": "F210088935",
    "created_at": "8/17/2021 8:59:06 AM",
    "timestamp": 1629215946000,
    "description": "Medic Response, 7 per Rule",
    "address": "510 E Pine St",
    "active": false,
    "unitCount": 4,
    "severity": 0,
    "lat": 47.61522,
    "long": -122.325421,
    "neighborhood": "Capitol Hill",
    "neighborhoodGroup": "East",
    "units": "A25 E25 M1 M17"
  },
  {
    "id_str": "F210088934",
    "created_at": "8/17/2021 8:56:03 AM",
    "timestamp": 1629215763000,
    "description": "Illegal Burn",
    "address": "10750 Aurora Ave N",
    "active": false,
    "unitCount": 1,
    "severity": 0,
    "lat": 47.707165,
    "long": -122.344729,
    "neighborhood": "Haller Lake",
    "neighborhoodGroup": "Northwest",
    "units": "E24"
  },
  {
    "id_str": "F210088933",
    "created_at": "8/17/2021 8:55:38 AM",
    "timestamp": 1629215738000,
    "description": "Low Acuity Response",
    "address": "419 Queen Anne Ave N",
    "active": false,
    "unitCount": 1,
    "severity": 0,
    "lat": 47.622323,
    "long": -122.356727,
    "neighborhood": "Queen Anne",
    "neighborhoodGroup": "Magnolia/Queen Anne",
    "units": "A2"
  },
  {
    "id_str": "F210088932",
    "created_at": "8/17/2021 8:54:57 AM",
    "timestamp": 1629215697000,
    "description": "Aid Response",
    "address": "222 Pike St",
    "active": false,
    "unitCount": 2,
    "severity": 0,
    "lat": 47.609389,
    "long": -122.338655,
    "neighborhood": "Downtown Commercial Core",
    "neighborhoodGroup": "Downtown",
    "units": "A4 E2"
  },
  {
    "id_str": "F210088931",
    "created_at": "8/17/2021 8:51:28 AM",
    "timestamp": 1629215488000,
    "description": "Encampment Fire",
    "address": "West Green Lake Way N / Aurora Ave N",
    "active": false,
    "unitCount": 1,
    "severity": 0,
    "lat": 47.675923,
    "long": -122.346747,
    "neighborhood": "Green Lake",
    "neighborhoodGroup": "Northwest",
    "units": "E21"
  },
  {
    "id_str": "F210088930",
    "created_at": "8/17/2021 8:51:08 AM",
    "timestamp": 1629215468000,
    "description": "Aid Response",
    "address": "517 3rd Ave",
    "active": false,
    "unitCount": 1,
    "severity": 0,
    "lat": 47.602172,
    "long": -122.330863,
    "neighborhood": "Downtown Commercial Core",
    "neighborhoodGroup": "Downtown",
    "units": "A5"
  },
  {
    "id_str": "F210088929",
    "created_at": "8/17/2021 8:43:31 AM",
    "timestamp": 1629215011000,
    "description": "Aid Response Freeway",
    "address": "Nb I5 To Michigan",
    "active": false,
    "unitCount": 3,
    "severity": 0,
    "lat": 47.552263,
    "long": -122.319291,
    "neighborhood": "Beacon Hill",
    "neighborhoodGroup": "Greater Duwamish",
    "units": "A14 E27 E33"
  },
  {
    "id_str": "F210088926",
    "created_at": "8/17/2021 8:33:00 AM",
    "timestamp": 1629214380000,
    "description": "Medic Response",
    "address": "509 3rd Ave",
    "active": false,
    "unitCount": 2,
    "severity": 0,
    "lat": 47.602114,
    "long": -122.330809,
    "neighborhood": "Downtown Commercial Core",
    "neighborhoodGroup": "Downtown",
    "units": "A10 M17"
  },
  {
    "id_str": "F210088925",
    "created_at": "8/17/2021 8:23:00 AM",
    "timestamp": 1629213780000,
    "description": "Medic Response",
    "address": "85 Pike St",
    "active": false,
    "unitCount": 3,
    "severity": 0,
    "lat": 47.608584,
    "long": -122.340581,
    "neighborhood": "Downtown Commercial Core",
    "neighborhoodGroup": "Downtown",
    "units": "E5 M10 M17"
  },
  {
    "id_str": "F210088924",
    "created_at": "8/17/2021 8:16:52 AM",
    "timestamp": 1629213412000,
    "description": "Illegal Burn",
    "address": "West Green Lake Way N / N 63rd St",
    "active": false,
    "unitCount": 1,
    "severity": 0,
    "lat": 47.674156,
    "long": -122.345591,
    "neighborhood": "Green Lake",
    "neighborhoodGroup": "Northwest",
    "units": "E16"
  },
  {
    "id_str": "F210088923",
    "created_at": "8/17/2021 8:14:34 AM",
    "timestamp": 1629213274000,
    "description": "Scenes Of Violence 14",
    "address": "423 Terry Ave",
    "active": false,
    "unitCount": 9,
    "severity": 1,
    "lat": 47.604751,
    "long": -122.322483,
    "neighborhood": "First Hill",
    "neighborhoodGroup": "East",
    "units": "A5 B2 E10 E25 L1 M1 M10 M44 SAFT2"
  },
  {
    "id_str": "F210088922",
    "created_at": "8/17/2021 8:07:20 AM",
    "timestamp": 1629212840000,
    "description": "Aid Response",
    "address": "601 N 62nd St",
    "active": false,
    "unitCount": 1,
    "severity": 0,
    "lat": 47.673877,
    "long": -122.351391,
    "neighborhood": "Greenwood/Phinney Ridge",
    "neighborhoodGroup": "Northwest",
    "units": "E21"
  },
  {
    "id_str": "F210088921",
    "created_at": "8/17/2021 7:37:39 AM",
    "timestamp": 1629211059000,
    "description": "Medic Response",
    "address": "1206 E Jefferson St",
    "active": false,
    "unitCount": 2,
    "severity": 0,
    "lat": 47.606203,
    "long": -122.3167,
    "neighborhood": "First Hill",
    "neighborhoodGroup": "East",
    "units": "A25 M10"
  },
  {
    "id_str": "F210088920",
    "created_at": "8/17/2021 7:21:41 AM",
    "timestamp": 1629210101000,
    "description": "Medic Response",
    "address": "5300 Tallman Ave Nw",
    "active": false,
    "unitCount": 2,
    "severity": 0,
    "lat": 47.667252,
    "long": -122.380052,
    "neighborhood": "Ballard",
    "neighborhoodGroup": "Ballard",
    "units": "E18 M18"
  },
  {
    "id_str": "F210088917",
    "created_at": "8/17/2021 7:06:53 AM",
    "timestamp": 1629209213000,
    "description": "Low Acuity Response",
    "address": "1239 BIGELOW AVE N",
    "active": false,
    "unitCount": 1,
    "severity": 0,
    "lat": 47.630277,
    "long": -122.350411,
    "neighborhood": "Queen Anne",
    "neighborhoodGroup": "Magnolia/Queen Anne",
    "units": "E8"
  },
  {
    "id_str": "F210088909",
    "created_at": "8/17/2021 6:52:49 AM",
    "timestamp": 1629208369000,
    "description": "Aid Response",
    "address": "420 4TH AVE",
    "active": false,
    "unitCount": 1,
    "severity": 0,
    "lat": 47.601986,
    "long": -122.32914,
    "neighborhood": "Downtown Commercial Core",
    "neighborhoodGroup": "Downtown",
    "units": "A10"
  },
  {
    "id_str": "F210088907",
    "created_at": "8/17/2021 6:48:23 AM",
    "timestamp": 1629208103000,
    "description": "Water Job Minor",
    "address": "4230 S Greenbelt Station Dr",
    "active": false,
    "unitCount": 1,
    "severity": 0,
    "lat": 47.524651,
    "long": -122.280314,
    "neighborhood": "South Beacon Hill/NewHolly",
    "neighborhoodGroup": "Greater Duwamish",
    "units": "L12"
  },
  {
    "id_str": "F210088906",
    "created_at": "8/17/2021 6:42:51 AM",
    "timestamp": 1629207771000,
    "description": "Aid Response",
    "address": "1801 Boren Ave",
    "active": false,
    "unitCount": 1,
    "severity": 0,
    "lat": 47.616171,
    "long": -122.331417,
    "neighborhood": "Cascade/Eastlake",
    "neighborhoodGroup": "Lake Union",
    "units": "A25"
  },
  {
    "id_str": "F210088904",
    "created_at": "8/17/2021 6:31:41 AM",
    "timestamp": 1629207101000,
    "description": "Aid Response",
    "address": "7044 20th Ave Ne",
    "active": false,
    "unitCount": 1,
    "severity": 0,
    "lat": 47.679694,
    "long": -122.30661,
    "neighborhood": "Ravenna/Bryant",
    "neighborhoodGroup": "Northeast",
    "units": "E31"
  },
  {
    "id_str": "F210088903",
    "created_at": "8/17/2021 6:27:13 AM",
    "timestamp": 1629206833000,
    "description": "Aid Response",
    "address": "811 Maynard Ave S",
    "active": false,
    "unitCount": 1,
    "severity": 0,
    "lat": 47.595741,
    "long": -122.325068,
    "neighborhood": "Duwamish/SODO",
    "neighborhoodGroup": "Greater Duwamish",
    "units": "A5"
  },
  {
    "id_str": "F210088902",
    "created_at": "8/17/2021 6:26:17 AM",
    "timestamp": 1629206777000,
    "description": "Aid Response Yellow",
    "address": "800 Jefferson St",
    "active": false,
    "unitCount": 1,
    "severity": 0,
    "lat": 47.604377,
    "long": -122.325207,
    "neighborhood": "First Hill",
    "neighborhoodGroup": "East",
    "units": "A10"
  },
  {
    "id_str": "F210088901",
    "created_at": "8/17/2021 6:19:37 AM",
    "timestamp": 1629206377000,
    "description": "Medic Response",
    "address": "7723 18th Ave Nw",
    "active": false,
    "unitCount": 2,
    "severity": 0,
    "lat": 47.685166,
    "long": -122.380008,
    "neighborhood": "Whittier Heights",
    "neighborhoodGroup": "Ballard",
    "units": "E35 M31"
  },
  {
    "id_str": "F210088898",
    "created_at": "8/17/2021 6:14:27 AM",
    "timestamp": 1629206067000,
    "description": "AFA4 - Auto Alarm 2 + 1 + 1",
    "address": "3651 34th Ave S",
    "active": false,
    "unitCount": 4,
    "severity": 0,
    "lat": 47.571115,
    "long": -122.28993,
    "neighborhood": "Columbia City",
    "neighborhoodGroup": "Southeast",
    "units": "B5 E13 E30 L12"
  },
  {
    "id_str": "F210088897",
    "created_at": "8/17/2021 6:04:55 AM",
    "timestamp": 1629205495000,
    "description": "Hang-Up, Fire",
    "address": "5th Ave S / S Jackson St",
    "active": false,
    "unitCount": 1,
    "severity": 0,
    "lat": 47.599195,
    "long": -122.327667,
    "neighborhood": "Pioneer Square/International District",
    "neighborhoodGroup": "Downtown",
    "units": "E10"
  },
  {
    "id_str": "F210088896",
    "created_at": "8/17/2021 5:50:26 AM",
    "timestamp": 1629204626000,
    "description": "Low Acuity Response",
    "address": "6076 52nd Ave S",
    "active": false,
    "unitCount": 1,
    "severity": 0,
    "lat": 47.548014,
    "long": -122.266436,
    "neighborhood": "Seward Park",
    "neighborhoodGroup": "Southeast",
    "units": "E28"
  },
  {
    "id_str": "F210088895",
    "created_at": "8/17/2021 5:47:53 AM",
    "timestamp": 1629204473000,
    "description": "Aid Response",
    "address": "1099 Boren Ave",
    "active": false,
    "unitCount": 1,
    "severity": 0,
    "lat": 47.610052,
    "long": -122.325792,
    "neighborhood": "First Hill",
    "neighborhoodGroup": "East",
    "units": "A25"
  },
  {
    "id_str": "F210088894",
    "created_at": "8/17/2021 5:39:53 AM",
    "timestamp": 1629203993000,
    "description": "Medic Response",
    "address": "8918 12th Ave Ne",
    "active": false,
    "unitCount": 2,
    "severity": 0,
    "lat": 47.693243,
    "long": -122.314886,
    "neighborhood": "Northgate/Maple Leaf",
    "neighborhoodGroup": "North",
    "units": "E16 M17"
  },
  {
    "id_str": "F210088893",
    "created_at": "8/17/2021 5:38:50 AM",
    "timestamp": 1629203930000,
    "description": "Aid Response",
    "address": "207 Pontius Ave N",
    "active": false,
    "unitCount": 1,
    "severity": 0,
    "lat": 47.619736,
    "long": -122.331697,
    "neighborhood": "Cascade/Eastlake",
    "neighborhoodGroup": "Lake Union",
    "units": "A2"
  },
  {
    "id_str": "F210088887",
    "created_at": "8/17/2021 4:52:37 AM",
    "timestamp": 1629201157000,
    "description": "Aid Response",
    "address": "5th Ave S / S Weller St",
    "active": false,
    "unitCount": 1,
    "severity": 0,
    "lat": 47.597517,
    "long": -122.327675,
    "neighborhood": "Pioneer Square/International District",
    "neighborhoodGroup": "Downtown",
    "units": "A10"
  },
  {
    "id_str": "F210088888",
    "created_at": "8/17/2021 4:52:27 AM",
    "timestamp": 1629201147000,
    "description": "Auto Fire Alarm",
    "address": "1601 5th Ave",
    "active": false,
    "unitCount": 2,
    "severity": 0,
    "lat": 47.611672,
    "long": -122.336484,
    "neighborhood": "Downtown Commercial Core",
    "neighborhoodGroup": "Downtown",
    "units": "E2 L4"
  },
  {
    "id_str": "F210088884",
    "created_at": "8/17/2021 4:29:21 AM",
    "timestamp": 1629199761000,
    "description": "Aid Response",
    "address": "AURORA AVE N / N 84TH ST",
    "active": false,
    "unitCount": 1,
    "severity": 0,
    "lat": 47.690563,
    "long": -122.344522,
    "neighborhood": "Licton Springs",
    "neighborhoodGroup": "Northwest",
    "units": "E21"
  },
  {
    "id_str": "F210088883",
    "created_at": "8/17/2021 4:27:58 AM",
    "timestamp": 1629199678000,
    "description": "Auto Fire Alarm",
    "address": "1601 5th Ave",
    "active": false,
    "unitCount": 2,
    "severity": 0,
    "lat": 47.611672,
    "long": -122.336484,
    "neighborhood": "Downtown Commercial Core",
    "neighborhoodGroup": "Downtown",
    "units": "E2 L4"
  },
  {
    "id_str": "F210088882",
    "created_at": "8/17/2021 4:20:57 AM",
    "timestamp": 1629199257000,
    "description": "Low Acuity Response",
    "address": "308 4th Ave S",
    "active": false,
    "unitCount": 1,
    "severity": 0,
    "lat": 47.599968,
    "long": -122.328965,
    "neighborhood": "Pioneer Square/International District",
    "neighborhoodGroup": "Downtown",
    "units": "A5"
  },
  {
    "id_str": "F210088879",
    "created_at": "8/17/2021 3:37:37 AM",
    "timestamp": 1629196657000,
    "description": "Medic Response",
    "address": "116 Stewart St",
    "active": false,
    "unitCount": 2,
    "severity": 0,
    "lat": 47.610387,
    "long": -122.341198,
    "neighborhood": "Belltown",
    "neighborhoodGroup": "Downtown",
    "units": "E2 M1"
  },
  {
    "id_str": "F210088878",
    "created_at": "8/17/2021 3:30:40 AM",
    "timestamp": 1629196240000,
    "description": "Aid Response",
    "address": "2119 3rd Ave",
    "active": false,
    "unitCount": 1,
    "severity": 0,
    "lat": 47.613308,
    "long": -122.342432,
    "neighborhood": "Cascade/Eastlake",
    "neighborhoodGroup": "Lake Union",
    "units": "A2"
  },
  {
    "id_str": "F210088877",
    "created_at": "8/17/2021 3:10:45 AM",
    "timestamp": 1629195045000,
    "description": "Low Acuity Response",
    "address": "419 Queen Anne Ave N",
    "active": false,
    "unitCount": 1,
    "severity": 0,
    "lat": 47.622323,
    "long": -122.356727,
    "neighborhood": "Queen Anne",
    "neighborhoodGroup": "Magnolia/Queen Anne",
    "units": "E8"
  },
  {
    "id_str": "F210088875",
    "created_at": "8/17/2021 2:58:54 AM",
    "timestamp": 1629194334000,
    "description": "Low Acuity Response",
    "address": "2119 3rd Ave",
    "active": false,
    "unitCount": 1,
    "severity": 0,
    "lat": 47.613308,
    "long": -122.342432,
    "neighborhood": "Cascade/Eastlake",
    "neighborhoodGroup": "Lake Union",
    "units": "E2"
  },
  {
    "id_str": "F210088874",
    "created_at": "8/17/2021 2:55:15 AM",
    "timestamp": 1629194115000,
    "description": "Medic Response",
    "address": "103 Westlake Ave N",
    "active": false,
    "unitCount": 2,
    "severity": 0,
    "lat": 47.618558,
    "long": -122.338485,
    "neighborhood": "Cascade/Eastlake",
    "neighborhoodGroup": "Lake Union",
    "units": "A2 M10"
  },
  {
    "id_str": "F210088873",
    "created_at": "8/17/2021 2:41:22 AM",
    "timestamp": 1629193282000,
    "description": "Aid Response",
    "address": "Bellevue Ave / E Pine St",
    "active": false,
    "unitCount": 1,
    "severity": 0,
    "lat": 47.615218,
    "long": -122.326804,
    "neighborhood": "Capitol Hill",
    "neighborhoodGroup": "East",
    "units": "A25"
  },
  {
    "id_str": "F210088870",
    "created_at": "8/17/2021 2:15:46 AM",
    "timestamp": 1629191746000,
    "description": "Aid Response",
    "address": "1405 Nw 90th St",
    "active": false,
    "unitCount": 1,
    "severity": 0,
    "lat": 47.694252,
    "long": -122.374217,
    "neighborhood": "North Beach/Blue Ridge",
    "neighborhoodGroup": "Ballard",
    "units": "E35"
  },
  {
    "id_str": "F210088868",
    "created_at": "8/17/2021 2:05:17 AM",
    "timestamp": 1629191117000,
    "description": "Aid Response Yellow",
    "address": "2200 E Madison St",
    "active": false,
    "unitCount": 1,
    "severity": 0,
    "lat": 47.61842,
    "long": -122.30365,
    "neighborhood": "Central Area/Squire Park",
    "neighborhoodGroup": "Central",
    "units": "A25"
  },
  {
    "id_str": "F210088866",
    "created_at": "8/17/2021 1:55:41 AM",
    "timestamp": 1629190541000,
    "description": "Aid Response",
    "address": "4500 15th Ave Nw",
    "active": false,
    "unitCount": 2,
    "severity": 0,
    "lat": 47.661872,
    "long": -122.376106,
    "neighborhood": "Ballard",
    "neighborhoodGroup": "Ballard",
    "units": "E18 M18"
  },
  {
    "id_str": "F210088865",
    "created_at": "8/17/2021 1:46:02 AM",
    "timestamp": 1629189962000,
    "description": "Aid Response",
    "address": "7th Ave N / Harrison St",
    "active": false,
    "unitCount": 2,
    "severity": 0,
    "lat": 47.622061,
    "long": -122.343675,
    "neighborhood": "Cascade/Eastlake",
    "neighborhoodGroup": "Lake Union",
    "units": "A2 E2"
  },
  {
    "id_str": "F210088864",
    "created_at": "8/17/2021 1:44:49 AM",
    "timestamp": 1629189889000,
    "description": "Aid Response",
    "address": "12315 28th Ave Ne",
    "active": false,
    "unitCount": 1,
    "severity": 0,
    "lat": 47.71757,
    "long": -122.297954,
    "neighborhood": "Olympic Hills/Victory Heights",
    "neighborhoodGroup": "North",
    "units": "E39"
  },
  {
    "id_str": "F210088863",
    "created_at": "8/17/2021 1:41:12 AM",
    "timestamp": 1629189672000,
    "description": "Aid Response",
    "address": "E Madison St / Lake Washington Blvd E",
    "active": false,
    "unitCount": 1,
    "severity": 0,
    "lat": 47.626018,
    "long": -122.29244,
    "neighborhood": "Madison Park",
    "neighborhoodGroup": "East",
    "units": "E34"
  },
  {
    "id_str": "F210088862",
    "created_at": "8/17/2021 1:33:29 AM",
    "timestamp": 1629189209000,
    "description": "Aid Response",
    "address": "4812 Erskine Way Sw",
    "active": false,
    "unitCount": 1,
    "severity": 0,
    "lat": 47.559265,
    "long": -122.386917,
    "neighborhood": "West Seattle Junction/Genesee Hill",
    "neighborhoodGroup": "Southwest",
    "units": "E32"
  },
  {
    "id_str": "F210088861",
    "created_at": "8/17/2021 1:30:05 AM",
    "timestamp": 1629189005000,
    "description": "Aid Response",
    "address": "3501 ALBION PL N",
    "active": false,
    "unitCount": 1,
    "severity": 0,
    "lat": 47.649756,
    "long": -122.344755,
    "neighborhood": "Fremont",
    "neighborhoodGroup": "Lake Union",
    "units": "E9"
  },
  {
    "id_str": "F210088860",
    "created_at": "8/17/2021 1:18:00 AM",
    "timestamp": 1629188280000,
    "description": "Aid Response",
    "address": "10507 Aurora Ave N",
    "active": false,
    "unitCount": 1,
    "severity": 0,
    "lat": 47.705096,
    "long": -122.344695,
    "neighborhood": "Licton Springs",
    "neighborhoodGroup": "Northwest",
    "units": "E24"
  },
  {
    "id_str": "F210088859",
    "created_at": "8/17/2021 1:14:10 AM",
    "timestamp": 1629188050000,
    "description": "Auto Fire Alarm",
    "address": "1631 15th Ave W",
    "active": false,
    "unitCount": 2,
    "severity": 0,
    "lat": 47.633705,
    "long": -122.376178,
    "neighborhood": "Interbay",
    "neighborhoodGroup": "Magnolia/Queen Anne",
    "units": "E20 L6"
  },
  {
    "id_str": "F210088858",
    "created_at": "8/17/2021 1:12:41 AM",
    "timestamp": 1629187961000,
    "description": "AFA4 - Auto Alarm 2 + 1 + 1",
    "address": "12736 Lake City Way Ne",
    "active": false,
    "unitCount": 4,
    "severity": 0,
    "lat": 47.721301,
    "long": -122.294037,
    "neighborhood": "Cedar Park/Meadowbrook",
    "neighborhoodGroup": "North",
    "units": "B6 E39 E40 L5"
  },
  {
    "id_str": "F210088857",
    "created_at": "8/17/2021 1:08:54 AM",
    "timestamp": 1629187734000,
    "description": "Advised Incident",
    "address": "100 Lenora St",
    "active": false,
    "unitCount": 1,
    "severity": 0,
    "lat": 47.611837,
    "long": -122.343912,
    "neighborhood": "Belltown",
    "neighborhoodGroup": "Downtown",
    "units": "E2"
  },
  {
    "id_str": "F210088855",
    "created_at": "8/17/2021 12:59:20 AM",
    "timestamp": 1629187160000,
    "description": "Aid Response",
    "address": "805 4th Ave N",
    "active": false,
    "unitCount": 1,
    "severity": 0,
    "lat": 47.626322,
    "long": -122.348863,
    "neighborhood": "Queen Anne",
    "neighborhoodGroup": "Magnolia/Queen Anne",
    "units": "A2"
  },
  {
    "id_str": "F210088854",
    "created_at": "8/17/2021 12:54:46 AM",
    "timestamp": 1629186886000,
    "description": "Auto Fire Alarm",
    "address": "9725 3rd Ave Ne",
    "active": false,
    "unitCount": 2,
    "severity": 0,
    "lat": 47.699338,
    "long": -122.325769,
    "neighborhood": "Northgate/Maple Leaf",
    "neighborhoodGroup": "North",
    "units": "E16 L5"
  },
  {
    "id_str": "F210088853",
    "created_at": "8/17/2021 12:43:41 AM",
    "timestamp": 1629186221000,
    "description": "Aid Response",
    "address": "1811 Eastlake Ave",
    "active": false,
    "unitCount": 1,
    "severity": 0,
    "lat": 47.618002,
    "long": -122.329182,
    "neighborhood": "Cascade/Eastlake",
    "neighborhoodGroup": "Lake Union",
    "units": "A25"
  },
  {
    "id_str": "F210088852",
    "created_at": "8/17/2021 12:15:34 AM",
    "timestamp": 1629184534000,
    "description": "Alarm Bell",
    "address": "2645 50th Ave Sw",
    "active": false,
    "unitCount": 1,
    "severity": 0,
    "lat": 47.580388,
    "long": -122.395326,
    "neighborhood": "West Seattle Junction/Genesee Hill",
    "neighborhoodGroup": "Southwest",
    "units": "E32"
  },
  {
    "id_str": "F210088848",
    "created_at": "8/17/2021 12:05:55 AM",
    "timestamp": 1629183955000,
    "description": "Medic Response",
    "address": "2235 California Ave Sw",
    "active": false,
    "unitCount": 2,
    "severity": 0,
    "lat": 47.583642,
    "long": -122.386443,
    "neighborhood": "Alki/Admiral",
    "neighborhoodGroup": "Southwest",
    "units": "E29 M32"
  },
  {
    "id_str": "F210088847",
    "created_at": "8/17/2021 12:02:22 AM",
    "timestamp": 1629183742000,
    "description": "Low Acuity Response",
    "address": "1902 2nd Ave",
    "active": false,
    "unitCount": 1,
    "severity": 0,
    "lat": 47.610972,
    "long": -122.340465,
    "neighborhood": "Belltown",
    "neighborhoodGroup": "Downtown",
    "units": "A2"
  },
  {
    "id_str": "F210088846",
    "created_at": "8/16/2021 11:49:16 PM",
    "timestamp": 1629182956000,
    "description": "Aid Response",
    "address": "2nd Ave / Virginia St",
    "active": false,
    "unitCount": 2,
    "severity": 0,
    "lat": 47.611733,
    "long": -122.341753,
    "neighborhood": "Belltown",
    "neighborhoodGroup": "Downtown",
    "units": "A2 E2"
  },
  {
    "id_str": "F210088843",
    "created_at": "8/16/2021 11:28:33 PM",
    "timestamp": 1629181713000,
    "description": "Medic Response",
    "address": "8327 8th Ave Nw",
    "active": false,
    "unitCount": 2,
    "severity": 0,
    "lat": 47.6893,
    "long": -122.365996,
    "neighborhood": "Greenwood/Phinney Ridge",
    "neighborhoodGroup": "Northwest",
    "units": "E35 M31"
  },
  {
    "id_str": "F210088842",
    "created_at": "8/16/2021 11:17:55 PM",
    "timestamp": 1629181075000,
    "description": "Aid Response",
    "address": "13213 15th Ave Ne",
    "active": false,
    "unitCount": 1,
    "severity": 0,
    "lat": 47.725076,
    "long": -122.312657,
    "neighborhood": "Olympic Hills/Victory Heights",
    "neighborhoodGroup": "North",
    "units": "E39"
  },
  {
    "id_str": "F210088840",
    "created_at": "8/16/2021 11:15:53 PM",
    "timestamp": 1629180953000,
    "description": "Auto Fire Alarm",
    "address": "1900 Alaskan Way",
    "active": false,
    "unitCount": 2,
    "severity": 0,
    "lat": 47.608573,
    "long": -122.343891,
    "neighborhood": "Downtown Commercial Core",
    "neighborhoodGroup": "Downtown",
    "units": "E5 L4"
  },
  {
    "id_str": "F210088839",
    "created_at": "8/16/2021 11:13:52 PM",
    "timestamp": 1629180832000,
    "description": "Aid Response",
    "address": "100 Yesler Way",
    "active": false,
    "unitCount": 1,
    "severity": 0,
    "lat": 47.601722,
    "long": -122.334179,
    "neighborhood": "Downtown Commercial Core",
    "neighborhoodGroup": "Downtown",
    "units": "A10"
  },
  {
    "id_str": "F210088834",
    "created_at": "8/16/2021 11:01:22 PM",
    "timestamp": 1629180082000,
    "description": "Medic Response",
    "address": "12th Ave S / S Jackson St",
    "active": false,
    "unitCount": 2,
    "severity": 0,
    "lat": 47.599187,
    "long": -122.317225,
    "neighborhood": "Pioneer Square/International District",
    "neighborhoodGroup": "Downtown",
    "units": "A5 M1"
  },
  {
    "id_str": "F210088832",
    "created_at": "8/16/2021 11:00:00 PM",
    "timestamp": 1629180000000,
    "description": "Auto Fire Alarm",
    "address": "510 Minor Ave N",
    "active": false,
    "unitCount": 2,
    "severity": 0,
    "lat": 47.623222,
    "long": -122.333001,
    "neighborhood": "Cascade/Eastlake",
    "neighborhoodGroup": "Lake Union",
    "units": "E2 L4"
  },
  {
    "id_str": "F210088830",
    "created_at": "8/16/2021 10:57:24 PM",
    "timestamp": 1629179844000,
    "description": "Medic Response",
    "address": "3218 Ne 90th St",
    "active": false,
    "unitCount": 2,
    "severity": 0,
    "lat": 47.693847,
    "long": -122.293208,
    "neighborhood": "Wedgwood/View Ridge",
    "neighborhoodGroup": "Northeast",
    "units": "E40 M17"
  },
  {
    "id_str": "F210088829",
    "created_at": "8/16/2021 10:52:21 PM",
    "timestamp": 1629179541000,
    "description": "Aid Response",
    "address": "7535 24th Ave Sw",
    "active": false,
    "unitCount": 1,
    "severity": 0,
    "lat": 47.535196,
    "long": -122.363168,
    "neighborhood": "High Point",
    "neighborhoodGroup": "Delridge Neighborhoods",
    "units": "E37"
  },
  {
    "id_str": "F210088828",
    "created_at": "8/16/2021 10:51:01 PM",
    "timestamp": 1629179461000,
    "description": "Aid Response",
    "address": "10200 1st Ave Ne",
    "active": false,
    "unitCount": 1,
    "severity": 0,
    "lat": 47.702577,
    "long": -122.328518,
    "neighborhood": "Northgate/Maple Leaf",
    "neighborhoodGroup": "North",
    "units": "E17"
  },
  {
    "id_str": "F210088827",
    "created_at": "8/16/2021 10:43:53 PM",
    "timestamp": 1629179033000,
    "description": "Rubbish Fire",
    "address": "Lake City Way Ne / Ne 130th St",
    "active": false,
    "unitCount": 1,
    "severity": 0,
    "lat": 47.722899,
    "long": -122.293194,
    "neighborhood": "Cedar Park/Meadowbrook",
    "neighborhoodGroup": "North",
    "units": "E39"
  },
  {
    "id_str": "F210088826",
    "created_at": "8/16/2021 10:38:56 PM",
    "timestamp": 1629178736000,
    "description": "Aid Response",
    "address": "2321 S JACKSON ST",
    "active": false,
    "unitCount": 1,
    "severity": 0,
    "lat": 47.599288,
    "long": -122.301125,
    "neighborhood": "Madrona/Leschi",
    "neighborhoodGroup": "Central",
    "units": "E6"
  },
  {
    "id_str": "F210088825",
    "created_at": "8/16/2021 10:37:08 PM",
    "timestamp": 1629178628000,
    "description": "Aid Response",
    "address": "Sunnyside Ave N / Woodlawn Ave N",
    "active": false,
    "unitCount": 1,
    "severity": 0,
    "lat": 47.677559,
    "long": -122.329464,
    "neighborhood": "Green Lake",
    "neighborhoodGroup": "Northwest",
    "units": "E16"
  },
  {
    "id_str": "F210088823",
    "created_at": "8/16/2021 10:36:56 PM",
    "timestamp": 1629178616000,
    "description": "Aid Response",
    "address": "Virginia St / 4th Ave",
    "active": false,
    "unitCount": 1,
    "severity": 0,
    "lat": 47.613063,
    "long": -122.340033,
    "neighborhood": "Cascade/Eastlake",
    "neighborhoodGroup": "Lake Union",
    "units": "E2"
  },
  {
    "id_str": "F210088824",
    "created_at": "8/16/2021 10:35:30 PM",
    "timestamp": 1629178530000,
    "description": "Aid Response",
    "address": "5440 15th Ave S",
    "active": false,
    "unitCount": 1,
    "severity": 0,
    "lat": 47.553828,
    "long": -122.31347,
    "neighborhood": "Beacon Hill",
    "neighborhoodGroup": "Greater Duwamish",
    "units": "E13"
  },
  {
    "id_str": "F210088822",
    "created_at": "8/16/2021 10:33:32 PM",
    "timestamp": 1629178412000,
    "description": "Aid Response",
    "address": "423 Maynard Ave S",
    "active": false,
    "unitCount": 1,
    "severity": 0,
    "lat": 47.598994,
    "long": -122.325056,
    "neighborhood": "Pioneer Square/International District",
    "neighborhoodGroup": "Downtown",
    "units": "A10"
  },
  {
    "id_str": "F210088820",
    "created_at": "8/16/2021 10:18:50 PM",
    "timestamp": 1629177530000,
    "description": "Aid Response",
    "address": "3016 1st Ave",
    "active": false,
    "unitCount": 1,
    "severity": 0,
    "lat": 47.617928,
    "long": -122.35422,
    "neighborhood": "Belltown",
    "neighborhoodGroup": "Downtown",
    "units": "A2"
  },
  {
    "id_str": "F210088819",
    "created_at": "8/16/2021 10:13:19 PM",
    "timestamp": 1629177199000,
    "description": "Rubbish Fire",
    "address": "23rd Ave S / S Jackson St",
    "active": false,
    "unitCount": 1,
    "severity": 0,
    "lat": 47.599281,
    "long": -122.302233,
    "neighborhood": "Madrona/Leschi",
    "neighborhoodGroup": "Central",
    "units": "E6"
  },
  {
    "id_str": "F210088818",
    "created_at": "8/16/2021 9:57:49 PM",
    "timestamp": 1629176269000,
    "description": "Aid Response",
    "address": "13280 Linden Ave N",
    "active": false,
    "unitCount": 1,
    "severity": 0,
    "lat": 47.72526,
    "long": -122.347901,
    "neighborhood": "Broadview/Bitter Lake",
    "neighborhoodGroup": "Northwest",
    "units": "E24"
  },
  {
    "id_str": "F210088817",
    "created_at": "8/16/2021 9:54:40 PM",
    "timestamp": 1629176080000,
    "description": "Medic Response, 7 per Rule",
    "address": "Phinney Ave N / N 36th St",
    "active": false,
    "unitCount": 3,
    "severity": 0,
    "lat": 47.652246,
    "long": -122.354475,
    "neighborhood": "Fremont",
    "neighborhoodGroup": "Lake Union",
    "units": "E18 E9 M18"
  },
  {
    "id_str": "F210088816",
    "created_at": "8/16/2021 9:51:13 PM",
    "timestamp": 1629175873000,
    "description": "Automatic Fire Alarm False",
    "address": "3266 Sw Avalon Way",
    "active": false,
    "unitCount": 1,
    "severity": 0,
    "lat": 47.56422,
    "long": -122.373106,
    "neighborhood": "North Delridge",
    "neighborhoodGroup": "Delridge Neighborhoods",
    "units": "E32"
  },
  {
    "id_str": "F210088815",
    "created_at": "8/16/2021 9:39:01 PM",
    "timestamp": 1629175141000,
    "description": "Aid Response",
    "address": "11355 3rd Ave Ne",
    "active": false,
    "unitCount": 1,
    "severity": 0,
    "lat": 47.710934,
    "long": -122.326015,
    "neighborhood": "Northgate/Maple Leaf",
    "neighborhoodGroup": "North",
    "units": "E31"
  },
  {
    "id_str": "F210088814",
    "created_at": "8/16/2021 9:36:30 PM",
    "timestamp": 1629174990000,
    "description": "Aid Response",
    "address": "3621 33RD AVE S",
    "active": false,
    "unitCount": 1,
    "severity": 0,
    "lat": 47.575449,
    "long": -122.290926,
    "neighborhood": "Mt. Baker/North Rainier",
    "neighborhoodGroup": "Southeast",
    "units": "E30"
  },
  {
    "id_str": "F210088812",
    "created_at": "8/16/2021 9:30:53 PM",
    "timestamp": 1629174653000,
    "description": "Aid Response",
    "address": "417 Broadway E",
    "active": false,
    "unitCount": 1,
    "severity": 0,
    "lat": 47.622174,
    "long": -122.320909,
    "neighborhood": "Capitol Hill",
    "neighborhoodGroup": "East",
    "units": "A25"
  },
  {
    "id_str": "F210088808",
    "created_at": "8/16/2021 9:20:27 PM",
    "timestamp": 1629174027000,
    "description": "Automatic Fire Alarm Resd",
    "address": "740 16th Ave E",
    "active": false,
    "unitCount": 1,
    "severity": 0,
    "lat": 47.625573,
    "long": -122.311305,
    "neighborhood": "Miller Park",
    "neighborhoodGroup": "East",
    "units": "E25"
  },
  {
    "id_str": "F210088806",
    "created_at": "8/16/2021 9:16:16 PM",
    "timestamp": 1629173776000,
    "description": "Alarm Bell",
    "address": "3266 Sw Avalon Way",
    "active": false,
    "unitCount": 2,
    "severity": 0,
    "lat": 47.56422,
    "long": -122.373106,
    "neighborhood": "North Delridge",
    "neighborhoodGroup": "Delridge Neighborhoods",
    "units": "E32 L11"
  },
  {
    "id_str": "F210088805",
    "created_at": "8/16/2021 9:16:09 PM",
    "timestamp": 1629173769000,
    "description": "Aid Response",
    "address": "1811 Eastlake Ave",
    "active": false,
    "unitCount": 2,
    "severity": 0,
    "lat": 47.618002,
    "long": -122.329182,
    "neighborhood": "Cascade/Eastlake",
    "neighborhoodGroup": "Lake Union",
    "units": "A2 L4"
  },
  {
    "id_str": "F210088804",
    "created_at": "8/16/2021 9:13:09 PM",
    "timestamp": 1629173589000,
    "description": "MVI - Motor Vehicle Incident",
    "address": "4073 Gilman Ave W",
    "active": false,
    "unitCount": 1,
    "severity": 0,
    "lat": 47.656811,
    "long": -122.387639,
    "neighborhood": "Interbay",
    "neighborhoodGroup": "Magnolia/Queen Anne",
    "units": "E20"
  },
  {
    "id_str": "F210088802",
    "created_at": "8/16/2021 9:04:02 PM",
    "timestamp": 1629173042000,
    "description": "Aid Response",
    "address": "500 5th Ave",
    "active": false,
    "unitCount": 1,
    "severity": 0,
    "lat": 47.602985,
    "long": -122.328535,
    "neighborhood": "First Hill",
    "neighborhoodGroup": "East",
    "units": "A5"
  },
  {
    "id_str": "F210088800",
    "created_at": "8/16/2021 9:01:41 PM",
    "timestamp": 1629172901000,
    "description": "Rescue Elevator",
    "address": "1016 Republican St",
    "active": false,
    "unitCount": 1,
    "severity": 0,
    "lat": 47.623204,
    "long": -122.336929,
    "neighborhood": "Cascade/Eastlake",
    "neighborhoodGroup": "Lake Union",
    "units": "L4"
  },
  {
    "id_str": "F210088798",
    "created_at": "8/16/2021 9:00:00 PM",
    "timestamp": 1629172800000,
    "description": "Aid Response",
    "address": "5338 S Fountain St",
    "active": false,
    "unitCount": 1,
    "severity": 0,
    "lat": 47.503678,
    "long": -122.267001,
    "neighborhood": "Rainier Beach",
    "neighborhoodGroup": "Southeast",
    "units": "E33"
  },
  {
    "id_str": "F210088796",
    "created_at": "8/16/2021 8:58:03 PM",
    "timestamp": 1629172683000,
    "description": "Auto Fire Alarm",
    "address": "1704 Ne Columbia Rd",
    "active": false,
    "unitCount": 4,
    "severity": 0,
    "lat": 47.650205,
    "long": -122.310398,
    "neighborhood": "University District",
    "neighborhoodGroup": "Northeast",
    "units": "B6 E17 E31 L9"
  },
  {
    "id_str": "F210088795",
    "created_at": "8/16/2021 8:57:20 PM",
    "timestamp": 1629172640000,
    "description": "Aid Response",
    "address": "14358 30th Ave Ne",
    "active": false,
    "unitCount": 1,
    "severity": 0,
    "lat": 47.732903,
    "long": -122.296531,
    "neighborhood": "Olympic Hills/Victory Heights",
    "neighborhoodGroup": "North",
    "units": "E39"
  },
  {
    "id_str": "F210088793",
    "created_at": "8/16/2021 8:52:43 PM",
    "timestamp": 1629172363000,
    "description": "Alarm Bell",
    "address": "2645 50th Ave Sw",
    "active": false,
    "unitCount": 1,
    "severity": 0,
    "lat": 47.580388,
    "long": -122.395326,
    "neighborhood": "West Seattle Junction/Genesee Hill",
    "neighborhoodGroup": "Southwest",
    "units": "E29"
  },
  {
    "id_str": "F210088792",
    "created_at": "8/16/2021 8:50:56 PM",
    "timestamp": 1629172256000,
    "description": "Medic Response",
    "address": "500 5th Ave",
    "active": false,
    "unitCount": 3,
    "severity": 0,
    "lat": 47.602985,
    "long": -122.328535,
    "neighborhood": "First Hill",
    "neighborhoodGroup": "East",
    "units": "A10 A5 M10"
  },
  {
    "id_str": "F210088791",
    "created_at": "8/16/2021 8:43:14 PM",
    "timestamp": 1629171794000,
    "description": "Rubbish Fire",
    "address": "Ne 145th St/19th Ave Ne",
    "active": false,
    "unitCount": 2,
    "severity": 0,
    "lat": 47.733906,
    "long": -122.308695,
    "units": "E39 E40"
  },
  {
    "id_str": "F210088790",
    "created_at": "8/16/2021 8:42:11 PM",
    "timestamp": 1629171731000,
    "description": "MVI - Motor Vehicle Incident",
    "address": "12505 Aurora Ave N",
    "active": false,
    "unitCount": 4,
    "severity": 0,
    "lat": 47.719609,
    "long": -122.344937,
    "neighborhood": "Broadview/Bitter Lake",
    "neighborhoodGroup": "Northwest",
    "units": "E24 E39 E40 L8"
  },
  {
    "id_str": "F210088789",
    "created_at": "8/16/2021 8:41:37 PM",
    "timestamp": 1629171697000,
    "description": "Aid Response",
    "address": "3900 S Othello St",
    "active": false,
    "unitCount": 2,
    "severity": 0,
    "lat": 47.537046,
    "long": -122.283397,
    "neighborhood": "South Beacon Hill/NewHolly",
    "neighborhoodGroup": "Greater Duwamish",
    "units": "E28 L12"
  },
  {
    "id_str": "F210088788",
    "created_at": "8/16/2021 8:35:10 PM",
    "timestamp": 1629171310000,
    "description": "Auto Fire Alarm",
    "address": "1918 8th Ave",
    "active": false,
    "unitCount": 2,
    "severity": 0,
    "lat": 47.615086,
    "long": -122.335521,
    "neighborhood": "Cascade/Eastlake",
    "neighborhoodGroup": "Lake Union",
    "units": "E2 L4"
  },
  {
    "id_str": "F210088786",
    "created_at": "8/16/2021 8:31:30 PM",
    "timestamp": 1629171090000,
    "description": "Auto Fire Alarm",
    "address": "1000 Minor Ave",
    "active": false,
    "unitCount": 2,
    "severity": 0,
    "lat": 47.609802,
    "long": -122.324029,
    "neighborhood": "First Hill",
    "neighborhoodGroup": "East",
    "units": "E25 L10"
  },
  {
    "id_str": "F210088785",
    "created_at": "8/16/2021 8:31:09 PM",
    "timestamp": 1629171069000,
    "description": "Low Acuity Response",
    "address": "Aurora Ave N / N 145th St",
    "active": false,
    "unitCount": 1,
    "severity": 0,
    "lat": 47.734128,
    "long": -122.345097,
    "units": "E24"
  },
  {
    "id_str": "F210088783",
    "created_at": "8/16/2021 8:26:40 PM",
    "timestamp": 1629170800000,
    "description": "Aid Response",
    "address": "2907 Sw Trenton St",
    "active": false,
    "unitCount": 1,
    "severity": 0,
    "lat": 47.52467,
    "long": -122.369994,
    "neighborhood": "Roxhill/Westwood",
    "neighborhoodGroup": "Delridge Neighborhoods",
    "units": "E37"
  },
  {
    "id_str": "F210088782",
    "created_at": "8/16/2021 8:23:24 PM",
    "timestamp": 1629170604000,
    "description": "Aid Response",
    "address": "6802 Vista Ave S",
    "active": false,
    "unitCount": 1,
    "severity": 0,
    "lat": 47.541799,
    "long": -122.30076,
    "neighborhood": "South Beacon Hill/NewHolly",
    "neighborhoodGroup": "Greater Duwamish",
    "units": "E28"
  },
  {
    "id_str": "F210088781",
    "created_at": "8/16/2021 8:20:36 PM",
    "timestamp": 1629170436000,
    "description": "Aid Response",
    "address": "739 Broadway E",
    "active": false,
    "unitCount": 1,
    "severity": 0,
    "lat": 47.625447,
    "long": -122.321324,
    "neighborhood": "North Capitol Hill",
    "neighborhoodGroup": "East",
    "units": "A25"
  },
  {
    "id_str": "F210088780",
    "created_at": "8/16/2021 8:20:15 PM",
    "timestamp": 1629170415000,
    "description": "Low Acuity Response",
    "address": "1118 5th Ave",
    "active": false,
    "unitCount": 1,
    "severity": 0,
    "lat": 47.60739,
    "long": -122.332564,
    "neighborhood": "Downtown Commercial Core",
    "neighborhoodGroup": "Downtown",
    "units": "A2"
  },
  {
    "id_str": "F210088778",
    "created_at": "8/16/2021 8:02:20 PM",
    "timestamp": 1629169340000,
    "description": "Aid Response",
    "address": "1902 2nd Ave",
    "active": false,
    "unitCount": 1,
    "severity": 0,
    "lat": 47.610972,
    "long": -122.340465,
    "neighborhood": "Belltown",
    "neighborhoodGroup": "Downtown",
    "units": "A2"
  },
  {
    "id_str": "F210088775",
    "created_at": "8/16/2021 7:47:15 PM",
    "timestamp": 1629168435000,
    "description": "Medic Response",
    "address": "2611 S Dearborn St",
    "active": false,
    "unitCount": 3,
    "severity": 0,
    "lat": 47.595541,
    "long": -122.298643,
    "neighborhood": "Madrona/Leschi",
    "neighborhoodGroup": "Central",
    "units": "E6 L3 M1"
  },
  {
    "id_str": "F210088774",
    "created_at": "8/16/2021 7:35:58 PM",
    "timestamp": 1629167758000,
    "description": "Medic Response",
    "address": "2nd Ave / Pine St",
    "active": false,
    "unitCount": 2,
    "severity": 0,
    "lat": 47.610278,
    "long": -122.339812,
    "neighborhood": "Downtown Commercial Core",
    "neighborhoodGroup": "Downtown",
    "units": "E2 M10"
  },
  {
    "id_str": "F210088773",
    "created_at": "8/16/2021 7:33:41 PM",
    "timestamp": 1629167621000,
    "description": "Aid Response",
    "address": "9th Ave / Marion St",
    "active": false,
    "unitCount": 1,
    "severity": 0,
    "lat": 47.607695,
    "long": -122.326708,
    "neighborhood": "First Hill",
    "neighborhoodGroup": "East",
    "units": "A5"
  },
  {
    "id_str": "F210088772",
    "created_at": "8/16/2021 7:32:28 PM",
    "timestamp": 1629167548000,
    "description": "Aid Response",
    "address": "Denny Way / Wall St",
    "active": false,
    "unitCount": 2,
    "severity": 0,
    "lat": 47.618557,
    "long": -122.34365,
    "neighborhood": "Cascade/Eastlake",
    "neighborhoodGroup": "Lake Union",
    "units": "A2 E2"
  },
  {
    "id_str": "F210088771",
    "created_at": "8/16/2021 7:29:39 PM",
    "timestamp": 1629167379000,
    "description": "Medic Response, 6 per Rule",
    "address": "S Dearborn St / 23rd Ave S",
    "active": false,
    "unitCount": 3,
    "severity": 0,
    "lat": 47.595571,
    "long": -122.302222,
    "neighborhood": "Madrona/Leschi",
    "neighborhoodGroup": "Central",
    "units": "E6 L3 M1"
  },
  {
    "id_str": "F210088769",
    "created_at": "8/16/2021 7:16:03 PM",
    "timestamp": 1629166563000,
    "description": "Aid Response",
    "address": "9th Ave / James St",
    "active": false,
    "unitCount": 1,
    "severity": 0,
    "lat": 47.605555,
    "long": -122.324749,
    "neighborhood": "First Hill",
    "neighborhoodGroup": "East",
    "units": "A10"
  },
  {
    "id_str": "F210088765",
    "created_at": "8/16/2021 7:08:02 PM",
    "timestamp": 1629166082000,
    "description": "Medic Response",
    "address": "3rd Ave / Pike St",
    "active": false,
    "unitCount": 2,
    "severity": 0,
    "lat": 47.60975,
    "long": -122.337793,
    "neighborhood": "Downtown Commercial Core",
    "neighborhoodGroup": "Downtown",
    "units": "A5 M10"
  },
  {
    "id_str": "F210088764",
    "created_at": "8/16/2021 7:07:05 PM",
    "timestamp": 1629166025000,
    "description": "Auto Fire Alarm",
    "address": "823 Madison St",
    "active": false,
    "unitCount": 2,
    "severity": 0,
    "lat": 47.608054,
    "long": -122.32821,
    "neighborhood": "First Hill",
    "neighborhoodGroup": "East",
    "units": "E25 L10"
  },
  {
    "id_str": "F210088763",
    "created_at": "8/16/2021 7:05:25 PM",
    "timestamp": 1629165925000,
    "description": "Medic Response",
    "address": "419 Queen Anne Ave N",
    "active": false,
    "unitCount": 2,
    "severity": 0,
    "lat": 47.622323,
    "long": -122.356727,
    "neighborhood": "Queen Anne",
    "neighborhoodGroup": "Magnolia/Queen Anne",
    "units": "A2 M1"
  },
  {
    "id_str": "F210088762",
    "created_at": "8/16/2021 7:03:19 PM",
    "timestamp": 1629165799000,
    "description": "Aid Response",
    "address": "11030 5th Ave Ne",
    "active": false,
    "unitCount": 1,
    "severity": 0,
    "lat": 47.709488,
    "long": -122.323301,
    "neighborhood": "Northgate/Maple Leaf",
    "neighborhoodGroup": "North",
    "units": "E39"
  },
  {
    "id_str": "F210088761",
    "created_at": "8/16/2021 6:59:27 PM",
    "timestamp": 1629165567000,
    "description": "Illegal Burn",
    "address": "4329 4th Ave Nw",
    "active": false,
    "unitCount": 1,
    "severity": 0,
    "lat": 47.6594,
    "long": -122.361882,
    "neighborhood": "Fremont",
    "neighborhoodGroup": "Lake Union",
    "units": "E9"
  },
  {
    "id_str": "F210088760",
    "created_at": "8/16/2021 6:50:43 PM",
    "timestamp": 1629165043000,
    "description": "Medic Response",
    "address": "317 Nw 112th St",
    "active": false,
    "unitCount": 2,
    "severity": 0,
    "lat": 47.710417,
    "long": -122.361141,
    "neighborhood": "Broadview/Bitter Lake",
    "neighborhoodGroup": "Northwest",
    "units": "E24 M31"
  },
  {
    "id_str": "F210088759",
    "created_at": "8/16/2021 6:49:17 PM",
    "timestamp": 1629164957000,
    "description": "Illegal Burn",
    "address": "42nd Ave S / S Angeline St",
    "active": false,
    "unitCount": 1,
    "severity": 0,
    "lat": 47.559403,
    "long": -122.28075,
    "neighborhood": "Columbia City",
    "neighborhoodGroup": "Southeast",
    "units": "E28"
  },
  {
    "id_str": "F210088758",
    "created_at": "8/16/2021 6:47:02 PM",
    "timestamp": 1629164822000,
    "description": "Auto Fire Alarm",
    "address": "720 Seneca St",
    "active": false,
    "unitCount": 3,
    "severity": 0,
    "lat": 47.609088,
    "long": -122.330457,
    "neighborhood": "First Hill",
    "neighborhoodGroup": "East",
    "units": "E10 E5 L4"
  },
  {
    "id_str": "F210088755",
    "created_at": "8/16/2021 6:44:36 PM",
    "timestamp": 1629164676000,
    "description": "Aid Response",
    "address": "2746 Ne 45th St",
    "active": false,
    "unitCount": 1,
    "severity": 0,
    "lat": 47.661239,
    "long": -122.297259,
    "neighborhood": "Ravenna/Bryant",
    "neighborhoodGroup": "Northeast",
    "units": "E38"
  },
  {
    "id_str": "F210088754",
    "created_at": "8/16/2021 6:44:09 PM",
    "timestamp": 1629164649000,
    "description": "1RED 1 Unit",
    "address": "1304 Alki Ave Sw",
    "active": false,
    "unitCount": 1,
    "severity": 0,
    "lat": 47.593154,
    "long": -122.390695,
    "units": "E29"
  },
  {
    "id_str": "F210088752",
    "created_at": "8/16/2021 6:31:17 PM",
    "timestamp": 1629163877000,
    "description": "Rescue Elevator",
    "address": "500 5th Ave",
    "active": false,
    "unitCount": 1,
    "severity": 0,
    "lat": 47.602985,
    "long": -122.328535,
    "neighborhood": "First Hill",
    "neighborhoodGroup": "East",
    "units": "L1"
  },
  {
    "id_str": "F210088751",
    "created_at": "8/16/2021 6:28:45 PM",
    "timestamp": 1629163725000,
    "description": "Aid Response",
    "address": "620 Terry Ave",
    "active": false,
    "unitCount": 1,
    "severity": 0,
    "lat": 47.606157,
    "long": -122.323768,
    "neighborhood": "First Hill",
    "neighborhoodGroup": "East",
    "units": "A10"
  },
  {
    "id_str": "F210088749",
    "created_at": "8/16/2021 6:26:50 PM",
    "timestamp": 1629163610000,
    "description": "AFA4 - Auto Alarm 2 + 1 + 1",
    "address": "1424 11th Ave",
    "active": false,
    "unitCount": 4,
    "severity": 0,
    "lat": 47.613204,
    "long": -122.318126,
    "neighborhood": "Capitol Hill",
    "neighborhoodGroup": "East",
    "units": "B2 E10 E25 L10"
  },
  {
    "id_str": "F210088750",
    "created_at": "8/16/2021 6:26:46 PM",
    "timestamp": 1629163606000,
    "description": "Aid Response",
    "address": "Greenwood Ave N / N 100th St",
    "active": false,
    "unitCount": 1,
    "severity": 0,
    "lat": 47.701461,
    "long": -122.355415,
    "neighborhood": "Greenwood/Phinney Ridge",
    "neighborhoodGroup": "Northwest",
    "units": "E21"
  },
  {
    "id_str": "F210088748",
    "created_at": "8/16/2021 6:22:40 PM",
    "timestamp": 1629163360000,
    "description": "Aid Response",
    "address": "2026 3rd Ave",
    "active": false,
    "unitCount": 1,
    "severity": 0,
    "lat": 47.612594,
    "long": -122.341224,
    "neighborhood": "Cascade/Eastlake",
    "neighborhoodGroup": "Lake Union",
    "units": "A2"
  },
  {
    "id_str": "F210088747",
    "created_at": "8/16/2021 6:20:28 PM",
    "timestamp": 1629163228000,
    "description": "Aid Response",
    "address": "1024 6th Ave S",
    "active": false,
    "unitCount": 1,
    "severity": 0,
    "lat": 47.593877,
    "long": -122.325968,
    "neighborhood": "Duwamish/SODO",
    "neighborhoodGroup": "Greater Duwamish",
    "units": "A5"
  },
  {
    "id_str": "F210088746",
    "created_at": "8/16/2021 6:19:47 PM",
    "timestamp": 1629163187000,
    "description": "Illegal Burn",
    "address": "3027 17th Ave W",
    "active": false,
    "unitCount": 1,
    "severity": 0,
    "lat": 47.64756,
    "long": -122.37887,
    "neighborhood": "Interbay",
    "neighborhoodGroup": "Magnolia/Queen Anne",
    "units": "E20"
  },
  {
    "id_str": "F210088745",
    "created_at": "8/16/2021 6:16:49 PM",
    "timestamp": 1629163009000,
    "description": "Low Acuity Response",
    "address": "2000 43rd Ave E",
    "active": false,
    "unitCount": 1,
    "severity": 0,
    "lat": 47.636948,
    "long": -122.277114,
    "neighborhood": "Madison Park",
    "neighborhoodGroup": "East",
    "units": "E34"
  },
  {
    "id_str": "F210088744",
    "created_at": "8/16/2021 6:08:30 PM",
    "timestamp": 1629162510000,
    "description": "Aid Response",
    "address": "1115 Nw Market St",
    "active": false,
    "unitCount": 2,
    "severity": 0,
    "lat": 47.668662,
    "long": -122.370893,
    "neighborhood": "Ballard",
    "neighborhoodGroup": "Ballard",
    "units": "E18 L8"
  },
  {
    "id_str": "F210088743",
    "created_at": "8/16/2021 5:59:53 PM",
    "timestamp": 1629161993000,
    "description": "Aid Response",
    "address": "East Marginal Way S / S Mead St",
    "active": false,
    "unitCount": 1,
    "severity": 0,
    "lat": 47.551208,
    "long": -122.335851,
    "neighborhood": "Georgetown",
    "neighborhoodGroup": "Greater Duwamish",
    "units": "E27"
  },
  {
    "id_str": "F210088741",
    "created_at": "8/16/2021 5:55:10 PM",
    "timestamp": 1629161710000,
    "description": "Aid Response",
    "address": "13520 Linden Ave N",
    "active": false,
    "unitCount": 1,
    "severity": 0,
    "lat": 47.726948,
    "long": -122.347715,
    "neighborhood": "Broadview/Bitter Lake",
    "neighborhoodGroup": "Northwest",
    "units": "E24"
  },
  {
    "id_str": "F210088739",
    "created_at": "8/16/2021 5:37:14 PM",
    "timestamp": 1629160634000,
    "description": "Aid Response",
    "address": "3232 Nw 54th St",
    "active": false,
    "unitCount": 1,
    "severity": 0,
    "lat": 47.667459,
    "long": -122.399723,
    "neighborhood": "Sunset Hill/Loyal Heights",
    "neighborhoodGroup": "Ballard",
    "units": "E18"
  },
  {
    "id_str": "F210088738",
    "created_at": "8/16/2021 5:28:31 PM",
    "timestamp": 1629160111000,
    "description": "Aid Response",
    "address": "23rd Ave S / S Jackson St",
    "active": false,
    "unitCount": 1,
    "severity": 0,
    "lat": 47.599281,
    "long": -122.302233,
    "neighborhood": "Madrona/Leschi",
    "neighborhoodGroup": "Central",
    "units": "E6"
  },
  {
    "id_str": "F210088734",
    "created_at": "8/16/2021 5:26:38 PM",
    "timestamp": 1629159998000,
    "description": "Aid Response",
    "address": "747 N 135th St",
    "active": false,
    "unitCount": 1,
    "severity": 0,
    "lat": 47.726803,
    "long": -122.347793,
    "neighborhood": "Broadview/Bitter Lake",
    "neighborhoodGroup": "Northwest",
    "units": "E24"
  },
  {
    "id_str": "F210088733",
    "created_at": "8/16/2021 5:25:33 PM",
    "timestamp": 1629159933000,
    "description": "Auto Fire Alarm",
    "address": "1100 Fairview Ave N",
    "active": false,
    "unitCount": 2,
    "severity": 0,
    "lat": 47.628713,
    "long": -122.330907,
    "neighborhood": "Cascade/Eastlake",
    "neighborhoodGroup": "Lake Union",
    "units": "E22 L4"
  },
  {
    "id_str": "F210088728",
    "created_at": "8/16/2021 5:06:29 PM",
    "timestamp": 1629158789000,
    "description": "Encampment Fire",
    "address": "Whitman Ave N / N 63rd St",
    "active": false,
    "unitCount": 1,
    "severity": 0,
    "lat": 47.673938,
    "long": -122.34666,
    "neighborhood": "Green Lake",
    "neighborhoodGroup": "Northwest",
    "units": "E21"
  }
]