[
  {
    "id_str": "F210083562",
    "created_at": "8/4/2021 4:49:18 PM",
    "timestamp": 1628120958000,
    "description": "Rescue Elevator",
    "address": "900 University St",
    "active": false,
    "unitCount": 1,
    "severity": 0,
    "lat": 47.61055,
    "long": -122.329318,
    "neighborhood": "First Hill",
    "neighborhoodGroup": "East",
    "units": "L10"
  },
  {
    "id_str": "F210083560",
    "created_at": "8/4/2021 4:44:54 PM",
    "timestamp": 1628120694000,
    "description": "Aid Response",
    "address": "6520 10th Ave Nw",
    "active": false,
    "unitCount": 1,
    "severity": 0,
    "lat": 47.676145,
    "long": -122.369781,
    "neighborhood": "Whittier Heights",
    "neighborhoodGroup": "Ballard",
    "units": "L8"
  },
  {
    "id_str": "F210083558",
    "created_at": "8/4/2021 4:36:09 PM",
    "timestamp": 1628120169000,
    "description": "Aid Response",
    "address": "12546 33rd Ave Ne",
    "active": false,
    "unitCount": 1,
    "severity": 0,
    "lat": 47.719585,
    "long": -122.292729,
    "neighborhood": "Cedar Park/Meadowbrook",
    "neighborhoodGroup": "North",
    "units": "E39"
  },
  {
    "id_str": "F210083556",
    "created_at": "8/4/2021 4:32:28 PM",
    "timestamp": 1628119948000,
    "description": "Low Acuity Response",
    "address": "2858 Nw 58th St",
    "active": false,
    "unitCount": 1,
    "severity": 0,
    "lat": 47.670923,
    "long": -122.393672,
    "neighborhood": "Sunset Hill/Loyal Heights",
    "neighborhoodGroup": "Ballard",
    "units": "E9"
  },
  {
    "id_str": "F210083555",
    "created_at": "8/4/2021 4:30:12 PM",
    "timestamp": 1628119812000,
    "description": "Aid Response",
    "address": "1924 4th Ave S",
    "active": false,
    "unitCount": 1,
    "severity": 0,
    "lat": 47.585993,
    "long": -122.329061,
    "neighborhood": "Duwamish/SODO",
    "neighborhoodGroup": "Greater Duwamish",
    "units": "A14"
  },
  {
    "id_str": "F210083553",
    "created_at": "8/4/2021 4:21:24 PM",
    "timestamp": 1628119284000,
    "description": "Automatic Fire Alarm Resd",
    "address": "3314 Claremont Ave S",
    "active": false,
    "unitCount": 1,
    "severity": 0,
    "lat": 47.573389,
    "long": -122.295848,
    "neighborhood": "Mt. Baker/North Rainier",
    "neighborhoodGroup": "Southeast",
    "units": "E30"
  },
  {
    "id_str": "F210083551",
    "created_at": "8/4/2021 4:21:23 PM",
    "timestamp": 1628119283000,
    "description": "4RED - 2 + 1 + 1",
    "address": "6520 35th Ave Sw",
    "active": false,
    "unitCount": 4,
    "severity": 0,
    "lat": 47.544499,
    "long": -122.376449,
    "neighborhood": "High Point",
    "neighborhoodGroup": "Delridge Neighborhoods",
    "units": "B7 E11 E37 L11"
  },
  {
    "id_str": "F210083548",
    "created_at": "8/4/2021 4:16:30 PM",
    "timestamp": 1628118990000,
    "description": "Aid Response",
    "address": "500 Pine St",
    "active": false,
    "unitCount": 1,
    "severity": 0,
    "lat": 47.611672,
    "long": -122.336484,
    "neighborhood": "Downtown Commercial Core",
    "neighborhoodGroup": "Downtown",
    "units": "A4"
  },
  {
    "id_str": "F210083547",
    "created_at": "8/4/2021 4:14:56 PM",
    "timestamp": 1628118896000,
    "description": "Aid Response",
    "address": "610 5th Ave",
    "active": false,
    "unitCount": 1,
    "severity": 0,
    "lat": 47.603764,
    "long": -122.329247,
    "neighborhood": "First Hill",
    "neighborhoodGroup": "East",
    "units": "E10"
  },
  {
    "id_str": "F210083544",
    "created_at": "8/4/2021 4:05:52 PM",
    "timestamp": 1628118352000,
    "description": "Aid Response",
    "address": "216 James St",
    "active": false,
    "unitCount": 2,
    "severity": 0,
    "lat": 47.602382,
    "long": -122.332338,
    "neighborhood": "Downtown Commercial Core",
    "neighborhoodGroup": "Downtown",
    "units": "A10 L1"
  },
  {
    "id_str": "F210083543",
    "created_at": "8/4/2021 4:02:34 PM",
    "timestamp": 1628118154000,
    "description": "Medic Response",
    "address": "5500 Phinney Ave N",
    "active": false,
    "unitCount": 2,
    "severity": 0,
    "lat": 47.668431,
    "long": -122.35441,
    "neighborhood": "Greenwood/Phinney Ridge",
    "neighborhoodGroup": "Northwest",
    "units": "E21 M18"
  },
  {
    "id_str": "F210083542",
    "created_at": "8/4/2021 3:59:36 PM",
    "timestamp": 1628117976000,
    "description": "Aid Response",
    "address": "2010 E Lynn St",
    "active": false,
    "unitCount": 1,
    "severity": 0,
    "lat": 47.639543,
    "long": -122.305445,
    "neighborhood": "Montlake/Portage Bay",
    "neighborhoodGroup": "Northeast",
    "units": "E22"
  },
  {
    "id_str": "F210083541",
    "created_at": "8/4/2021 3:57:01 PM",
    "timestamp": 1628117821000,
    "description": "Aid Response",
    "address": "509 3rd Ave",
    "active": false,
    "unitCount": 1,
    "severity": 0,
    "lat": 47.602114,
    "long": -122.330809,
    "neighborhood": "Downtown Commercial Core",
    "neighborhoodGroup": "Downtown",
    "units": "A10"
  },
  {
    "id_str": "F210083540",
    "created_at": "8/4/2021 3:56:32 PM",
    "timestamp": 1628117792000,
    "description": "Auto Fire Alarm",
    "address": "300 E Pine St",
    "active": false,
    "unitCount": 2,
    "severity": 0,
    "lat": 47.615238,
    "long": -122.327904,
    "neighborhood": "Capitol Hill",
    "neighborhoodGroup": "East",
    "units": "E25 L10"
  },
  {
    "id_str": "F210083539",
    "created_at": "8/4/2021 3:54:32 PM",
    "timestamp": 1628117672000,
    "description": "Aid Response",
    "address": "1200 University St",
    "active": false,
    "unitCount": 1,
    "severity": 0,
    "lat": 47.611943,
    "long": -122.325987,
    "neighborhood": "First Hill",
    "neighborhoodGroup": "East",
    "units": "A25"
  },
  {
    "id_str": "F210083537",
    "created_at": "8/4/2021 3:48:48 PM",
    "timestamp": 1628117328000,
    "description": "Medic Response",
    "address": "7547 24th Ave Nw",
    "active": false,
    "unitCount": 2,
    "severity": 0,
    "lat": 47.683599,
    "long": -122.387565,
    "neighborhood": "Sunset Hill/Loyal Heights",
    "neighborhoodGroup": "Ballard",
    "units": "E35 M31"
  },
  {
    "id_str": "F210083536",
    "created_at": "8/4/2021 3:47:47 PM",
    "timestamp": 1628117267000,
    "description": "Aid Response",
    "address": "810 Virginia St",
    "active": false,
    "unitCount": 1,
    "severity": 0,
    "lat": 47.615789,
    "long": -122.336507,
    "neighborhood": "Cascade/Eastlake",
    "neighborhoodGroup": "Lake Union",
    "units": "A2"
  },
  {
    "id_str": "F210083535",
    "created_at": "8/4/2021 3:45:16 PM",
    "timestamp": 1628117116000,
    "description": "Aid Response",
    "address": "8TH AVE / BLANCHARD ST",
    "active": false,
    "unitCount": 2,
    "severity": 0,
    "lat": 47.617752,
    "long": -122.338344,
    "neighborhood": "Cascade/Eastlake",
    "neighborhoodGroup": "Lake Union",
    "units": "A4 H2"
  },
  {
    "id_str": "F210083534",
    "created_at": "8/4/2021 3:40:29 PM",
    "timestamp": 1628116829000,
    "description": "Aid Response",
    "address": "1107 E Denny Way",
    "active": false,
    "unitCount": 1,
    "severity": 0,
    "lat": 47.61876,
    "long": -122.318122,
    "neighborhood": "Capitol Hill",
    "neighborhoodGroup": "East",
    "units": "A25"
  },
  {
    "id_str": "F210083533",
    "created_at": "8/4/2021 3:38:19 PM",
    "timestamp": 1628116699000,
    "description": "Aid Response",
    "address": "12036 40th Ave Ne",
    "active": false,
    "unitCount": 1,
    "severity": 0,
    "lat": 47.715763,
    "long": -122.285273,
    "neighborhood": "Cedar Park/Meadowbrook",
    "neighborhoodGroup": "North",
    "units": "E40"
  },
  {
    "id_str": "F210083529",
    "created_at": "8/4/2021 3:29:59 PM",
    "timestamp": 1628116199000,
    "description": "Aid Response",
    "address": "14058 Interlake Ave N",
    "active": false,
    "unitCount": 1,
    "severity": 0,
    "lat": 47.732032,
    "long": -122.341312,
    "neighborhood": "Haller Lake",
    "neighborhoodGroup": "Northwest",
    "units": "A31"
  },
  {
    "id_str": "F210083528",
    "created_at": "8/4/2021 3:28:44 PM",
    "timestamp": 1628116124000,
    "description": "Aid Response",
    "address": "4633 S Genesee St",
    "active": false,
    "unitCount": 1,
    "severity": 0,
    "lat": 47.564098,
    "long": -122.275327,
    "neighborhood": "Columbia City",
    "neighborhoodGroup": "Southeast",
    "units": "E28"
  },
  {
    "id_str": "F210083527",
    "created_at": "8/4/2021 3:28:30 PM",
    "timestamp": 1628116110000,
    "description": "Medic Response",
    "address": "4403 RAINIER AVE S",
    "active": false,
    "unitCount": 2,
    "severity": 0,
    "lat": 47.56565,
    "long": -122.288612,
    "neighborhood": "Columbia City",
    "neighborhoodGroup": "Southeast",
    "units": "E30 M10"
  },
  {
    "id_str": "F210083526",
    "created_at": "8/4/2021 3:26:33 PM",
    "timestamp": 1628115993000,
    "description": "Aid Response",
    "address": "3rd Ave / Pine St",
    "active": false,
    "unitCount": 2,
    "severity": 0,
    "lat": 47.610743,
    "long": -122.338702,
    "neighborhood": "Downtown Commercial Core",
    "neighborhoodGroup": "Downtown",
    "units": "A2 A4"
  },
  {
    "id_str": "F210083524",
    "created_at": "8/4/2021 3:21:10 PM",
    "timestamp": 1628115670000,
    "description": "Medic Response",
    "address": "1200 12th Ave S",
    "active": false,
    "unitCount": 3,
    "severity": 0,
    "lat": 47.592105,
    "long": -122.317281,
    "neighborhood": "Duwamish/SODO",
    "neighborhoodGroup": "Greater Duwamish",
    "units": "A5 E13 M1"
  },
  {
    "id_str": "F210083523",
    "created_at": "8/4/2021 3:19:21 PM",
    "timestamp": 1628115561000,
    "description": "Investigate Out Of Service",
    "address": "N 125th St / Stone Ave N",
    "active": false,
    "unitCount": 2,
    "severity": 0,
    "lat": 47.719572,
    "long": -122.342248,
    "neighborhood": "Haller Lake",
    "neighborhoodGroup": "Northwest",
    "units": "B6 L5"
  },
  {
    "id_str": "F210083522",
    "created_at": "8/4/2021 3:18:32 PM",
    "timestamp": 1628115512000,
    "description": "Aid Response",
    "address": "1423 Nw 77th St",
    "active": false,
    "unitCount": 1,
    "severity": 0,
    "lat": 47.685067,
    "long": -122.374714,
    "neighborhood": "Whittier Heights",
    "neighborhoodGroup": "Ballard",
    "units": "E35"
  },
  {
    "id_str": "F210083520",
    "created_at": "8/4/2021 3:17:41 PM",
    "timestamp": 1628115461000,
    "description": "Aid Response",
    "address": "7047 21st Ave Ne",
    "active": false,
    "unitCount": 1,
    "severity": 0,
    "lat": 47.679838,
    "long": -122.305262,
    "neighborhood": "Ravenna/Bryant",
    "neighborhoodGroup": "Northeast",
    "units": "E16"
  },
  {
    "id_str": "F210083508",
    "created_at": "8/4/2021 3:00:16 PM",
    "timestamp": 1628114416000,
    "description": "Brush Fire",
    "address": "Ne Pacific St / Ne 40th St",
    "active": false,
    "unitCount": 1,
    "severity": 0,
    "lat": 47.655519,
    "long": -122.323446,
    "neighborhood": "Wallingford",
    "neighborhoodGroup": "Lake Union",
    "units": "E22"
  },
  {
    "id_str": "F210083507",
    "created_at": "8/4/2021 2:59:48 PM",
    "timestamp": 1628114388000,
    "description": "Brush Fire",
    "address": "NE PACIFIC ST / NE 40TH ST",
    "active": false,
    "unitCount": 1,
    "severity": 0,
    "lat": 47.655519,
    "long": -122.323446,
    "neighborhood": "Wallingford",
    "neighborhoodGroup": "Lake Union",
    "units": "E31"
  },
  {
    "id_str": "F210083505",
    "created_at": "8/4/2021 2:55:17 PM",
    "timestamp": 1628114117000,
    "description": "Aid Response",
    "address": "10th Ave W / W Halladay St",
    "active": false,
    "unitCount": 1,
    "severity": 0,
    "lat": 47.642016,
    "long": -122.370063,
    "neighborhood": "Queen Anne",
    "neighborhoodGroup": "Magnolia/Queen Anne",
    "units": "E20"
  },
  {
    "id_str": "F210083504",
    "created_at": "8/4/2021 2:54:31 PM",
    "timestamp": 1628114071000,
    "description": "Aid Response",
    "address": "3031 Ne 137th St",
    "active": false,
    "unitCount": 1,
    "severity": 0,
    "lat": 47.727925,
    "long": -122.295982,
    "neighborhood": "Cedar Park/Meadowbrook",
    "neighborhoodGroup": "North",
    "units": "E39"
  },
  {
    "id_str": "F210083503",
    "created_at": "8/4/2021 2:50:14 PM",
    "timestamp": 1628113814000,
    "description": "Aid Response",
    "address": "E Madison St / E Denny Way",
    "active": false,
    "unitCount": 1,
    "severity": 0,
    "lat": 47.618086,
    "long": -122.304159,
    "neighborhood": "Central Area/Squire Park",
    "neighborhoodGroup": "Central",
    "units": "A25"
  },
  {
    "id_str": "F210083502",
    "created_at": "8/4/2021 2:47:48 PM",
    "timestamp": 1628113668000,
    "description": "Aid Response",
    "address": "Aurora Ave N / Whitman Pl N",
    "active": false,
    "unitCount": 1,
    "severity": 0,
    "lat": 47.672425,
    "long": -122.34713,
    "neighborhood": "Greenwood/Phinney Ridge",
    "neighborhoodGroup": "Northwest",
    "units": "E17"
  },
  {
    "id_str": "F210083501",
    "created_at": "8/4/2021 2:47:46 PM",
    "timestamp": 1628113666000,
    "description": "Low Acuity Response",
    "address": "821 9th Ave",
    "active": false,
    "unitCount": 1,
    "severity": 0,
    "lat": 47.607128,
    "long": -122.326189,
    "neighborhood": "First Hill",
    "neighborhoodGroup": "East",
    "units": "H2"
  },
  {
    "id_str": "F210083500",
    "created_at": "8/4/2021 2:43:33 PM",
    "timestamp": 1628113413000,
    "description": "1RED 1 Unit",
    "address": "1515 Fairview Ave E",
    "active": false,
    "unitCount": 1,
    "severity": 0,
    "lat": 47.633493,
    "long": -122.326925,
    "neighborhood": "Cascade/Eastlake",
    "neighborhoodGroup": "Lake Union",
    "units": "E22"
  },
  {
    "id_str": "F210083496",
    "created_at": "8/4/2021 2:38:03 PM",
    "timestamp": 1628113083000,
    "description": "Medic Response",
    "address": "2nd Ave / Union St",
    "active": false,
    "unitCount": 2,
    "severity": 0,
    "lat": 47.608292,
    "long": -122.337995,
    "neighborhood": "Downtown Commercial Core",
    "neighborhoodGroup": "Downtown",
    "units": "E5 M10"
  },
  {
    "id_str": "F210083495",
    "created_at": "8/4/2021 2:35:37 PM",
    "timestamp": 1628112937000,
    "description": "Aid Response",
    "address": "4th Ave N / Roy St",
    "active": false,
    "unitCount": 1,
    "severity": 0,
    "lat": 47.625428,
    "long": -122.34887,
    "neighborhood": "Cascade/Eastlake",
    "neighborhoodGroup": "Lake Union",
    "units": "A4"
  },
  {
    "id_str": "F210083493",
    "created_at": "8/4/2021 2:33:20 PM",
    "timestamp": 1628112800000,
    "description": "Aid Response",
    "address": "West Viewmont Way W / W Barrett St",
    "active": false,
    "unitCount": 1,
    "severity": 0,
    "lat": 47.646806,
    "long": -122.409572,
    "neighborhood": "Magnolia",
    "neighborhoodGroup": "Magnolia/Queen Anne",
    "units": "E41"
  },
  {
    "id_str": "F210083491",
    "created_at": "8/4/2021 2:27:21 PM",
    "timestamp": 1628112441000,
    "description": "Aid Response",
    "address": "814 Columbia St",
    "active": false,
    "unitCount": 2,
    "severity": 0,
    "lat": 47.606584,
    "long": -122.327007,
    "neighborhood": "First Hill",
    "neighborhoodGroup": "East",
    "units": "A10 A5"
  },
  {
    "id_str": "F210083490",
    "created_at": "8/4/2021 2:22:07 PM",
    "timestamp": 1628112127000,
    "description": "Aid Response",
    "address": "9001 Lake City Way Ne",
    "active": false,
    "unitCount": 1,
    "severity": 0,
    "lat": 47.693931,
    "long": -122.30552,
    "neighborhood": "Wedgwood/View Ridge",
    "neighborhoodGroup": "Northeast",
    "units": "E40"
  },
  {
    "id_str": "F210083489",
    "created_at": "8/4/2021 2:20:02 PM",
    "timestamp": 1628112002000,
    "description": "Aid Response",
    "address": "1660 S Columbian Way",
    "active": false,
    "unitCount": 2,
    "severity": 0,
    "lat": 47.561845,
    "long": -122.310824,
    "neighborhood": "North Beacon Hill/Jefferson Park",
    "neighborhoodGroup": "Greater Duwamish",
    "units": "E13 M28"
  },
  {
    "id_str": "F210083488",
    "created_at": "8/4/2021 2:15:53 PM",
    "timestamp": 1628111753000,
    "description": "Auto Fire Alarm",
    "address": "2614 4th Ave",
    "active": false,
    "unitCount": 2,
    "severity": 0,
    "lat": 47.617316,
    "long": -122.347229,
    "neighborhood": "Cascade/Eastlake",
    "neighborhoodGroup": "Lake Union",
    "units": "E5 L4"
  },
  {
    "id_str": "F210083487",
    "created_at": "8/4/2021 2:08:19 PM",
    "timestamp": 1628111299000,
    "description": "Aid Response",
    "address": "1020 University St",
    "active": false,
    "unitCount": 1,
    "severity": 0,
    "lat": 47.611109,
    "long": -122.327981,
    "neighborhood": "First Hill",
    "neighborhoodGroup": "East",
    "units": "A5"
  },
  {
    "id_str": "F210083486",
    "created_at": "8/4/2021 2:07:55 PM",
    "timestamp": 1628111275000,
    "description": "Aid Response",
    "address": "9220 2nd Ave Sw",
    "active": false,
    "unitCount": 1,
    "severity": 0,
    "lat": 47.520903,
    "long": -122.335815,
    "units": "E26"
  },
  {
    "id_str": "F210083484",
    "created_at": "8/4/2021 1:45:33 PM",
    "timestamp": 1628109933000,
    "description": "Auto Fire Alarm",
    "address": "3918 15th Pl W",
    "active": false,
    "unitCount": 3,
    "severity": 0,
    "lat": 47.655234,
    "long": -122.377559,
    "neighborhood": "Interbay",
    "neighborhoodGroup": "Magnolia/Queen Anne",
    "units": "E20 FIREBOAT L8"
  },
  {
    "id_str": "F210083483",
    "created_at": "8/4/2021 1:45:19 PM",
    "timestamp": 1628109919000,
    "description": "Aid Response",
    "address": "7758 15th Ave Nw",
    "active": false,
    "unitCount": 1,
    "severity": 0,
    "lat": 47.685406,
    "long": -122.376787,
    "neighborhood": "Whittier Heights",
    "neighborhoodGroup": "Ballard",
    "units": "E35"
  },
  {
    "id_str": "F210083482",
    "created_at": "8/4/2021 1:42:31 PM",
    "timestamp": 1628109751000,
    "description": "Medic Response",
    "address": "2200 E Madison St",
    "active": false,
    "unitCount": 2,
    "severity": 0,
    "lat": 47.61842,
    "long": -122.30365,
    "neighborhood": "Central Area/Squire Park",
    "neighborhoodGroup": "Central",
    "units": "A25 M1"
  },
  {
    "id_str": "F210083481",
    "created_at": "8/4/2021 1:40:38 PM",
    "timestamp": 1628109638000,
    "description": "Investigate Out Of Service",
    "address": "5022 18th Ave Ne",
    "active": false,
    "unitCount": 1,
    "severity": 0,
    "lat": 47.66503,
    "long": -122.308324,
    "neighborhood": "University District",
    "neighborhoodGroup": "Northeast",
    "units": "E17"
  },
  {
    "id_str": "F210083480",
    "created_at": "8/4/2021 1:29:42 PM",
    "timestamp": 1628108982000,
    "description": "Electrical Problem",
    "address": "3601 Fremont Ave N",
    "active": false,
    "unitCount": 1,
    "severity": 0,
    "lat": 47.651349,
    "long": -122.349934,
    "neighborhood": "Fremont",
    "neighborhoodGroup": "Lake Union",
    "units": "E9"
  },
  {
    "id_str": "F210083479",
    "created_at": "8/4/2021 1:19:04 PM",
    "timestamp": 1628108344000,
    "description": "Aid Response",
    "address": "W Barrett St / West Viewmont Way W",
    "active": false,
    "unitCount": 1,
    "severity": 0,
    "lat": 47.646806,
    "long": -122.409572,
    "neighborhood": "Magnolia",
    "neighborhoodGroup": "Magnolia/Queen Anne",
    "units": "E41"
  },
  {
    "id_str": "F210083478",
    "created_at": "8/4/2021 1:16:39 PM",
    "timestamp": 1628108199000,
    "description": "Aid Response",
    "address": "1726 26th Ave E",
    "active": false,
    "unitCount": 1,
    "severity": 0,
    "lat": 47.634261,
    "long": -122.299514,
    "neighborhood": "Montlake/Portage Bay",
    "neighborhoodGroup": "Northeast",
    "units": "E22"
  },
  {
    "id_str": "F210083476",
    "created_at": "8/4/2021 1:15:00 PM",
    "timestamp": 1628108100000,
    "description": "Automatic Fire Alarm Resd",
    "address": "715 Mcgilvra Blvd E",
    "active": false,
    "unitCount": 1,
    "severity": 0,
    "lat": 47.625903,
    "long": -122.28376,
    "neighborhood": "Madison Park",
    "neighborhoodGroup": "East",
    "units": "E34"
  },
  {
    "id_str": "F210083474",
    "created_at": "8/4/2021 1:02:38 PM",
    "timestamp": 1628107358000,
    "description": "Aid Response",
    "address": "1401 2nd Ave",
    "active": false,
    "unitCount": 2,
    "severity": 0,
    "lat": 47.608292,
    "long": -122.337995,
    "neighborhood": "Downtown Commercial Core",
    "neighborhoodGroup": "Downtown",
    "units": "A4 M17"
  },
  {
    "id_str": "F210083473",
    "created_at": "8/4/2021 12:58:23 PM",
    "timestamp": 1628107103000,
    "description": "Aid Response",
    "address": "1810 N 107th St",
    "active": false,
    "unitCount": 1,
    "severity": 0,
    "lat": 47.706854,
    "long": -122.336093,
    "neighborhood": "Haller Lake",
    "neighborhoodGroup": "Northwest",
    "units": "E39"
  },
  {
    "id_str": "F210083472",
    "created_at": "8/4/2021 12:58:09 PM",
    "timestamp": 1628107089000,
    "description": "Aid Response",
    "address": "2611 S Dearborn St",
    "active": false,
    "unitCount": 1,
    "severity": 0,
    "lat": 47.595541,
    "long": -122.298643,
    "neighborhood": "Madrona/Leschi",
    "neighborhoodGroup": "Central",
    "units": "L3"
  },
  {
    "id_str": "F210083471",
    "created_at": "8/4/2021 12:57:07 PM",
    "timestamp": 1628107027000,
    "description": "Medic Response",
    "address": "1920 S Walker St",
    "active": false,
    "unitCount": 2,
    "severity": 0,
    "lat": 47.583675,
    "long": -122.3079,
    "neighborhood": "North Beacon Hill/Jefferson Park",
    "neighborhoodGroup": "Greater Duwamish",
    "units": "E13 M10"
  },
  {
    "id_str": "F210083470",
    "created_at": "8/4/2021 12:51:23 PM",
    "timestamp": 1628106683000,
    "description": "Natural Gas Leak",
    "address": "5th Ave S / S Henderson St",
    "active": false,
    "unitCount": 3,
    "severity": 0,
    "lat": 47.523081,
    "long": -122.328255,
    "neighborhood": "South Park",
    "neighborhoodGroup": "Greater Duwamish",
    "units": "B5 E26 R1"
  },
  {
    "id_str": "F210083469",
    "created_at": "8/4/2021 12:50:19 PM",
    "timestamp": 1628106619000,
    "description": "Aid Response",
    "address": "9809 Linden Ave N",
    "active": false,
    "unitCount": 1,
    "severity": 0,
    "lat": 47.700569,
    "long": -122.347334,
    "neighborhood": "Licton Springs",
    "neighborhoodGroup": "Northwest",
    "units": "L5"
  },
  {
    "id_str": "F210083468",
    "created_at": "8/4/2021 12:46:33 PM",
    "timestamp": 1628106393000,
    "description": "Advised Incident",
    "address": "999 Nw Leary Way",
    "active": false,
    "unitCount": 5,
    "severity": 1,
    "units": "B4 E9 L8 M18 M44"
  },
  {
    "id_str": "F210083467",
    "created_at": "8/4/2021 12:44:35 PM",
    "timestamp": 1628106275000,
    "description": "Brush Fire",
    "address": "30th Ave Ne / Ne 120th St",
    "active": false,
    "unitCount": 1,
    "severity": 0,
    "lat": 47.715596,
    "long": -122.29646,
    "neighborhood": "Olympic Hills/Victory Heights",
    "neighborhoodGroup": "North",
    "units": "E40"
  },
  {
    "id_str": "F210083466",
    "created_at": "8/4/2021 12:43:59 PM",
    "timestamp": 1628106239000,
    "description": "1RED 1 Unit",
    "address": "5615 S Fountain St",
    "active": false,
    "unitCount": 1,
    "severity": 0,
    "lat": 47.503353,
    "long": -122.262794,
    "neighborhood": "Rainier Beach",
    "neighborhoodGroup": "Southeast",
    "units": "E33"
  },
  {
    "id_str": "F210083465",
    "created_at": "8/4/2021 12:34:36 PM",
    "timestamp": 1628105676000,
    "description": "Medic Response",
    "address": "Aurora Ave N / West Green Lake Way N",
    "active": false,
    "unitCount": 5,
    "severity": 1,
    "lat": 47.675923,
    "long": -122.346747,
    "neighborhood": "Green Lake",
    "neighborhoodGroup": "Northwest",
    "units": "E21 E31 L9 M17 M18"
  },
  {
    "id_str": "F210083464",
    "created_at": "8/4/2021 12:32:31 PM",
    "timestamp": 1628105551000,
    "description": "Aid Response",
    "address": "E John St / 19th Ave E",
    "active": false,
    "unitCount": 1,
    "severity": 0,
    "lat": 47.619665,
    "long": -122.307364,
    "neighborhood": "Miller Park",
    "neighborhoodGroup": "East",
    "units": "L10"
  },
  {
    "id_str": "F210083462",
    "created_at": "8/4/2021 12:31:29 PM",
    "timestamp": 1628105489000,
    "description": "Aid Response",
    "address": "11039 17th Ave Ne",
    "active": false,
    "unitCount": 1,
    "severity": 0,
    "lat": 47.709397,
    "long": -122.309982,
    "neighborhood": "Olympic Hills/Victory Heights",
    "neighborhoodGroup": "North",
    "units": "E39"
  },
  {
    "id_str": "F210083460",
    "created_at": "8/4/2021 12:28:30 PM",
    "timestamp": 1628105310000,
    "description": "Aid Response",
    "address": "108 PREFONTAINE PL S",
    "active": false,
    "unitCount": 1,
    "severity": 0,
    "lat": 47.601661,
    "long": -122.330143,
    "neighborhood": "Pioneer Square/International District",
    "neighborhoodGroup": "Downtown",
    "units": "A10"
  },
  {
    "id_str": "F210083457",
    "created_at": "8/4/2021 12:22:15 PM",
    "timestamp": 1628104935000,
    "description": "Automatic Fire Alarm Resd",
    "address": "629 Nw 53rd St",
    "active": false,
    "unitCount": 1,
    "severity": 0,
    "lat": 47.667182,
    "long": -122.363697,
    "neighborhood": "Fremont",
    "neighborhoodGroup": "Lake Union",
    "units": "E9"
  },
  {
    "id_str": "F210083456",
    "created_at": "8/4/2021 12:21:23 PM",
    "timestamp": 1628104883000,
    "description": "Aid Response",
    "address": "505 Ne 70th St",
    "active": false,
    "unitCount": 1,
    "severity": 0,
    "lat": 47.679478,
    "long": -122.322726,
    "neighborhood": "Green Lake",
    "neighborhoodGroup": "Northwest",
    "units": "L9"
  },
  {
    "id_str": "F210083455",
    "created_at": "8/4/2021 12:14:00 PM",
    "timestamp": 1628104440000,
    "description": "Rescue Elevator",
    "address": "2711 Alaskan Way",
    "active": false,
    "unitCount": 1,
    "severity": 0,
    "lat": 47.613945,
    "long": -122.353202,
    "neighborhood": "Belltown",
    "neighborhoodGroup": "Downtown",
    "units": "L4"
  },
  {
    "id_str": "F210083454",
    "created_at": "8/4/2021 12:13:33 PM",
    "timestamp": 1628104413000,
    "description": "Medic Response",
    "address": "349 18th Ave E",
    "active": false,
    "unitCount": 2,
    "severity": 0,
    "lat": 47.621265,
    "long": -122.308727,
    "neighborhood": "Miller Park",
    "neighborhoodGroup": "East",
    "units": "E6 M1"
  },
  {
    "id_str": "F210083453",
    "created_at": "8/4/2021 12:11:13 PM",
    "timestamp": 1628104273000,
    "description": "Aid Response",
    "address": "1002 AIRPORT WAY S",
    "active": false,
    "unitCount": 1,
    "severity": 0,
    "lat": 47.59414,
    "long": -122.325059,
    "neighborhood": "Duwamish/SODO",
    "neighborhoodGroup": "Greater Duwamish",
    "units": "A5"
  },
  {
    "id_str": "F210083451",
    "created_at": "8/4/2021 12:11:12 PM",
    "timestamp": 1628104272000,
    "description": "Aid Response",
    "address": "6842 25th Ave Ne",
    "active": false,
    "unitCount": 1,
    "severity": 0,
    "lat": 47.677969,
    "long": -122.300628,
    "neighborhood": "Ravenna/Bryant",
    "neighborhoodGroup": "Northeast",
    "units": "E16"
  },
  {
    "id_str": "F210083450",
    "created_at": "8/4/2021 12:09:48 PM",
    "timestamp": 1628104188000,
    "description": "Aid Response",
    "address": "Broadway E / E Thomas St",
    "active": false,
    "unitCount": 2,
    "severity": 0,
    "lat": 47.621076,
    "long": -122.320892,
    "neighborhood": "Capitol Hill",
    "neighborhoodGroup": "East",
    "units": "A25 L10"
  },
  {
    "id_str": "F210083448",
    "created_at": "8/4/2021 12:09:21 PM",
    "timestamp": 1628104161000,
    "description": "Aid Response",
    "address": "12755 GREENWOOD AVE N",
    "active": false,
    "unitCount": 2,
    "severity": 0,
    "lat": 47.687053,
    "long": -122.3553,
    "neighborhood": "Greenwood/Phinney Ridge",
    "neighborhoodGroup": "Northwest",
    "units": "A31 E24"
  },
  {
    "id_str": "F210083444",
    "created_at": "8/4/2021 12:08:24 PM",
    "timestamp": 1628104104000,
    "description": "Aid Response",
    "address": "10822 Roosevelt Way Ne",
    "active": false,
    "unitCount": 1,
    "severity": 0,
    "lat": 47.707748,
    "long": -122.31784,
    "neighborhood": "Northgate/Maple Leaf",
    "neighborhoodGroup": "North",
    "units": "E31"
  },
  {
    "id_str": "F210083443",
    "created_at": "8/4/2021 12:07:57 PM",
    "timestamp": 1628104077000,
    "description": "Aid Response",
    "address": "3rd Ave / Pine St",
    "active": false,
    "unitCount": 1,
    "severity": 0,
    "lat": 47.610743,
    "long": -122.338702,
    "neighborhood": "Downtown Commercial Core",
    "neighborhoodGroup": "Downtown",
    "units": "A4"
  },
  {
    "id_str": "F210083441",
    "created_at": "8/4/2021 12:05:34 PM",
    "timestamp": 1628103934000,
    "description": "Aid Response",
    "address": "9144 7th Ave S",
    "active": false,
    "unitCount": 1,
    "severity": 0,
    "lat": 47.521732,
    "long": -122.32498,
    "neighborhood": "South Park",
    "neighborhoodGroup": "Greater Duwamish",
    "units": "E11"
  },
  {
    "id_str": "F210083440",
    "created_at": "8/4/2021 12:03:47 PM",
    "timestamp": 1628103827000,
    "description": "MVI - Motor Vehicle Incident",
    "address": "8th Ave Ne / Ne Northgate Way",
    "active": false,
    "unitCount": 1,
    "severity": 0,
    "lat": 47.708577,
    "long": -122.320561,
    "neighborhood": "Northgate/Maple Leaf",
    "neighborhoodGroup": "North",
    "units": "E31"
  },
  {
    "id_str": "F210083439",
    "created_at": "8/4/2021 12:02:35 PM",
    "timestamp": 1628103755000,
    "description": "Aid Response",
    "address": "2134 Harbor Ave Sw",
    "active": false,
    "unitCount": 1,
    "severity": 0,
    "lat": 47.585088,
    "long": -122.375761,
    "neighborhood": "North Delridge",
    "neighborhoodGroup": "Delridge Neighborhoods",
    "units": "E29"
  },
  {
    "id_str": "F210083437",
    "created_at": "8/4/2021 12:00:26 PM",
    "timestamp": 1628103626000,
    "description": "Aid Response",
    "address": "121 Nw 85th St",
    "active": false,
    "unitCount": 1,
    "severity": 0,
    "lat": 47.690612,
    "long": -122.358251,
    "neighborhood": "Greenwood/Phinney Ridge",
    "neighborhoodGroup": "Northwest",
    "units": "E21"
  },
  {
    "id_str": "F210083436",
    "created_at": "8/4/2021 11:59:31 AM",
    "timestamp": 1628103571000,
    "description": "Aid Response",
    "address": "5145 Ne 41st St",
    "active": false,
    "unitCount": 1,
    "severity": 0,
    "lat": 47.658009,
    "long": -122.271625,
    "neighborhood": "Laurelhurst/Sand Point",
    "neighborhoodGroup": "Northeast",
    "units": "E17"
  },
  {
    "id_str": "F210083435",
    "created_at": "8/4/2021 11:59:10 AM",
    "timestamp": 1628103550000,
    "description": "Low Acuity Response",
    "address": "1414 E Yesler Way",
    "active": false,
    "unitCount": 1,
    "severity": 0,
    "lat": 47.601687,
    "long": -122.31398,
    "neighborhood": "First Hill",
    "neighborhoodGroup": "East",
    "units": "H2"
  },
  {
    "id_str": "F210083434",
    "created_at": "8/4/2021 11:57:38 AM",
    "timestamp": 1628103458000,
    "description": "Aid Response",
    "address": "3206 Rainier Ave S",
    "active": false,
    "unitCount": 2,
    "severity": 0,
    "lat": 47.574988,
    "long": -122.295585,
    "neighborhood": "Mt. Baker/North Rainier",
    "neighborhoodGroup": "Southeast",
    "units": "E30 MIH"
  },
  {
    "id_str": "F210083433",
    "created_at": "8/4/2021 11:55:36 AM",
    "timestamp": 1628103336000,
    "description": "Auto Fire Alarm",
    "address": "1427 S Main St",
    "active": false,
    "unitCount": 2,
    "severity": 0,
    "lat": 47.600009,
    "long": -122.313786,
    "neighborhood": "Judkins Park",
    "neighborhoodGroup": "Central",
    "units": "E6 L3"
  },
  {
    "id_str": "F210083432",
    "created_at": "8/4/2021 11:53:56 AM",
    "timestamp": 1628103236000,
    "description": "Aid Response",
    "address": "7400 Sand Point Way Ne",
    "active": false,
    "unitCount": 1,
    "severity": 0,
    "lat": 47.682124,
    "long": -122.263668,
    "neighborhood": "Laurelhurst/Sand Point",
    "neighborhoodGroup": "Northeast",
    "units": "E38"
  },
  {
    "id_str": "F210083431",
    "created_at": "8/4/2021 11:50:31 AM",
    "timestamp": 1628103031000,
    "description": "Aid Response",
    "address": "2025 14th Ave S",
    "active": false,
    "unitCount": 2,
    "severity": 0,
    "lat": 47.585284,
    "long": -122.314678,
    "neighborhood": "North Beacon Hill/Jefferson Park",
    "neighborhoodGroup": "Greater Duwamish",
    "units": "A10 E13"
  },
  {
    "id_str": "F210083430",
    "created_at": "8/4/2021 11:49:20 AM",
    "timestamp": 1628102960000,
    "description": "Aid Response",
    "address": "1100 University St",
    "active": false,
    "unitCount": 1,
    "severity": 0,
    "lat": 47.611479,
    "long": -122.327097,
    "neighborhood": "First Hill",
    "neighborhoodGroup": "East",
    "units": "A25"
  },
  {
    "id_str": "F210083429",
    "created_at": "8/4/2021 11:48:04 AM",
    "timestamp": 1628102884000,
    "description": "Aid Response",
    "address": "Sw Oregon St / Glenn Way Sw",
    "active": false,
    "unitCount": 1,
    "severity": 0,
    "lat": 47.562949,
    "long": -122.389482,
    "neighborhood": "West Seattle Junction/Genesee Hill",
    "neighborhoodGroup": "Southwest",
    "units": "L11"
  },
  {
    "id_str": "F210083427",
    "created_at": "8/4/2021 11:38:42 AM",
    "timestamp": 1628102322000,
    "description": "Alarm Bell",
    "address": "505 W Roy St",
    "active": false,
    "unitCount": 1,
    "severity": 0,
    "lat": 47.625859,
    "long": -122.363284,
    "neighborhood": "Queen Anne",
    "neighborhoodGroup": "Magnolia/Queen Anne",
    "units": "E8"
  },
  {
    "id_str": "F210083428",
    "created_at": "8/4/2021 11:38:35 AM",
    "timestamp": 1628102315000,
    "description": "Alarm Bell",
    "address": "7116 Greenwood Ave N",
    "active": false,
    "unitCount": 2,
    "severity": 0,
    "lat": 47.680378,
    "long": -122.35531,
    "neighborhood": "Greenwood/Phinney Ridge",
    "neighborhoodGroup": "Northwest",
    "units": "E21 L8"
  },
  {
    "id_str": "F210083426",
    "created_at": "8/4/2021 11:34:36 AM",
    "timestamp": 1628102076000,
    "description": "Aid Response",
    "address": "2224 8th Ave",
    "active": false,
    "unitCount": 1,
    "severity": 0,
    "lat": 47.617439,
    "long": -122.3395,
    "neighborhood": "Cascade/Eastlake",
    "neighborhoodGroup": "Lake Union",
    "units": "A2"
  },
  {
    "id_str": "F210083423",
    "created_at": "8/4/2021 11:29:34 AM",
    "timestamp": 1628101774000,
    "description": "Aid Response",
    "address": "814 Columbia St",
    "active": false,
    "unitCount": 1,
    "severity": 0,
    "lat": 47.606584,
    "long": -122.327007,
    "neighborhood": "First Hill",
    "neighborhoodGroup": "East",
    "units": "A5"
  },
  {
    "id_str": "F210083424",
    "created_at": "8/4/2021 11:29:33 AM",
    "timestamp": 1628101773000,
    "description": "Low Acuity Response",
    "address": "10036 47th Ave Sw",
    "active": false,
    "unitCount": 1,
    "severity": 0,
    "lat": 47.513805,
    "long": -122.392856,
    "neighborhood": "Arbor Heights",
    "neighborhoodGroup": "Southwest",
    "units": "E37"
  },
  {
    "id_str": "F210083422",
    "created_at": "8/4/2021 11:23:39 AM",
    "timestamp": 1628101419000,
    "description": "Aid Response",
    "address": "2215 1st Ave",
    "active": false,
    "unitCount": 1,
    "severity": 0,
    "lat": 47.612716,
    "long": -122.345399,
    "neighborhood": "Belltown",
    "neighborhoodGroup": "Downtown",
    "units": "A2"
  },
  {
    "id_str": "F210083421",
    "created_at": "8/4/2021 11:09:09 AM",
    "timestamp": 1628100549000,
    "description": "Investigate Out Of Service",
    "address": "20th Ave Ne / Ne 58th St",
    "active": false,
    "unitCount": 1,
    "severity": 0,
    "lat": 47.670703,
    "long": -122.306498,
    "neighborhood": "Ravenna/Bryant",
    "neighborhoodGroup": "Northeast",
    "units": "E16"
  },
  {
    "id_str": "F210083417",
    "created_at": "8/4/2021 11:07:12 AM",
    "timestamp": 1628100432000,
    "description": "Medic Response",
    "address": "Convention Pl / Pike St",
    "active": false,
    "unitCount": 2,
    "severity": 0,
    "lat": 47.612535,
    "long": -122.331134,
    "neighborhood": "First Hill",
    "neighborhoodGroup": "East",
    "units": "A4 M10"
  },
  {
    "id_str": "F210083414",
    "created_at": "8/4/2021 11:00:51 AM",
    "timestamp": 1628100051000,
    "description": "Auto Fire Alarm",
    "address": "9709 3rd Ave Ne",
    "active": false,
    "unitCount": 2,
    "severity": 0,
    "lat": 47.699221,
    "long": -122.325766,
    "neighborhood": "Northgate/Maple Leaf",
    "neighborhoodGroup": "North",
    "units": "E40 L4"
  },
  {
    "id_str": "F210083413",
    "created_at": "8/4/2021 10:58:14 AM",
    "timestamp": 1628099894000,
    "description": "Aid Response",
    "address": "4910 Rainier Ave S",
    "active": false,
    "unitCount": 2,
    "severity": 0,
    "lat": 47.557767,
    "long": -122.285,
    "neighborhood": "Columbia City",
    "neighborhoodGroup": "Southeast",
    "units": "E28 E30"
  },
  {
    "id_str": "F210083412",
    "created_at": "8/4/2021 10:58:10 AM",
    "timestamp": 1628099890000,
    "description": "Aid Response",
    "address": "3204 Sw Morgan St",
    "active": false,
    "unitCount": 2,
    "severity": 0,
    "lat": 47.544669,
    "long": -122.373777,
    "neighborhood": "High Point",
    "neighborhoodGroup": "Delridge Neighborhoods",
    "units": "E37 L13"
  },
  {
    "id_str": "F210083411",
    "created_at": "8/4/2021 10:56:59 AM",
    "timestamp": 1628099819000,
    "description": "Medic Response",
    "address": "747 Belmont Pl E",
    "active": false,
    "unitCount": 2,
    "severity": 0,
    "lat": 47.625756,
    "long": -122.324281,
    "neighborhood": "North Capitol Hill",
    "neighborhoodGroup": "East",
    "units": "A25 M1"
  },
  {
    "id_str": "F210083409",
    "created_at": "8/4/2021 10:47:39 AM",
    "timestamp": 1628099259000,
    "description": "Aid Response",
    "address": "2239 Yale Ave E",
    "active": false,
    "unitCount": 1,
    "severity": 0,
    "lat": 47.638821,
    "long": -122.32711,
    "neighborhood": "Cascade/Eastlake",
    "neighborhoodGroup": "Lake Union",
    "units": "E22"
  },
  {
    "id_str": "F210083404",
    "created_at": "8/4/2021 10:39:05 AM",
    "timestamp": 1628098745000,
    "description": "Aid Response",
    "address": "601 3rd Ave",
    "active": false,
    "unitCount": 2,
    "severity": 0,
    "lat": 47.602769,
    "long": -122.331409,
    "neighborhood": "Downtown Commercial Core",
    "neighborhoodGroup": "Downtown",
    "units": "A10 L1"
  },
  {
    "id_str": "F210083403",
    "created_at": "8/4/2021 10:32:50 AM",
    "timestamp": 1628098370000,
    "description": "Aid Response",
    "address": "Yesler Way / Alaskan Way S",
    "active": false,
    "unitCount": 4,
    "severity": 0,
    "lat": 47.601718,
    "long": -122.336582,
    "neighborhood": "Downtown Commercial Core",
    "neighborhoodGroup": "Downtown",
    "units": "A10 A5 E5 M10"
  },
  {
    "id_str": "F210083400",
    "created_at": "8/4/2021 10:26:19 AM",
    "timestamp": 1628097979000,
    "description": "Aid Response",
    "address": "5038 11th Ave Ne",
    "active": false,
    "unitCount": 1,
    "severity": 0,
    "lat": 47.66526,
    "long": -122.316331,
    "neighborhood": "University District",
    "neighborhoodGroup": "Northeast",
    "units": "E16"
  },
  {
    "id_str": "F210083399",
    "created_at": "8/4/2021 10:24:54 AM",
    "timestamp": 1628097894000,
    "description": "Medic Response, 7 per Rule",
    "address": "2520 Ne 130th St",
    "active": false,
    "unitCount": 3,
    "severity": 0,
    "lat": 47.722939,
    "long": -122.301601,
    "neighborhood": "Olympic Hills/Victory Heights",
    "neighborhoodGroup": "North",
    "units": "E39 L6 M17"
  },
  {
    "id_str": "F210083398",
    "created_at": "8/4/2021 10:23:29 AM",
    "timestamp": 1628097809000,
    "description": "Aid Response",
    "address": "1715 Ne Columbia Rd",
    "active": false,
    "unitCount": 1,
    "severity": 0,
    "lat": 47.650154,
    "long": -122.310301,
    "neighborhood": "University District",
    "neighborhoodGroup": "Northeast",
    "units": "E17"
  },
  {
    "id_str": "F210083393",
    "created_at": "8/4/2021 10:00:33 AM",
    "timestamp": 1628096433000,
    "description": "Auto Fire Alarm",
    "address": "7923 M L King Jr Way S",
    "active": false,
    "unitCount": 2,
    "severity": 0,
    "lat": 47.530795,
    "long": -122.280778,
    "neighborhood": "South Beacon Hill/NewHolly",
    "neighborhoodGroup": "Greater Duwamish",
    "units": "E33 R1"
  },
  {
    "id_str": "F210083392",
    "created_at": "8/4/2021 10:00:12 AM",
    "timestamp": 1628096412000,
    "description": "AFA4 - Auto Alarm 2 + 1 + 1",
    "address": "600 N 130th St",
    "active": false,
    "unitCount": 4,
    "severity": 0,
    "lat": 47.723223,
    "long": -122.351624,
    "neighborhood": "Broadview/Bitter Lake",
    "neighborhoodGroup": "Northwest",
    "units": "B6 E24 E39 L6"
  },
  {
    "id_str": "F210083390",
    "created_at": "8/4/2021 9:52:50 AM",
    "timestamp": 1628095970000,
    "description": "Aid Response",
    "address": "9240 2nd Ave Sw",
    "active": false,
    "unitCount": 1,
    "severity": 0,
    "lat": 47.520451,
    "long": -122.336003,
    "units": "E26"
  },
  {
    "id_str": "F210083388",
    "created_at": "8/4/2021 9:49:02 AM",
    "timestamp": 1628095742000,
    "description": "Aid Response",
    "address": "13003 Linden Ave N",
    "active": false,
    "unitCount": 2,
    "severity": 0,
    "lat": 47.723233,
    "long": -122.348193,
    "neighborhood": "Broadview/Bitter Lake",
    "neighborhoodGroup": "Northwest",
    "units": "A31 M31"
  },
  {
    "id_str": "F210083387",
    "created_at": "8/4/2021 9:47:38 AM",
    "timestamp": 1628095658000,
    "description": "Aid Response",
    "address": "1301 Spring St",
    "active": false,
    "unitCount": 1,
    "severity": 0,
    "lat": 47.610986,
    "long": -122.32356,
    "neighborhood": "Capitol Hill",
    "neighborhoodGroup": "East",
    "units": "A25"
  },
  {
    "id_str": "F210083386",
    "created_at": "8/4/2021 9:46:48 AM",
    "timestamp": 1628095608000,
    "description": "Aid Response",
    "address": "4621 48th Ave S",
    "active": false,
    "unitCount": 1,
    "severity": 0,
    "lat": 47.561501,
    "long": -122.27322,
    "neighborhood": "Columbia City",
    "neighborhoodGroup": "Southeast",
    "units": "L12"
  },
  {
    "id_str": "F210083384",
    "created_at": "8/4/2021 9:40:10 AM",
    "timestamp": 1628095210000,
    "description": "Aid Response",
    "address": "1902 2nd Ave",
    "active": false,
    "unitCount": 1,
    "severity": 0,
    "lat": 47.610972,
    "long": -122.340465,
    "neighborhood": "Belltown",
    "neighborhoodGroup": "Downtown",
    "units": "A2"
  },
  {
    "id_str": "F210083383",
    "created_at": "8/4/2021 9:39:09 AM",
    "timestamp": 1628095149000,
    "description": "Aid Response",
    "address": "12th Ave S / S Lane St",
    "active": false,
    "unitCount": 1,
    "severity": 0,
    "lat": 47.596687,
    "long": -122.317231,
    "neighborhood": "Pioneer Square/International District",
    "neighborhoodGroup": "Downtown",
    "units": "A5"
  },
  {
    "id_str": "F210083380",
    "created_at": "8/4/2021 9:29:49 AM",
    "timestamp": 1628094589000,
    "description": "Investigate Out Of Service",
    "address": "11300 Pinehurst Way Ne",
    "active": false,
    "unitCount": 2,
    "severity": 0,
    "lat": 47.71059,
    "long": -122.317403,
    "neighborhood": "Northgate/Maple Leaf",
    "neighborhoodGroup": "North",
    "units": "E39 L6"
  },
  {
    "id_str": "F210083376",
    "created_at": "8/4/2021 9:20:32 AM",
    "timestamp": 1628094032000,
    "description": "Aid Response",
    "address": "700 Broadway",
    "active": false,
    "unitCount": 1,
    "severity": 0,
    "lat": 47.608073,
    "long": -122.320755,
    "neighborhood": "First Hill",
    "neighborhoodGroup": "East",
    "units": "A25"
  },
  {
    "id_str": "F210083373",
    "created_at": "8/4/2021 9:12:06 AM",
    "timestamp": 1628093526000,
    "description": "Medic Response",
    "address": "10245 39th Ave Sw",
    "active": false,
    "unitCount": 2,
    "severity": 0,
    "lat": 47.51157,
    "long": -122.381654,
    "neighborhood": "Arbor Heights",
    "neighborhoodGroup": "Southwest",
    "units": "E37 M28"
  },
  {
    "id_str": "F210083372",
    "created_at": "8/4/2021 9:07:34 AM",
    "timestamp": 1628093254000,
    "description": "2RED - 1 + 1",
    "address": "1113 E John St",
    "active": false,
    "unitCount": 2,
    "severity": 0,
    "lat": 47.619928,
    "long": -122.318061,
    "neighborhood": "Capitol Hill",
    "neighborhoodGroup": "East",
    "units": "E25 L10"
  },
  {
    "id_str": "F210083371",
    "created_at": "8/4/2021 9:06:56 AM",
    "timestamp": 1628093216000,
    "description": "Medic Response",
    "address": "4550 Fauntleroy Way Sw",
    "active": false,
    "unitCount": 2,
    "severity": 0,
    "lat": 47.562004,
    "long": -122.380425,
    "neighborhood": "West Seattle Junction/Genesee Hill",
    "neighborhoodGroup": "Southwest",
    "units": "L11 M26"
  },
  {
    "id_str": "F210083363",
    "created_at": "8/4/2021 8:55:47 AM",
    "timestamp": 1628092547000,
    "description": "Medic Response",
    "address": "4755 Fauntleroy Way Sw",
    "active": false,
    "unitCount": 2,
    "severity": 0,
    "lat": 47.560074,
    "long": -122.381457,
    "neighborhood": "West Seattle Junction/Genesee Hill",
    "neighborhoodGroup": "Southwest",
    "units": "E32 M32"
  },
  {
    "id_str": "F210083364",
    "created_at": "8/4/2021 8:55:32 AM",
    "timestamp": 1628092532000,
    "description": "1RED 1 Unit",
    "address": "6059 35TH AVE S",
    "active": false,
    "unitCount": 2,
    "severity": 0,
    "lat": 47.547971,
    "long": -122.286542,
    "neighborhood": "Beacon Hill",
    "neighborhoodGroup": "Greater Duwamish",
    "units": "E13 E28"
  },
  {
    "id_str": "F210083362",
    "created_at": "8/4/2021 8:54:12 AM",
    "timestamp": 1628092452000,
    "description": "MVI - Motor Vehicle Incident",
    "address": "Sw Admiral Way / 44th Ave Sw",
    "active": false,
    "unitCount": 1,
    "severity": 0,
    "lat": 47.58118,
    "long": -122.38786,
    "neighborhood": "West Seattle Junction/Genesee Hill",
    "neighborhoodGroup": "Southwest",
    "units": "E29"
  },
  {
    "id_str": "F210083361",
    "created_at": "8/4/2021 8:52:47 AM",
    "timestamp": 1628092367000,
    "description": "Aid Response",
    "address": "533 3rd Ave W",
    "active": false,
    "unitCount": 1,
    "severity": 0,
    "lat": 47.623717,
    "long": -122.360635,
    "neighborhood": "Queen Anne",
    "neighborhoodGroup": "Magnolia/Queen Anne",
    "units": "A2"
  },
  {
    "id_str": "F210083360",
    "created_at": "8/4/2021 8:51:57 AM",
    "timestamp": 1628092317000,
    "description": "AFA4 - Auto Alarm 2 + 1 + 1",
    "address": "1615 Belmont Ave",
    "active": false,
    "unitCount": 4,
    "severity": 0,
    "lat": 47.615385,
    "long": -122.324475,
    "neighborhood": "Capitol Hill",
    "neighborhoodGroup": "East",
    "units": "B2 E2 E25 L10"
  },
  {
    "id_str": "F210083359",
    "created_at": "8/4/2021 8:48:37 AM",
    "timestamp": 1628092117000,
    "description": "Aid Response",
    "address": "401 Pine St",
    "active": false,
    "unitCount": 1,
    "severity": 0,
    "lat": 47.61122,
    "long": -122.337562,
    "neighborhood": "Downtown Commercial Core",
    "neighborhoodGroup": "Downtown",
    "units": "A5"
  },
  {
    "id_str": "F210083358",
    "created_at": "8/4/2021 8:39:58 AM",
    "timestamp": 1628091598000,
    "description": "Aid Response",
    "address": "500 5th Ave",
    "active": false,
    "unitCount": 2,
    "severity": 0,
    "lat": 47.602985,
    "long": -122.328535,
    "neighborhood": "First Hill",
    "neighborhoodGroup": "East",
    "units": "A10 E10"
  },
  {
    "id_str": "F210083357",
    "created_at": "8/4/2021 8:31:03 AM",
    "timestamp": 1628091063000,
    "description": "Aid Response",
    "address": "3812 Ne 93rd St",
    "active": false,
    "unitCount": 1,
    "severity": 0,
    "lat": 47.695983,
    "long": -122.28773,
    "neighborhood": "Wedgwood/View Ridge",
    "neighborhoodGroup": "Northeast",
    "units": "E40"
  },
  {
    "id_str": "F210083354",
    "created_at": "8/4/2021 8:23:49 AM",
    "timestamp": 1628090629000,
    "description": "Aid Response",
    "address": "7th Ave S / S Lane St",
    "active": false,
    "unitCount": 1,
    "severity": 0,
    "lat": 47.596672,
    "long": -122.32376,
    "neighborhood": "Pioneer Square/International District",
    "neighborhoodGroup": "Downtown",
    "units": "A10"
  },
  {
    "id_str": "F210083353",
    "created_at": "8/4/2021 8:22:27 AM",
    "timestamp": 1628090547000,
    "description": "Aid Response",
    "address": "1st Ave / Spring St",
    "active": false,
    "unitCount": 1,
    "severity": 0,
    "lat": 47.605408,
    "long": -122.336891,
    "neighborhood": "Downtown Commercial Core",
    "neighborhoodGroup": "Downtown",
    "units": "E5"
  },
  {
    "id_str": "F210083351",
    "created_at": "8/4/2021 8:21:37 AM",
    "timestamp": 1628090497000,
    "description": "Bark Fire",
    "address": "1312 6th Ave N",
    "active": false,
    "unitCount": 1,
    "severity": 0,
    "lat": 47.630679,
    "long": -122.344945,
    "neighborhood": "Queen Anne",
    "neighborhoodGroup": "Magnolia/Queen Anne",
    "units": "E8"
  },
  {
    "id_str": "F210083349",
    "created_at": "8/4/2021 8:20:31 AM",
    "timestamp": 1628090431000,
    "description": "Aid Response",
    "address": "1000 4th Ave",
    "active": false,
    "unitCount": 1,
    "severity": 0,
    "lat": 47.606088,
    "long": -122.332909,
    "neighborhood": "Downtown Commercial Core",
    "neighborhoodGroup": "Downtown",
    "units": "A5"
  },
  {
    "id_str": "F210083348",
    "created_at": "8/4/2021 8:17:38 AM",
    "timestamp": 1628090258000,
    "description": "Aid Response",
    "address": "2008 Westlake Ave",
    "active": false,
    "unitCount": 1,
    "severity": 0,
    "lat": 47.615007,
    "long": -122.337781,
    "neighborhood": "Cascade/Eastlake",
    "neighborhoodGroup": "Lake Union",
    "units": "E2"
  },
  {
    "id_str": "F210083347",
    "created_at": "8/4/2021 8:17:00 AM",
    "timestamp": 1628090220000,
    "description": "Aid Response",
    "address": "Aurora Ave N / N 97th St",
    "active": false,
    "unitCount": 1,
    "severity": 0,
    "lat": 47.699619,
    "long": -122.34463,
    "neighborhood": "Licton Springs",
    "neighborhoodGroup": "Northwest",
    "units": "E21"
  },
  {
    "id_str": "F210083346",
    "created_at": "8/4/2021 8:11:34 AM",
    "timestamp": 1628089894000,
    "description": "Brush Fire",
    "address": "Sw Edmunds St / 40th Ave Sw",
    "active": false,
    "unitCount": 1,
    "severity": 0,
    "lat": 47.559283,
    "long": -122.382854,
    "neighborhood": "West Seattle Junction/Genesee Hill",
    "neighborhoodGroup": "Southwest",
    "units": "E32"
  },
  {
    "id_str": "F210083345",
    "created_at": "8/4/2021 8:11:10 AM",
    "timestamp": 1628089870000,
    "description": "Low Acuity Response",
    "address": "11501 15th Ave Ne",
    "active": false,
    "unitCount": 1,
    "severity": 0,
    "lat": 47.712167,
    "long": -122.312433,
    "neighborhood": "Olympic Hills/Victory Heights",
    "neighborhoodGroup": "North",
    "units": "E39"
  },
  {
    "id_str": "F210083344",
    "created_at": "8/4/2021 8:08:20 AM",
    "timestamp": 1628089700000,
    "description": "Bark Fire",
    "address": "4029 RAINIER AVE S",
    "active": false,
    "unitCount": 1,
    "severity": 0,
    "lat": 47.56736,
    "long": -122.289082,
    "neighborhood": "Columbia City",
    "neighborhoodGroup": "Southeast",
    "units": "E30"
  },
  {
    "id_str": "F210083342",
    "created_at": "8/4/2021 7:56:59 AM",
    "timestamp": 1628089019000,
    "description": "Aid Response",
    "address": "4508 S Genesee St",
    "active": false,
    "unitCount": 1,
    "severity": 0,
    "lat": 47.564093,
    "long": -122.276903,
    "neighborhood": "Columbia City",
    "neighborhoodGroup": "Southeast",
    "units": "E28"
  },
  {
    "id_str": "F210083341",
    "created_at": "8/4/2021 7:56:00 AM",
    "timestamp": 1628088960000,
    "description": "Bark Fire",
    "address": "Holman Rd Nw / 14th Ave Nw",
    "active": false,
    "unitCount": 1,
    "severity": 0,
    "lat": 47.695618,
    "long": -122.374103,
    "neighborhood": "Greenwood/Phinney Ridge",
    "neighborhoodGroup": "Northwest",
    "units": "E35"
  },
  {
    "id_str": "F210083340",
    "created_at": "8/4/2021 7:48:45 AM",
    "timestamp": 1628088525000,
    "description": "Aid Response",
    "address": "E Garfield St / Fairview Ave E",
    "active": false,
    "unitCount": 1,
    "severity": 0,
    "lat": 47.63386,
    "long": -122.326924,
    "neighborhood": "Cascade/Eastlake",
    "neighborhoodGroup": "Lake Union",
    "units": "E22"
  },
  {
    "id_str": "F210083339",
    "created_at": "8/4/2021 7:43:25 AM",
    "timestamp": 1628088205000,
    "description": "Aid Response",
    "address": "14040 15th Ave Ne",
    "active": false,
    "unitCount": 1,
    "severity": 0,
    "lat": 47.730587,
    "long": -122.312704,
    "neighborhood": "Olympic Hills/Victory Heights",
    "neighborhoodGroup": "North",
    "units": "E39"
  },
  {
    "id_str": "F210083335",
    "created_at": "8/4/2021 7:28:25 AM",
    "timestamp": 1628087305000,
    "description": "AFA4 - Auto Alarm 2 + 1 + 1",
    "address": "4435 35th Ave Sw",
    "active": false,
    "unitCount": 6,
    "severity": 1,
    "lat": 47.563869,
    "long": -122.376191,
    "neighborhood": "North Delridge",
    "neighborhoodGroup": "Delridge Neighborhoods",
    "units": "B7 E32 E36 L11 L13 MAR5"
  },
  {
    "id_str": "F210083334",
    "created_at": "8/4/2021 7:24:27 AM",
    "timestamp": 1628087067000,
    "description": "Medic Response",
    "address": "2116 N 112th St",
    "active": false,
    "unitCount": 2,
    "severity": 0,
    "lat": 47.709569,
    "long": -122.333822,
    "neighborhood": "Northgate/Maple Leaf",
    "neighborhoodGroup": "North",
    "units": "E24 M17"
  },
  {
    "id_str": "F210083332",
    "created_at": "8/4/2021 7:09:16 AM",
    "timestamp": 1628086156000,
    "description": "Medic Response, 7 per Rule",
    "address": "309 W Prospect St",
    "active": false,
    "unitCount": 3,
    "severity": 0,
    "lat": 47.628728,
    "long": -122.360645,
    "neighborhood": "Queen Anne",
    "neighborhoodGroup": "Magnolia/Queen Anne",
    "units": "E8 L6 M1"
  },
  {
    "id_str": "F210083331",
    "created_at": "8/4/2021 7:06:59 AM",
    "timestamp": 1628086019000,
    "description": "Aid Response",
    "address": "5851 Ne Park Point Dr",
    "active": false,
    "unitCount": 1,
    "severity": 0,
    "lat": 47.677312,
    "long": -122.264016,
    "neighborhood": "Laurelhurst/Sand Point",
    "neighborhoodGroup": "Northeast",
    "units": "E38"
  },
  {
    "id_str": "F210083328",
    "created_at": "8/4/2021 6:51:36 AM",
    "timestamp": 1628085096000,
    "description": "Illegal Burn",
    "address": "6th Ave / Cherry St",
    "active": false,
    "unitCount": 1,
    "severity": 0,
    "lat": 47.604876,
    "long": -122.328734,
    "neighborhood": "First Hill",
    "neighborhoodGroup": "East",
    "units": "E10"
  },
  {
    "id_str": "F210083327",
    "created_at": "8/4/2021 6:51:26 AM",
    "timestamp": 1628085086000,
    "description": "Aid Response",
    "address": "Ne 47th St / Roosevelt Way Ne",
    "active": false,
    "unitCount": 1,
    "severity": 0,
    "lat": 47.663118,
    "long": -122.317423,
    "neighborhood": "University District",
    "neighborhoodGroup": "Northeast",
    "units": "E17"
  },
  {
    "id_str": "F210083325",
    "created_at": "8/4/2021 6:37:30 AM",
    "timestamp": 1628084250000,
    "description": "Aid Response",
    "address": "2200 Alki Ave Sw",
    "active": false,
    "unitCount": 1,
    "severity": 0,
    "lat": 47.584812,
    "long": -122.399559,
    "neighborhood": "Alki/Admiral",
    "neighborhoodGroup": "Southwest",
    "units": "E29"
  },
  {
    "id_str": "F210083323",
    "created_at": "8/4/2021 6:24:44 AM",
    "timestamp": 1628083484000,
    "description": "Aid Response",
    "address": "1431 Minor Ave",
    "active": false,
    "unitCount": 1,
    "severity": 0,
    "lat": 47.613247,
    "long": -122.327187,
    "neighborhood": "Capitol Hill",
    "neighborhoodGroup": "East",
    "units": "A25"
  },
  {
    "id_str": "F210083322",
    "created_at": "8/4/2021 6:20:47 AM",
    "timestamp": 1628083247000,
    "description": "Aid Response",
    "address": "12311 32nd Ave Ne",
    "active": false,
    "unitCount": 1,
    "severity": 0,
    "lat": 47.717461,
    "long": -122.293978,
    "neighborhood": "Olympic Hills/Victory Heights",
    "neighborhoodGroup": "North",
    "units": "E39"
  },
  {
    "id_str": "F210083317",
    "created_at": "8/4/2021 5:37:03 AM",
    "timestamp": 1628080623000,
    "description": "Aid Response",
    "address": "10031 Holman Rd Nw",
    "active": false,
    "unitCount": 1,
    "severity": 0,
    "lat": 47.70188,
    "long": -122.361766,
    "neighborhood": "North Beach/Blue Ridge",
    "neighborhoodGroup": "Ballard",
    "units": "E35"
  },
  {
    "id_str": "F210083314",
    "created_at": "8/4/2021 5:25:53 AM",
    "timestamp": 1628079953000,
    "description": "Aid Response",
    "address": "4710 University Way Ne",
    "active": false,
    "unitCount": 1,
    "severity": 0,
    "lat": 47.663147,
    "long": -122.313101,
    "neighborhood": "University District",
    "neighborhoodGroup": "Northeast",
    "units": "E31"
  },
  {
    "id_str": "F210083310",
    "created_at": "8/4/2021 5:16:19 AM",
    "timestamp": 1628079379000,
    "description": "Auto Fire Alarm",
    "address": "801 5th Ave",
    "active": false,
    "unitCount": 2,
    "severity": 0,
    "lat": 47.605126,
    "long": -122.330494,
    "neighborhood": "First Hill",
    "neighborhoodGroup": "East",
    "units": "E5 L1"
  },
  {
    "id_str": "F210083309",
    "created_at": "8/4/2021 5:11:05 AM",
    "timestamp": 1628079065000,
    "description": "Aid Response",
    "address": "1505 E Harrison St",
    "active": false,
    "unitCount": 1,
    "severity": 0,
    "lat": 47.622088,
    "long": -122.312576,
    "neighborhood": "Miller Park",
    "neighborhoodGroup": "East",
    "units": "A25"
  },
  {
    "id_str": "F210083308",
    "created_at": "8/4/2021 5:10:46 AM",
    "timestamp": 1628079046000,
    "description": "Aid Response",
    "address": "308 4th Ave S",
    "active": false,
    "unitCount": 1,
    "severity": 0,
    "lat": 47.599968,
    "long": -122.328965,
    "neighborhood": "Pioneer Square/International District",
    "neighborhoodGroup": "Downtown",
    "units": "E10"
  },
  {
    "id_str": "F210083307",
    "created_at": "8/4/2021 5:02:52 AM",
    "timestamp": 1628078572000,
    "description": "MVI - Motor Vehicle Incident",
    "address": "37th Ave S / S Orcas St",
    "active": false,
    "unitCount": 1,
    "severity": 0,
    "lat": 47.551225,
    "long": -122.286265,
    "neighborhood": "Columbia City",
    "neighborhoodGroup": "Southeast",
    "units": "E28"
  },
  {
    "id_str": "F210083305",
    "created_at": "8/4/2021 4:57:19 AM",
    "timestamp": 1628078239000,
    "description": "Aid Response",
    "address": "1231 8th Ave W",
    "active": false,
    "unitCount": 1,
    "severity": 0,
    "lat": 47.630932,
    "long": -122.367813,
    "neighborhood": "Queen Anne",
    "neighborhoodGroup": "Magnolia/Queen Anne",
    "units": "E8"
  },
  {
    "id_str": "F210083304",
    "created_at": "8/4/2021 4:53:29 AM",
    "timestamp": 1628078009000,
    "description": "Low Acuity Response",
    "address": "1005 Terrace St",
    "active": false,
    "unitCount": 1,
    "severity": 0,
    "lat": 47.604615,
    "long": -122.32228,
    "neighborhood": "First Hill",
    "neighborhoodGroup": "East",
    "units": "A10"
  },
  {
    "id_str": "F210083303",
    "created_at": "8/4/2021 4:51:25 AM",
    "timestamp": 1628077885000,
    "description": "Aid Response",
    "address": "1245 10th Ave E",
    "active": false,
    "unitCount": 1,
    "severity": 0,
    "lat": 47.630887,
    "long": -122.320208,
    "neighborhood": "Cascade/Eastlake",
    "neighborhoodGroup": "Lake Union",
    "units": "E22"
  },
  {
    "id_str": "F210083301",
    "created_at": "8/4/2021 3:48:44 AM",
    "timestamp": 1628074124000,
    "description": "Aid Response",
    "address": "3509 S Adams St",
    "active": false,
    "unitCount": 1,
    "severity": 0,
    "lat": 47.56552,
    "long": -122.28964,
    "neighborhood": "Columbia City",
    "neighborhoodGroup": "Southeast",
    "units": "E30"
  },
  {
    "id_str": "F210083300",
    "created_at": "8/4/2021 3:25:23 AM",
    "timestamp": 1628072723000,
    "description": "Medic Response",
    "address": "3001 S Myrtle St",
    "active": false,
    "unitCount": 2,
    "severity": 0,
    "lat": 47.538902,
    "long": -122.293225,
    "neighborhood": "South Beacon Hill/NewHolly",
    "neighborhoodGroup": "Greater Duwamish",
    "units": "L12 M28"
  },
  {
    "id_str": "F210083299",
    "created_at": "8/4/2021 3:24:00 AM",
    "timestamp": 1628072640000,
    "description": "Aid Response",
    "address": "1923 3rd Ave",
    "active": false,
    "unitCount": 1,
    "severity": 0,
    "lat": 47.611802,
    "long": -122.339884,
    "neighborhood": "Cascade/Eastlake",
    "neighborhoodGroup": "Lake Union",
    "units": "L4"
  },
  {
    "id_str": "F210083298",
    "created_at": "8/4/2021 3:18:55 AM",
    "timestamp": 1628072335000,
    "description": "Aid Response",
    "address": "1211 S King St",
    "active": false,
    "unitCount": 1,
    "severity": 0,
    "lat": 47.598338,
    "long": -122.317016,
    "neighborhood": "Judkins Park",
    "neighborhoodGroup": "Central",
    "units": "A10"
  },
  {
    "id_str": "F210083297",
    "created_at": "8/4/2021 3:13:11 AM",
    "timestamp": 1628071991000,
    "description": "Aid Response",
    "address": "1039 6th Ave S",
    "active": false,
    "unitCount": 2,
    "severity": 0,
    "lat": 47.593751,
    "long": -122.325968,
    "neighborhood": "Duwamish/SODO",
    "neighborhoodGroup": "Greater Duwamish",
    "units": "A10 E10"
  },
  {
    "id_str": "F210083296",
    "created_at": "8/4/2021 3:12:57 AM",
    "timestamp": 1628071977000,
    "description": "Aid Response",
    "address": "2024 3rd Ave",
    "active": false,
    "unitCount": 1,
    "severity": 0,
    "lat": 47.612578,
    "long": -122.341197,
    "neighborhood": "Cascade/Eastlake",
    "neighborhoodGroup": "Lake Union",
    "units": "E2"
  },
  {
    "id_str": "F210083295",
    "created_at": "8/4/2021 2:56:52 AM",
    "timestamp": 1628071012000,
    "description": "Aid Response",
    "address": "7500 Seward Park Ave S",
    "active": false,
    "unitCount": 1,
    "severity": 0,
    "lat": 47.535387,
    "long": -122.267284,
    "neighborhood": "Seward Park",
    "neighborhoodGroup": "Southeast",
    "units": "E28"
  },
  {
    "id_str": "F210083293",
    "created_at": "8/4/2021 2:48:56 AM",
    "timestamp": 1628070536000,
    "description": "Bark Fire",
    "address": "13510 Aurora Ave N",
    "active": false,
    "unitCount": 1,
    "severity": 0,
    "lat": 47.726943,
    "long": -122.345018,
    "neighborhood": "Haller Lake",
    "neighborhoodGroup": "Northwest",
    "units": "E24"
  },
  {
    "id_str": "F210083292",
    "created_at": "8/4/2021 2:43:34 AM",
    "timestamp": 1628070214000,
    "description": "Aid Response",
    "address": "2580 Sw Barton St",
    "active": false,
    "unitCount": 1,
    "severity": 0,
    "lat": 47.521022,
    "long": -122.365633,
    "neighborhood": "Roxhill/Westwood",
    "neighborhoodGroup": "Delridge Neighborhoods",
    "units": "E11"
  },
  {
    "id_str": "F210083291",
    "created_at": "8/4/2021 2:41:08 AM",
    "timestamp": 1628070068000,
    "description": "Aid Response",
    "address": "1601 15th Ave W",
    "active": false,
    "unitCount": 1,
    "severity": 0,
    "lat": 47.633499,
    "long": -122.376195,
    "neighborhood": "Interbay",
    "neighborhoodGroup": "Magnolia/Queen Anne",
    "units": "E20"
  },
  {
    "id_str": "F210083290",
    "created_at": "8/4/2021 2:40:03 AM",
    "timestamp": 1628070003000,
    "description": "Aid Response",
    "address": "7544 M L King Jr Way S",
    "active": false,
    "unitCount": 1,
    "severity": 0,
    "lat": 47.534954,
    "long": -122.280638,
    "neighborhood": "South Beacon Hill/NewHolly",
    "neighborhoodGroup": "Greater Duwamish",
    "units": "E33"
  },
  {
    "id_str": "F210083288",
    "created_at": "8/4/2021 2:22:37 AM",
    "timestamp": 1628068957000,
    "description": "Aid Response",
    "address": "901 E Pike St",
    "active": false,
    "unitCount": 1,
    "severity": 0,
    "lat": 47.614076,
    "long": -122.320766,
    "neighborhood": "Capitol Hill",
    "neighborhoodGroup": "East",
    "units": "E25"
  },
  {
    "id_str": "F210083287",
    "created_at": "8/4/2021 2:20:34 AM",
    "timestamp": 1628068834000,
    "description": "Aid Response",
    "address": "1400 6th Ave",
    "active": false,
    "unitCount": 1,
    "severity": 0,
    "lat": 47.61015,
    "long": -122.333556,
    "neighborhood": "First Hill",
    "neighborhoodGroup": "East",
    "units": "A10"
  },
  {
    "id_str": "F210083286",
    "created_at": "8/4/2021 2:17:12 AM",
    "timestamp": 1628068632000,
    "description": "Aid Response",
    "address": "1516 Melrose Ave",
    "active": false,
    "unitCount": 1,
    "severity": 0,
    "lat": 47.614122,
    "long": -122.327903,
    "neighborhood": "Capitol Hill",
    "neighborhoodGroup": "East",
    "units": "A25"
  },
  {
    "id_str": "F210083284",
    "created_at": "8/4/2021 2:02:30 AM",
    "timestamp": 1628067750000,
    "description": "Aid Response",
    "address": "3333 Rainier Ave S",
    "active": false,
    "unitCount": 1,
    "severity": 0,
    "lat": 47.573598,
    "long": -122.294524,
    "neighborhood": "Mt. Baker/North Rainier",
    "neighborhoodGroup": "Southeast",
    "units": "E30"
  },
  {
    "id_str": "F210083283",
    "created_at": "8/4/2021 1:50:18 AM",
    "timestamp": 1628067018000,
    "description": "Aid Response",
    "address": "609 Yesler Way",
    "active": false,
    "unitCount": 1,
    "severity": 0,
    "lat": 47.601709,
    "long": -122.326189,
    "neighborhood": "Pioneer Square/International District",
    "neighborhoodGroup": "Downtown",
    "units": "A10"
  },
  {
    "id_str": "F210083281",
    "created_at": "8/4/2021 1:39:49 AM",
    "timestamp": 1628066389000,
    "description": "Aid Response",
    "address": "1867 E Hamlin St",
    "active": false,
    "unitCount": 1,
    "severity": 0,
    "lat": 47.645565,
    "long": -122.306887,
    "neighborhood": "Montlake/Portage Bay",
    "neighborhoodGroup": "Northeast",
    "units": "E22"
  },
  {
    "id_str": "F210083280",
    "created_at": "8/4/2021 1:34:38 AM",
    "timestamp": 1628066078000,
    "description": "Aid Response",
    "address": "1717 N 85th St",
    "active": false,
    "unitCount": 1,
    "severity": 0,
    "lat": 47.69051,
    "long": -122.337691,
    "neighborhood": "Green Lake",
    "neighborhoodGroup": "Northwest",
    "units": "E21"
  },
  {
    "id_str": "F210083279",
    "created_at": "8/4/2021 1:23:10 AM",
    "timestamp": 1628065390000,
    "description": "Medic Response",
    "address": "10621 Bagley Ave N",
    "active": false,
    "unitCount": 2,
    "severity": 0,
    "lat": 47.706119,
    "long": -122.332607,
    "neighborhood": "Northgate/Maple Leaf",
    "neighborhoodGroup": "North",
    "units": "E16 M17"
  },
  {
    "id_str": "F210083277",
    "created_at": "8/4/2021 1:16:40 AM",
    "timestamp": 1628065000000,
    "description": "Aid Response",
    "address": "6515 S Ryan St",
    "active": false,
    "unitCount": 1,
    "severity": 0,
    "lat": 47.509717,
    "long": -122.252183,
    "neighborhood": "Rainier Beach",
    "neighborhoodGroup": "Southeast",
    "units": "E33"
  },
  {
    "id_str": "F210083273",
    "created_at": "8/4/2021 1:03:20 AM",
    "timestamp": 1628064200000,
    "description": "Aid Response",
    "address": "1737 Belmont Ave",
    "active": false,
    "unitCount": 2,
    "severity": 0,
    "lat": 47.616862,
    "long": -122.324494,
    "neighborhood": "Capitol Hill",
    "neighborhoodGroup": "East",
    "units": "A25 E25"
  },
  {
    "id_str": "F210083272",
    "created_at": "8/4/2021 12:56:14 AM",
    "timestamp": 1628063774000,
    "description": "Investigate Out Of Service",
    "address": "9111 View Ave Nw",
    "active": false,
    "unitCount": 1,
    "severity": 0,
    "lat": 47.695504,
    "long": -122.40139,
    "neighborhood": "North Beach/Blue Ridge",
    "neighborhoodGroup": "Ballard",
    "units": "E35"
  },
  {
    "id_str": "F210083271",
    "created_at": "8/4/2021 12:52:11 AM",
    "timestamp": 1628063531000,
    "description": "Aid Response",
    "address": "1632 S Weller St",
    "active": false,
    "unitCount": 1,
    "severity": 0,
    "lat": 47.597488,
    "long": -122.311161,
    "neighborhood": "Judkins Park",
    "neighborhoodGroup": "Central",
    "units": "E6"
  },
  {
    "id_str": "F210083270",
    "created_at": "8/4/2021 12:48:31 AM",
    "timestamp": 1628063311000,
    "description": "Automatic Fire Alarm Resd",
    "address": "3452 39th Ave Sw",
    "active": false,
    "unitCount": 1,
    "severity": 0,
    "lat": 47.572812,
    "long": -122.381397,
    "neighborhood": "West Seattle Junction/Genesee Hill",
    "neighborhoodGroup": "Southwest",
    "units": "E29"
  },
  {
    "id_str": "F210083268",
    "created_at": "8/4/2021 12:47:49 AM",
    "timestamp": 1628063269000,
    "description": "Medic Response",
    "address": "10716 Dayton Ave N",
    "active": false,
    "unitCount": 2,
    "severity": 0,
    "lat": 47.706982,
    "long": -122.35279,
    "neighborhood": "North Beach/Blue Ridge",
    "neighborhoodGroup": "Ballard",
    "units": "E24 M18"
  },
  {
    "id_str": "F210083267",
    "created_at": "8/4/2021 12:39:04 AM",
    "timestamp": 1628062744000,
    "description": "Aid Response",
    "address": "1820 Minor Ave",
    "active": false,
    "unitCount": 1,
    "severity": 0,
    "lat": 47.616989,
    "long": -122.330811,
    "neighborhood": "Cascade/Eastlake",
    "neighborhoodGroup": "Lake Union",
    "units": "A25"
  },
  {
    "id_str": "F210083265",
    "created_at": "8/4/2021 12:24:17 AM",
    "timestamp": 1628061857000,
    "description": "Medic Response",
    "address": "10028 12th Ave Nw",
    "active": false,
    "unitCount": 2,
    "severity": 0,
    "lat": 47.701693,
    "long": -122.371414,
    "neighborhood": "North Beach/Blue Ridge",
    "neighborhoodGroup": "Ballard",
    "units": "E35 M31"
  },
  {
    "id_str": "F210083264",
    "created_at": "8/4/2021 12:16:02 AM",
    "timestamp": 1628061362000,
    "description": "Auto Fire Alarm",
    "address": "2600 2nd Ave",
    "active": false,
    "unitCount": 3,
    "severity": 0,
    "lat": 47.615914,
    "long": -122.348823,
    "neighborhood": "Belltown",
    "neighborhoodGroup": "Downtown",
    "units": "E2 E5 L4"
  },
  {
    "id_str": "F210083263",
    "created_at": "8/4/2021 12:12:29 AM",
    "timestamp": 1628061149000,
    "description": "Aid Response",
    "address": "9416 Rainier Ave S",
    "active": false,
    "unitCount": 1,
    "severity": 0,
    "lat": 47.519928,
    "long": -122.264319,
    "neighborhood": "Rainier Beach",
    "neighborhoodGroup": "Southeast",
    "units": "E33"
  },
  {
    "id_str": "F210083261",
    "created_at": "8/4/2021 12:00:53 AM",
    "timestamp": 1628060453000,
    "description": "Aid Response",
    "address": "121 Stewart St",
    "active": false,
    "unitCount": 1,
    "severity": 0,
    "lat": 47.610423,
    "long": -122.341152,
    "neighborhood": "Belltown",
    "neighborhoodGroup": "Downtown",
    "units": "L4"
  },
  {
    "id_str": "F210083260",
    "created_at": "8/3/2021 11:59:18 PM",
    "timestamp": 1628060358000,
    "description": "Aid Response",
    "address": "4523 8th Ave Ne",
    "active": false,
    "unitCount": 1,
    "severity": 0,
    "lat": 47.661513,
    "long": -122.319566,
    "neighborhood": "Wallingford",
    "neighborhoodGroup": "Lake Union",
    "units": "E17"
  },
  {
    "id_str": "F210083259",
    "created_at": "8/3/2021 11:56:03 PM",
    "timestamp": 1628060163000,
    "description": "Aid Response",
    "address": "1431 Minor Ave",
    "active": false,
    "unitCount": 1,
    "severity": 0,
    "lat": 47.613247,
    "long": -122.327187,
    "neighborhood": "Capitol Hill",
    "neighborhoodGroup": "East",
    "units": "A25"
  },
  {
    "id_str": "F210083258",
    "created_at": "8/3/2021 11:53:34 PM",
    "timestamp": 1628060014000,
    "description": "MVI - Motor Vehicle Incident",
    "address": "2350 Beacon Ave S",
    "active": false,
    "unitCount": 1,
    "severity": 0,
    "lat": 47.582049,
    "long": -122.316012,
    "neighborhood": "North Beacon Hill/Jefferson Park",
    "neighborhoodGroup": "Greater Duwamish",
    "units": "E13"
  },
  {
    "id_str": "F210083256",
    "created_at": "8/3/2021 11:50:34 PM",
    "timestamp": 1628059834000,
    "description": "Aid Response",
    "address": "111 Cedar St",
    "active": false,
    "unitCount": 1,
    "severity": 0,
    "lat": 47.615877,
    "long": -122.35052,
    "neighborhood": "Belltown",
    "neighborhoodGroup": "Downtown",
    "units": "E2"
  },
  {
    "id_str": "F210083254",
    "created_at": "8/3/2021 11:34:28 PM",
    "timestamp": 1628058868000,
    "description": "Low Acuity Response",
    "address": "9000 20th Ave Sw",
    "active": false,
    "unitCount": 1,
    "severity": 0,
    "lat": 47.522863,
    "long": -122.359142,
    "neighborhood": "Roxhill/Westwood",
    "neighborhoodGroup": "Delridge Neighborhoods",
    "units": "E11"
  },
  {
    "id_str": "F210083252",
    "created_at": "8/3/2021 11:26:24 PM",
    "timestamp": 1628058384000,
    "description": "Aid Response",
    "address": "9410 39th Ave S",
    "active": false,
    "unitCount": 1,
    "severity": 0,
    "lat": 47.517925,
    "long": -122.283676,
    "neighborhood": "South Beacon Hill/NewHolly",
    "neighborhoodGroup": "Greater Duwamish",
    "units": "E33"
  },
  {
    "id_str": "F210083251",
    "created_at": "8/3/2021 11:20:14 PM",
    "timestamp": 1628058014000,
    "description": "Aid Response",
    "address": "9240 2nd Ave Sw",
    "active": false,
    "unitCount": 1,
    "severity": 0,
    "lat": 47.520451,
    "long": -122.336003,
    "units": "E26"
  },
  {
    "id_str": "F210083249",
    "created_at": "8/3/2021 11:05:14 PM",
    "timestamp": 1628057114000,
    "description": "Aid Response",
    "address": "405 Olive Way",
    "active": false,
    "unitCount": 1,
    "severity": 0,
    "lat": 47.612207,
    "long": -122.338484,
    "neighborhood": "Cascade/Eastlake",
    "neighborhoodGroup": "Lake Union",
    "units": "E2"
  },
  {
    "id_str": "F210083248",
    "created_at": "8/3/2021 11:00:13 PM",
    "timestamp": 1628056813000,
    "description": "Aid Response",
    "address": "1005 Terrace St",
    "active": false,
    "unitCount": 1,
    "severity": 0,
    "lat": 47.604615,
    "long": -122.32228,
    "neighborhood": "First Hill",
    "neighborhoodGroup": "East",
    "units": "A10"
  },
  {
    "id_str": "F210083247",
    "created_at": "8/3/2021 10:48:35 PM",
    "timestamp": 1628056115000,
    "description": "Aid Response",
    "address": "2201 E Madison St",
    "active": false,
    "unitCount": 1,
    "severity": 0,
    "lat": 47.618428,
    "long": -122.303639,
    "neighborhood": "Central Area/Squire Park",
    "neighborhoodGroup": "Central",
    "units": "E25"
  },
  {
    "id_str": "F210083246",
    "created_at": "8/3/2021 10:47:25 PM",
    "timestamp": 1628056045000,
    "description": "1RED 1 Unit",
    "address": "Ne Northgate Way / Roosevelt Way Ne",
    "active": false,
    "unitCount": 1,
    "severity": 0,
    "lat": 47.708561,
    "long": -122.317852,
    "neighborhood": "Northgate/Maple Leaf",
    "neighborhoodGroup": "North",
    "units": "E39"
  },
  {
    "id_str": "F210083242",
    "created_at": "8/3/2021 10:39:06 PM",
    "timestamp": 1628055546000,
    "description": "Illegal Burn",
    "address": "9230 2nd Ave Sw",
    "active": false,
    "unitCount": 1,
    "severity": 0,
    "lat": 47.520679,
    "long": -122.335803,
    "units": "E26"
  },
  {
    "id_str": "F210083241",
    "created_at": "8/3/2021 10:32:20 PM",
    "timestamp": 1628055140000,
    "description": "Rescue Lock In/Out",
    "address": "2960 Eastlake Ave E",
    "active": false,
    "unitCount": 1,
    "severity": 0,
    "lat": 47.647802,
    "long": -122.324196,
    "neighborhood": "Montlake/Portage Bay",
    "neighborhoodGroup": "Northeast",
    "units": "E22"
  },
  {
    "id_str": "F210083240",
    "created_at": "8/3/2021 10:19:24 PM",
    "timestamp": 1628054364000,
    "description": "Aid Response",
    "address": "2834 Nw 94th St",
    "active": false,
    "unitCount": 1,
    "severity": 0,
    "lat": 47.697514,
    "long": -122.393427,
    "neighborhood": "North Beach/Blue Ridge",
    "neighborhoodGroup": "Ballard",
    "units": "E35"
  },
  {
    "id_str": "F210083239",
    "created_at": "8/3/2021 10:16:50 PM",
    "timestamp": 1628054210000,
    "description": "Auto Fire Alarm",
    "address": "2401 S Jackson St",
    "active": false,
    "unitCount": 2,
    "severity": 0,
    "lat": 47.599288,
    "long": -122.301125,
    "neighborhood": "Madrona/Leschi",
    "neighborhoodGroup": "Central",
    "units": "E6 L3"
  },
  {
    "id_str": "F210083236",
    "created_at": "8/3/2021 10:06:16 PM",
    "timestamp": 1628053576000,
    "description": "Medic Response",
    "address": "1111 N 49th St",
    "active": false,
    "unitCount": 2,
    "severity": 0,
    "lat": 47.664291,
    "long": -122.344439,
    "neighborhood": "Wallingford",
    "neighborhoodGroup": "Lake Union",
    "units": "E9 M17"
  },
  {
    "id_str": "F210083235",
    "created_at": "8/3/2021 10:05:52 PM",
    "timestamp": 1628053552000,
    "description": "1RED 1 Unit",
    "address": "2nd Ave S / S Main St",
    "active": false,
    "unitCount": 1,
    "severity": 0,
    "lat": 47.600041,
    "long": -122.331573,
    "neighborhood": "Pioneer Square/International District",
    "neighborhoodGroup": "Downtown",
    "units": "E10"
  },
  {
    "id_str": "F210083234",
    "created_at": "8/3/2021 10:03:11 PM",
    "timestamp": 1628053391000,
    "description": "Auto Fire Alarm",
    "address": "231 Summit Ave E",
    "active": false,
    "unitCount": 2,
    "severity": 0,
    "lat": 47.620013,
    "long": -122.325296,
    "neighborhood": "Capitol Hill",
    "neighborhoodGroup": "East",
    "units": "E25 L4"
  },
  {
    "id_str": "F210083233",
    "created_at": "8/3/2021 10:02:38 PM",
    "timestamp": 1628053358000,
    "description": "Aid Response Yellow",
    "address": "625 4th Ave W",
    "active": false,
    "unitCount": 1,
    "severity": 0,
    "lat": 47.624909,
    "long": -122.361932,
    "neighborhood": "Queen Anne",
    "neighborhoodGroup": "Magnolia/Queen Anne",
    "units": "E8"
  },
  {
    "id_str": "F210083232",
    "created_at": "8/3/2021 10:00:25 PM",
    "timestamp": 1628053225000,
    "description": "Aid Response",
    "address": "6548 Delridge Way Sw",
    "active": false,
    "unitCount": 1,
    "severity": 0,
    "lat": 47.543496,
    "long": -122.361202,
    "neighborhood": "High Point",
    "neighborhoodGroup": "Delridge Neighborhoods",
    "units": "E11"
  },
  {
    "id_str": "F210083231",
    "created_at": "8/3/2021 9:59:32 PM",
    "timestamp": 1628053172000,
    "description": "Aid Response",
    "address": "2200 E Madison St",
    "active": false,
    "unitCount": 1,
    "severity": 0,
    "lat": 47.61842,
    "long": -122.30365,
    "neighborhood": "Central Area/Squire Park",
    "neighborhoodGroup": "Central",
    "units": "L10"
  },
  {
    "id_str": "F210083230",
    "created_at": "8/3/2021 9:59:03 PM",
    "timestamp": 1628053143000,
    "description": "Aid Response",
    "address": "900 Terry Ave",
    "active": false,
    "unitCount": 1,
    "severity": 0,
    "lat": 47.60816,
    "long": -122.325598,
    "neighborhood": "First Hill",
    "neighborhoodGroup": "East",
    "units": "A25"
  },
  {
    "id_str": "F210083227",
    "created_at": "8/3/2021 9:54:57 PM",
    "timestamp": 1628052897000,
    "description": "Rubbish Fire",
    "address": "Beacon Ave S / S Columbian Way",
    "active": false,
    "unitCount": 1,
    "severity": 0,
    "lat": 47.559608,
    "long": -122.304656,
    "neighborhood": "Beacon Hill",
    "neighborhoodGroup": "Greater Duwamish",
    "units": "E13"
  },
  {
    "id_str": "F210083225",
    "created_at": "8/3/2021 9:49:52 PM",
    "timestamp": 1628052592000,
    "description": "Aid Response",
    "address": "7322 Rainier Ave S",
    "active": false,
    "unitCount": 1,
    "severity": 0,
    "lat": 47.536727,
    "long": -122.27022,
    "neighborhood": "Seward Park",
    "neighborhoodGroup": "Southeast",
    "units": "E28"
  },
  {
    "id_str": "F210083224",
    "created_at": "8/3/2021 9:48:46 PM",
    "timestamp": 1628052526000,
    "description": "Bark Fire",
    "address": "Ne 115th St / Lake City Way Ne",
    "active": false,
    "unitCount": 1,
    "severity": 0,
    "lat": 47.712044,
    "long": -122.299512,
    "neighborhood": "Olympic Hills/Victory Heights",
    "neighborhoodGroup": "North",
    "units": "E39"
  },
  {
    "id_str": "F210083223",
    "created_at": "8/3/2021 9:48:10 PM",
    "timestamp": 1628052490000,
    "description": "Aid Response",
    "address": "2201 E Madison St",
    "active": false,
    "unitCount": 1,
    "severity": 0,
    "lat": 47.618428,
    "long": -122.303639,
    "neighborhood": "Central Area/Squire Park",
    "neighborhoodGroup": "Central",
    "units": "A25"
  },
  {
    "id_str": "F210083222",
    "created_at": "8/3/2021 9:35:34 PM",
    "timestamp": 1628051734000,
    "description": "Rescue Elevator",
    "address": "5019 Roosevelt Way Ne",
    "active": false,
    "unitCount": 1,
    "severity": 0,
    "lat": 47.665073,
    "long": -122.317402,
    "neighborhood": "University District",
    "neighborhoodGroup": "Northeast",
    "units": "L9"
  },
  {
    "id_str": "F210083218",
    "created_at": "8/3/2021 9:33:23 PM",
    "timestamp": 1628051603000,
    "description": "MVI - Motor Vehicle Incident",
    "address": "Nw Market St / Nw 49th St",
    "active": false,
    "unitCount": 1,
    "severity": 0,
    "lat": 47.664303,
    "long": -122.358836,
    "neighborhood": "Fremont",
    "neighborhoodGroup": "Lake Union",
    "units": "E18"
  },
  {
    "id_str": "F210083216",
    "created_at": "8/3/2021 9:30:45 PM",
    "timestamp": 1628051445000,
    "description": "Medic Response",
    "address": "1431 Minor Ave",
    "active": false,
    "unitCount": 2,
    "severity": 0,
    "lat": 47.613247,
    "long": -122.327187,
    "neighborhood": "Capitol Hill",
    "neighborhoodGroup": "East",
    "units": "E25 M10"
  },
  {
    "id_str": "F210083215",
    "created_at": "8/3/2021 9:29:49 PM",
    "timestamp": 1628051389000,
    "description": "Aid Response",
    "address": "3621 33rd Ave S",
    "active": false,
    "unitCount": 1,
    "severity": 0,
    "lat": 47.571408,
    "long": -122.291001,
    "neighborhood": "Columbia City",
    "neighborhoodGroup": "Southeast",
    "units": "E30"
  },
  {
    "id_str": "F210083214",
    "created_at": "8/3/2021 9:25:49 PM",
    "timestamp": 1628051149000,
    "description": "Aid Response",
    "address": "100 Melrose Ave E",
    "active": false,
    "unitCount": 1,
    "severity": 0,
    "lat": 47.618497,
    "long": -122.327854,
    "neighborhood": "Capitol Hill",
    "neighborhoodGroup": "East",
    "units": "L10"
  },
  {
    "id_str": "F210083213",
    "created_at": "8/3/2021 9:24:57 PM",
    "timestamp": 1628051097000,
    "description": "Aid Response",
    "address": "2201 E Madison St",
    "active": false,
    "unitCount": 1,
    "severity": 0,
    "lat": 47.618428,
    "long": -122.303639,
    "neighborhood": "Central Area/Squire Park",
    "neighborhoodGroup": "Central",
    "units": "A25"
  },
  {
    "id_str": "F210083212",
    "created_at": "8/3/2021 9:18:32 PM",
    "timestamp": 1628050712000,
    "description": "Aid Response",
    "address": "1000 Occidental Ave S",
    "active": false,
    "unitCount": 1,
    "severity": 0,
    "lat": 47.594035,
    "long": -122.333269,
    "neighborhood": "Duwamish/SODO",
    "neighborhoodGroup": "Greater Duwamish",
    "units": "A10"
  },
  {
    "id_str": "F210083207",
    "created_at": "8/3/2021 8:59:15 PM",
    "timestamp": 1628049555000,
    "description": "Aid Response",
    "address": "7524 35th Ave Sw",
    "active": false,
    "unitCount": 1,
    "severity": 0,
    "lat": 47.535284,
    "long": -122.376607,
    "neighborhood": "Roxhill/Westwood",
    "neighborhoodGroup": "Delridge Neighborhoods",
    "units": "E37"
  },
  {
    "id_str": "F210083206",
    "created_at": "8/3/2021 8:56:20 PM",
    "timestamp": 1628049380000,
    "description": "Rescue Lock In/Out",
    "address": "116 Stewart St",
    "active": false,
    "unitCount": 2,
    "severity": 0,
    "lat": 47.610387,
    "long": -122.341198,
    "neighborhood": "Belltown",
    "neighborhoodGroup": "Downtown",
    "units": "E2 L4"
  },
  {
    "id_str": "F210083203",
    "created_at": "8/3/2021 8:47:07 PM",
    "timestamp": 1628048827000,
    "description": "Aid Response",
    "address": "2415 Beacon Ave S",
    "active": false,
    "unitCount": 1,
    "severity": 0,
    "lat": 47.581785,
    "long": -122.314525,
    "neighborhood": "North Beacon Hill/Jefferson Park",
    "neighborhoodGroup": "Greater Duwamish",
    "units": "E13"
  },
  {
    "id_str": "F210083201",
    "created_at": "8/3/2021 8:45:31 PM",
    "timestamp": 1628048731000,
    "description": "Medic Response",
    "address": "14051 Greenwood Ave N",
    "active": false,
    "unitCount": 3,
    "severity": 0,
    "lat": 47.730802,
    "long": -122.355564,
    "neighborhood": "Broadview/Bitter Lake",
    "neighborhoodGroup": "Northwest",
    "units": "E24 L5 M31"
  },
  {
    "id_str": "F210083200",
    "created_at": "8/3/2021 8:45:15 PM",
    "timestamp": 1628048715000,
    "description": "Rubbish Fire",
    "address": "2451 Aurora Ave N",
    "active": false,
    "unitCount": 1,
    "severity": 0,
    "lat": 47.64231,
    "long": -122.346999,
    "neighborhood": "Queen Anne",
    "neighborhoodGroup": "Magnolia/Queen Anne",
    "units": "E8"
  },
  {
    "id_str": "F210083195",
    "created_at": "8/3/2021 8:34:18 PM",
    "timestamp": 1628048058000,
    "description": "Aid Response",
    "address": "1020 S Myrtle St",
    "active": false,
    "unitCount": 1,
    "severity": 0,
    "lat": 47.539433,
    "long": -122.320138,
    "neighborhood": "Georgetown",
    "neighborhoodGroup": "Greater Duwamish",
    "units": "E27"
  },
  {
    "id_str": "F210083194",
    "created_at": "8/3/2021 8:33:25 PM",
    "timestamp": 1628048005000,
    "description": "Auto Fire Alarm",
    "address": "2614 4th Ave",
    "active": false,
    "unitCount": 3,
    "severity": 0,
    "lat": 47.617316,
    "long": -122.347229,
    "neighborhood": "Cascade/Eastlake",
    "neighborhoodGroup": "Lake Union",
    "units": "E2 E5 L4"
  },
  {
    "id_str": "F210083192",
    "created_at": "8/3/2021 8:28:29 PM",
    "timestamp": 1628047709000,
    "description": "Investigate Out Of Service",
    "address": "4132 Ashworth Ave N",
    "active": false,
    "unitCount": 1,
    "severity": 0,
    "lat": 47.657204,
    "long": -122.339736,
    "neighborhood": "Wallingford",
    "neighborhoodGroup": "Lake Union",
    "units": "E9"
  },
  {
    "id_str": "F210083189",
    "created_at": "8/3/2021 8:20:04 PM",
    "timestamp": 1628047204000,
    "description": "Natural Gas Odor",
    "address": "110 Nw 137th St",
    "active": false,
    "unitCount": 1,
    "severity": 0,
    "lat": 47.728733,
    "long": -122.358374,
    "neighborhood": "Broadview/Bitter Lake",
    "neighborhoodGroup": "Northwest",
    "units": "L5"
  },
  {
    "id_str": "F210083188",
    "created_at": "8/3/2021 8:19:11 PM",
    "timestamp": 1628047151000,
    "description": "Aid Response",
    "address": "3101 Ne 145th St",
    "active": false,
    "unitCount": 1,
    "severity": 0,
    "lat": 47.733775,
    "long": -122.295148,
    "units": "E39"
  },
  {
    "id_str": "F210083187",
    "created_at": "8/3/2021 8:17:14 PM",
    "timestamp": 1628047034000,
    "description": "Auto Fire Alarm",
    "address": "510 Minor Ave N",
    "active": false,
    "unitCount": 2,
    "severity": 0,
    "lat": 47.623222,
    "long": -122.333001,
    "neighborhood": "Cascade/Eastlake",
    "neighborhoodGroup": "Lake Union",
    "units": "E22 L4"
  },
  {
    "id_str": "F210083186",
    "created_at": "8/3/2021 8:15:51 PM",
    "timestamp": 1628046951000,
    "description": "Medic Response",
    "address": "10531 Midvale Ave N",
    "active": false,
    "unitCount": 2,
    "severity": 0,
    "lat": 47.705326,
    "long": -122.343334,
    "neighborhood": "Licton Springs",
    "neighborhoodGroup": "Northwest",
    "units": "E24 M31"
  },
  {
    "id_str": "F210083184",
    "created_at": "8/3/2021 8:11:20 PM",
    "timestamp": 1628046680000,
    "description": "Medic Response",
    "address": "606 12th Ave S",
    "active": false,
    "unitCount": 2,
    "severity": 0,
    "lat": 47.59745,
    "long": -122.317227,
    "neighborhood": "Pioneer Square/International District",
    "neighborhoodGroup": "Downtown",
    "units": "A10 M1"
  },
  {
    "id_str": "F210083183",
    "created_at": "8/3/2021 8:11:15 PM",
    "timestamp": 1628046675000,
    "description": "Auto Fire Alarm",
    "address": "2220 E Union St",
    "active": false,
    "unitCount": 2,
    "severity": 0,
    "lat": 47.612935,
    "long": -122.303446,
    "neighborhood": "Central Area/Squire Park",
    "neighborhoodGroup": "Central",
    "units": "E25 L10"
  },
  {
    "id_str": "F210083181",
    "created_at": "8/3/2021 8:08:59 PM",
    "timestamp": 1628046539000,
    "description": "Illegal Burn",
    "address": "Nb I5 Fr 50",
    "active": false,
    "unitCount": 1,
    "severity": 0,
    "lat": 47.667067,
    "long": -122.321315,
    "neighborhood": "Wallingford",
    "neighborhoodGroup": "Lake Union",
    "units": "E31"
  },
  {
    "id_str": "F210083179",
    "created_at": "8/3/2021 8:02:11 PM",
    "timestamp": 1628046131000,
    "description": "Aid Response",
    "address": "207 Pontius Ave N",
    "active": false,
    "unitCount": 1,
    "severity": 0,
    "lat": 47.619736,
    "long": -122.331697,
    "neighborhood": "Cascade/Eastlake",
    "neighborhoodGroup": "Lake Union",
    "units": "E2"
  },
  {
    "id_str": "F210083178",
    "created_at": "8/3/2021 7:59:53 PM",
    "timestamp": 1628045993000,
    "description": "Aid Response",
    "address": "N 63rd St / West Green Lake Way N",
    "active": false,
    "unitCount": 1,
    "severity": 0,
    "lat": 47.674156,
    "long": -122.345591,
    "neighborhood": "Green Lake",
    "neighborhoodGroup": "Northwest",
    "units": "E21"
  },
  {
    "id_str": "F210083172",
    "created_at": "8/3/2021 7:53:12 PM",
    "timestamp": 1628045592000,
    "description": "Rescue Elevator",
    "address": "1116 Nw 54th St",
    "active": false,
    "unitCount": 1,
    "severity": 0,
    "lat": 47.667885,
    "long": -122.370903,
    "neighborhood": "Ballard",
    "neighborhoodGroup": "Ballard",
    "units": "L8"
  },
  {
    "id_str": "F210083173",
    "created_at": "8/3/2021 7:53:05 PM",
    "timestamp": 1628045585000,
    "description": "Aid Response",
    "address": "Marion St / 2nd Ave",
    "active": false,
    "unitCount": 1,
    "severity": 0,
    "lat": 47.604446,
    "long": -122.334477,
    "neighborhood": "Downtown Commercial Core",
    "neighborhoodGroup": "Downtown",
    "units": "E5"
  },
  {
    "id_str": "F210083171",
    "created_at": "8/3/2021 7:46:54 PM",
    "timestamp": 1628045214000,
    "description": "Auto Fire Alarm",
    "address": "3917 Aurora Ave N",
    "active": false,
    "unitCount": 2,
    "severity": 0,
    "lat": 47.655179,
    "long": -122.347374,
    "neighborhood": "Fremont",
    "neighborhoodGroup": "Lake Union",
    "units": "E9 L6"
  },
  {
    "id_str": "F210083170",
    "created_at": "8/3/2021 7:45:59 PM",
    "timestamp": 1628045159000,
    "description": "Scenes Of Violence Aid",
    "address": "Nw 57th St / 22nd Ave Nw",
    "active": false,
    "unitCount": 2,
    "severity": 0,
    "lat": 47.670183,
    "long": -122.384743,
    "neighborhood": "Ballard",
    "neighborhoodGroup": "Ballard",
    "units": "B4 E18"
  },
  {
    "id_str": "F210083167",
    "created_at": "8/3/2021 7:39:22 PM",
    "timestamp": 1628044762000,
    "description": "Medic Response",
    "address": "4009 15th Ave Ne",
    "active": false,
    "unitCount": 3,
    "severity": 0,
    "lat": 47.655446,
    "long": -122.312147,
    "neighborhood": "University District",
    "neighborhoodGroup": "Northeast",
    "units": "E17 M10 M18"
  },
  {
    "id_str": "F210083166",
    "created_at": "8/3/2021 7:37:05 PM",
    "timestamp": 1628044625000,
    "description": "Aid Response",
    "address": "9200 2nd Ave Sw",
    "active": false,
    "unitCount": 1,
    "severity": 0,
    "lat": 47.521244,
    "long": -122.336301,
    "neighborhood": "Highland Park",
    "neighborhoodGroup": "Delridge Neighborhoods",
    "units": "E26"
  },
  {
    "id_str": "F210083165",
    "created_at": "8/3/2021 7:36:13 PM",
    "timestamp": 1628044573000,
    "description": "Aid Response",
    "address": "1221 Harbor Ave Sw",
    "active": false,
    "unitCount": 1,
    "severity": 0,
    "lat": 47.592933,
    "long": -122.383131,
    "neighborhood": "Alki/Admiral",
    "neighborhoodGroup": "Southwest",
    "units": "E29"
  },
  {
    "id_str": "F210083163",
    "created_at": "8/3/2021 7:35:55 PM",
    "timestamp": 1628044555000,
    "description": "Aid Response",
    "address": "13000 Linden Ave N",
    "active": false,
    "unitCount": 1,
    "severity": 0,
    "lat": 47.723218,
    "long": -122.348195,
    "neighborhood": "Broadview/Bitter Lake",
    "neighborhoodGroup": "Northwest",
    "units": "L5"
  },
  {
    "id_str": "F210083164",
    "created_at": "8/3/2021 7:35:51 PM",
    "timestamp": 1628044551000,
    "description": "Aid Response",
    "address": "1710 S Jackson St",
    "active": false,
    "unitCount": 1,
    "severity": 0,
    "lat": 47.599233,
    "long": -122.310139,
    "neighborhood": "Judkins Park",
    "neighborhoodGroup": "Central",
    "units": "L3"
  },
  {
    "id_str": "F210083162",
    "created_at": "8/3/2021 7:34:15 PM",
    "timestamp": 1628044455000,
    "description": "AFA4 - Auto Alarm 2 + 1 + 1",
    "address": "305 Bellevue Ave E",
    "active": false,
    "unitCount": 4,
    "severity": 0,
    "lat": 47.620878,
    "long": -122.326579,
    "neighborhood": "Capitol Hill",
    "neighborhoodGroup": "East",
    "units": "B2 E10 E2 L4"
  },
  {
    "id_str": "F210083161",
    "created_at": "8/3/2021 7:33:53 PM",
    "timestamp": 1628044433000,
    "description": "Aid Response",
    "address": "6900 37th Ave S",
    "active": false,
    "unitCount": 1,
    "severity": 0,
    "lat": 47.540654,
    "long": -122.286239,
    "neighborhood": "South Beacon Hill/NewHolly",
    "neighborhoodGroup": "Greater Duwamish",
    "units": "L12"
  },
  {
    "id_str": "F210083160",
    "created_at": "8/3/2021 7:32:01 PM",
    "timestamp": 1628044321000,
    "description": "Aid Response",
    "address": "4200 S Othello St",
    "active": false,
    "unitCount": 1,
    "severity": 0,
    "lat": 47.537049,
    "long": -122.280735,
    "neighborhood": "Columbia City",
    "neighborhoodGroup": "Southeast",
    "units": "E28"
  },
  {
    "id_str": "F210083159",
    "created_at": "8/3/2021 7:30:04 PM",
    "timestamp": 1628044204000,
    "description": "Aid Response",
    "address": "1409 E Olive St",
    "active": false,
    "unitCount": 1,
    "severity": 0,
    "lat": 47.616451,
    "long": -122.314123,
    "neighborhood": "Capitol Hill",
    "neighborhoodGroup": "East",
    "units": "E25"
  },
  {
    "id_str": "F210083158",
    "created_at": "8/3/2021 7:28:44 PM",
    "timestamp": 1628044124000,
    "description": "Aid Response",
    "address": "4507 Brooklyn Ave Ne",
    "active": false,
    "unitCount": 3,
    "severity": 0,
    "lat": 47.661332,
    "long": -122.314285,
    "neighborhood": "University District",
    "neighborhoodGroup": "Northeast",
    "units": "E17 E31 M18"
  },
  {
    "id_str": "F210083154",
    "created_at": "8/3/2021 7:19:27 PM",
    "timestamp": 1628043567000,
    "description": "Aid Response",
    "address": "6512 35th Ave Sw",
    "active": false,
    "unitCount": 1,
    "severity": 0,
    "lat": 47.544573,
    "long": -122.376448,
    "neighborhood": "High Point",
    "neighborhoodGroup": "Delridge Neighborhoods",
    "units": "E32"
  },
  {
    "id_str": "F210083153",
    "created_at": "8/3/2021 7:16:56 PM",
    "timestamp": 1628043416000,
    "description": "Medic Response",
    "address": "13563 23rd Ave Ne",
    "active": false,
    "unitCount": 2,
    "severity": 0,
    "lat": 47.727161,
    "long": -122.304054,
    "neighborhood": "Olympic Hills/Victory Heights",
    "neighborhoodGroup": "North",
    "units": "E39 M17"
  },
  {
    "id_str": "F210083152",
    "created_at": "8/3/2021 7:16:19 PM",
    "timestamp": 1628043379000,
    "description": "Aid Response",
    "address": "12702 15th Ave Ne",
    "active": false,
    "unitCount": 1,
    "severity": 0,
    "lat": 47.720887,
    "long": -122.312672,
    "neighborhood": "Olympic Hills/Victory Heights",
    "neighborhoodGroup": "North",
    "units": "E40"
  },
  {
    "id_str": "F210083149",
    "created_at": "8/3/2021 7:02:59 PM",
    "timestamp": 1628042579000,
    "description": "Rescue Elevator",
    "address": "6420 California Ave Sw",
    "active": false,
    "unitCount": 1,
    "severity": 0,
    "lat": 47.545436,
    "long": -122.387209,
    "neighborhood": "Fauntleroy/Seaview",
    "neighborhoodGroup": "Southwest",
    "units": "L11"
  },
  {
    "id_str": "F210083147",
    "created_at": "8/3/2021 7:01:29 PM",
    "timestamp": 1628042489000,
    "description": "Aid Response",
    "address": "23rd Ave E / E Madison St",
    "active": false,
    "unitCount": 1,
    "severity": 0,
    "lat": 47.619171,
    "long": -122.302547,
    "neighborhood": "Central Area/Squire Park",
    "neighborhoodGroup": "Central",
    "units": "A25"
  },