[
  {
    "id_str": "F210019113",
    "created_at": "2/26/2021 3:51:58 PM",
    "timestamp": 1614383518000,
    "description": "Aid Response",
    "address": "12th Ave S / S King St",
    "active": false,
    "unitCount": 1,
    "severity": 0,
    "lat": 47.598338,
    "long": -122.317228,
    "neighborhood": "Pioneer Square/International District",
    "neighborhoodGroup": "Downtown",
    "units": "A10"
  },
  {
    "id_str": "F210019109",
    "created_at": "2/26/2021 3:47:04 PM",
    "timestamp": 1614383224000,
    "description": "Medic Response",
    "address": "1715 Nw 59th St",
    "active": false,
    "unitCount": 2,
    "severity": 0,
    "lat": 47.671633,
    "long": -122.379034,
    "neighborhood": "Ballard",
    "neighborhoodGroup": "Ballard",
    "units": "L4 M18"
  },
  {
    "id_str": "F210019108",
    "created_at": "2/26/2021 3:44:27 PM",
    "timestamp": 1614383067000,
    "description": "Aid Response",
    "address": "4401 S Trenton St",
    "active": false,
    "unitCount": 1,
    "severity": 0,
    "lat": 47.524258,
    "long": -122.278029,
    "neighborhood": "South Beacon Hill/NewHolly",
    "neighborhoodGroup": "Greater Duwamish",
    "units": "E28"
  },
  {
    "id_str": "F210019107",
    "created_at": "2/26/2021 3:41:46 PM",
    "timestamp": 1614382906000,
    "description": "Aid Response",
    "address": "405 Olive Way",
    "active": false,
    "unitCount": 1,
    "severity": 0,
    "lat": 47.612207,
    "long": -122.338484,
    "neighborhood": "Cascade/Eastlake",
    "neighborhoodGroup": "Lake Union",
    "units": "A2"
  },
  {
    "id_str": "F210019106",
    "created_at": "2/26/2021 3:41:27 PM",
    "timestamp": 1614382887000,
    "description": "Aid Response",
    "address": "2225 4th Ave",
    "active": false,
    "unitCount": 1,
    "severity": 0,
    "lat": 47.614788,
    "long": -122.342952,
    "neighborhood": "Cascade/Eastlake",
    "neighborhoodGroup": "Lake Union",
    "units": "E2"
  },
  {
    "id_str": "F210019105",
    "created_at": "2/26/2021 3:38:43 PM",
    "timestamp": 1614382723000,
    "description": "Aid Response",
    "address": "W Galer St Flyover / Elliott Ave W",
    "active": false,
    "unitCount": 1,
    "severity": 0,
    "lat": 47.631473,
    "long": -122.374663,
    "neighborhood": "Interbay",
    "neighborhoodGroup": "Magnolia/Queen Anne",
    "units": "E20"
  },
  {
    "id_str": "F210019103",
    "created_at": "2/26/2021 3:36:40 PM",
    "timestamp": 1614382600000,
    "description": "Aid Response",
    "address": "2118 29th Ave W",
    "active": false,
    "unitCount": 1,
    "severity": 0,
    "lat": 47.637532,
    "long": -122.394237,
    "neighborhood": "Magnolia",
    "neighborhoodGroup": "Magnolia/Queen Anne",
    "units": "E41"
  },
  {
    "id_str": "F210019102",
    "created_at": "2/26/2021 3:35:47 PM",
    "timestamp": 1614382547000,
    "description": "Aid Response",
    "address": "410 2nd Ave Et S",
    "active": false,
    "unitCount": 1,
    "severity": 0,
    "lat": 47.601202,
    "long": -122.331511,
    "neighborhood": "Pioneer Square/International District",
    "neighborhoodGroup": "Downtown",
    "units": "A5"
  },
  {
    "id_str": "F210019100",
    "created_at": "2/26/2021 3:31:21 PM",
    "timestamp": 1614382281000,
    "description": "Aid Response",
    "address": "9748 59th Ave S",
    "active": false,
    "unitCount": 2,
    "severity": 0,
    "lat": 47.514185,
    "long": -122.259381,
    "neighborhood": "Rainier Beach",
    "neighborhoodGroup": "Southeast",
    "units": "A2 E33"
  },
  {
    "id_str": "F210019098",
    "created_at": "2/26/2021 3:28:50 PM",
    "timestamp": 1614382130000,
    "description": "Low Acuity Response",
    "address": "1700 Sw Holden St",
    "active": false,
    "unitCount": 1,
    "severity": 0,
    "lat": 47.533683,
    "long": -122.356387,
    "neighborhood": "Roxhill/Westwood",
    "neighborhoodGroup": "Delridge Neighborhoods",
    "units": "E11"
  },
  {
    "id_str": "F210019097",
    "created_at": "2/26/2021 3:26:52 PM",
    "timestamp": 1614382012000,
    "description": "Aid Response",
    "address": "E Olive Way / Bellevue Ave",
    "active": false,
    "unitCount": 1,
    "severity": 0,
    "lat": 47.617077,
    "long": -122.32682,
    "neighborhood": "Capitol Hill",
    "neighborhoodGroup": "East",
    "units": "A4"
  },
  {
    "id_str": "F210019094",
    "created_at": "2/26/2021 3:25:04 PM",
    "timestamp": 1614381904000,
    "description": "Car Fire",
    "address": "OLSON PL SW / 2ND AVE SW",
    "active": false,
    "unitCount": 1,
    "severity": 0,
    "lat": 47.517273,
    "long": -122.340131,
    "units": "E27"
  },
  {
    "id_str": "F210019093",
    "created_at": "2/26/2021 3:22:15 PM",
    "timestamp": 1614381735000,
    "description": "Aid Response",
    "address": "547 S Cloverdale St",
    "active": false,
    "unitCount": 1,
    "severity": 0,
    "lat": 47.526479,
    "long": -122.327579,
    "neighborhood": "South Park",
    "neighborhoodGroup": "Greater Duwamish",
    "units": "E26"
  },
  {
    "id_str": "F210019092",
    "created_at": "2/26/2021 3:20:28 PM",
    "timestamp": 1614381628000,
    "description": "Aid Response",
    "address": "Pike St / Melrose Ave",
    "active": false,
    "unitCount": 1,
    "severity": 0,
    "lat": 47.61393,
    "long": -122.327805,
    "neighborhood": "Capitol Hill",
    "neighborhoodGroup": "East",
    "units": "A10"
  },
  {
    "id_str": "F210019091",
    "created_at": "2/26/2021 3:19:32 PM",
    "timestamp": 1614381572000,
    "description": "Aid Response",
    "address": "1401 E Madison St",
    "active": false,
    "unitCount": 1,
    "severity": 0,
    "lat": 47.613907,
    "long": -122.314191,
    "neighborhood": "Capitol Hill",
    "neighborhoodGroup": "East",
    "units": "L10"
  },
  {
    "id_str": "F210019089",
    "created_at": "2/26/2021 3:18:48 PM",
    "timestamp": 1614381528000,
    "description": "Aid Response",
    "address": "2200 E Madison St",
    "active": false,
    "unitCount": 1,
    "severity": 0,
    "lat": 47.61842,
    "long": -122.30365,
    "neighborhood": "Central Area/Squire Park",
    "neighborhoodGroup": "Central",
    "units": "E25"
  },
  {
    "id_str": "F210019090",
    "created_at": "2/26/2021 3:18:43 PM",
    "timestamp": 1614381523000,
    "description": "Aid Response",
    "address": "Magnolia Br",
    "active": false,
    "unitCount": 1,
    "severity": 0,
    "lat": 47.633481,
    "long": -122.38497,
    "neighborhood": "Interbay",
    "neighborhoodGroup": "Magnolia/Queen Anne",
    "units": "E20"
  },
  {
    "id_str": "F210019088",
    "created_at": "2/26/2021 3:16:44 PM",
    "timestamp": 1614381404000,
    "description": "Aid Response",
    "address": "6334 50th Ave Sw",
    "active": false,
    "unitCount": 1,
    "severity": 0,
    "lat": 47.546477,
    "long": -122.395983,
    "neighborhood": "Fauntleroy/Seaview",
    "neighborhoodGroup": "Southwest",
    "units": "E37"
  },
  {
    "id_str": "F210019087",
    "created_at": "2/26/2021 3:15:09 PM",
    "timestamp": 1614381309000,
    "description": "Aid Response",
    "address": "1st Ave / Union St",
    "active": false,
    "unitCount": 1,
    "severity": 0,
    "lat": 47.607828,
    "long": -122.339105,
    "neighborhood": "Downtown Commercial Core",
    "neighborhoodGroup": "Downtown",
    "units": "E5"
  },
  {
    "id_str": "F210019085",
    "created_at": "2/26/2021 3:13:08 PM",
    "timestamp": 1614381188000,
    "description": "MVI - Motor Vehicle Incident",
    "address": "7th Ave Nw / Nw 62nd St",
    "active": false,
    "unitCount": 1,
    "severity": 0,
    "lat": 47.674172,
    "long": -122.365063,
    "neighborhood": "Greenwood/Phinney Ridge",
    "neighborhoodGroup": "Northwest",
    "units": "E9"
  },
  {
    "id_str": "F210019083",
    "created_at": "2/26/2021 3:06:42 PM",
    "timestamp": 1614380802000,
    "description": "Aid Response",
    "address": "505 14th Ave E",
    "active": false,
    "unitCount": 1,
    "severity": 0,
    "lat": 47.623157,
    "long": -122.314653,
    "neighborhood": "Capitol Hill",
    "neighborhoodGroup": "East",
    "units": "A25"
  },
  {
    "id_str": "F210019084",
    "created_at": "2/26/2021 3:05:55 PM",
    "timestamp": 1614380755000,
    "description": "Aid Response",
    "address": "500 Pike St",
    "active": false,
    "unitCount": 1,
    "severity": 0,
    "lat": 47.610678,
    "long": -122.335574,
    "neighborhood": "Downtown Commercial Core",
    "neighborhoodGroup": "Downtown",
    "units": "A10"
  },
  {
    "id_str": "F210019082",
    "created_at": "2/26/2021 3:00:36 PM",
    "timestamp": 1614380436000,
    "description": "Medic Response",
    "address": "6000 16th Ave Sw",
    "active": false,
    "unitCount": 2,
    "severity": 0,
    "lat": 47.54887,
    "long": -122.354833,
    "neighborhood": "Riverview",
    "neighborhoodGroup": "Delridge Neighborhoods",
    "units": "E11 M32"
  },
  {
    "id_str": "F210019080",
    "created_at": "2/26/2021 2:54:39 PM",
    "timestamp": 1614380079000,
    "description": "Rescue Elevator",
    "address": "6760 34th Ave Sw",
    "active": false,
    "unitCount": 1,
    "severity": 0,
    "lat": 47.542303,
    "long": -122.375157,
    "neighborhood": "High Point",
    "neighborhoodGroup": "Delridge Neighborhoods",
    "units": "L13"
  },
  {
    "id_str": "F210019079",
    "created_at": "2/26/2021 2:52:09 PM",
    "timestamp": 1614379929000,
    "description": "Aid Response",
    "address": "2015 S Ingersoll Pl",
    "active": false,
    "unitCount": 2,
    "severity": 0,
    "lat": 47.593782,
    "long": -122.305943,
    "neighborhood": "Judkins Park",
    "neighborhoodGroup": "Central",
    "units": "L3 M1"
  },
  {
    "id_str": "F210019077",
    "created_at": "2/26/2021 2:44:29 PM",
    "timestamp": 1614379469000,
    "description": "Aid Response",
    "address": "710 Cherry St",
    "active": false,
    "unitCount": 1,
    "severity": 0,
    "lat": 47.605387,
    "long": -122.327511,
    "neighborhood": "First Hill",
    "neighborhoodGroup": "East",
    "units": "A5"
  },
  {
    "id_str": "F210019076",
    "created_at": "2/26/2021 2:42:55 PM",
    "timestamp": 1614379375000,
    "description": "Aid Response",
    "address": "106 Bell St",
    "active": false,
    "unitCount": 1,
    "severity": 0,
    "lat": 47.613416,
    "long": -122.34646,
    "neighborhood": "Belltown",
    "neighborhoodGroup": "Downtown",
    "units": "A4"
  },
  {
    "id_str": "F210019075",
    "created_at": "2/26/2021 2:41:38 PM",
    "timestamp": 1614379298000,
    "description": "Aid Response",
    "address": "OCCIDENTAL AVE S / S JACKSON ST",
    "active": false,
    "unitCount": 1,
    "severity": 0,
    "lat": 47.599203,
    "long": -122.332882,
    "neighborhood": "Duwamish/SODO",
    "neighborhoodGroup": "Greater Duwamish",
    "units": "A10"
  },
  {
    "id_str": "F210019074",
    "created_at": "2/26/2021 2:40:59 PM",
    "timestamp": 1614379259000,
    "description": "Medic Response",
    "address": "4526 S Henderson St",
    "active": false,
    "unitCount": 2,
    "severity": 0,
    "lat": 47.523311,
    "long": -122.27583,
    "neighborhood": "Rainier Beach",
    "neighborhoodGroup": "Southeast",
    "units": "E33 M28"
  },
  {
    "id_str": "F210019073",
    "created_at": "2/26/2021 2:28:34 PM",
    "timestamp": 1614378514000,
    "description": "Car Fire",
    "address": "312 Cherry St",
    "active": false,
    "unitCount": 2,
    "severity": 0,
    "lat": 47.603541,
    "long": -122.331926,
    "neighborhood": "Downtown Commercial Core",
    "neighborhoodGroup": "Downtown",
    "units": "E10 MAR5"
  },
  {
    "id_str": "F210019070",
    "created_at": "2/26/2021 2:20:18 PM",
    "timestamp": 1614378018000,
    "description": "Medic Response",
    "address": "1815 Terry Ave",
    "active": false,
    "unitCount": 2,
    "severity": 0,
    "lat": 47.615602,
    "long": -122.332488,
    "neighborhood": "Cascade/Eastlake",
    "neighborhoodGroup": "Lake Union",
    "units": "A2 M10"
  },
  {
    "id_str": "F210019068",
    "created_at": "2/26/2021 2:16:29 PM",
    "timestamp": 1614377789000,
    "description": "Aid Response",
    "address": "2008 Westlake Ave",
    "active": false,
    "unitCount": 1,
    "severity": 0,
    "lat": 47.615007,
    "long": -122.337781,
    "neighborhood": "Cascade/Eastlake",
    "neighborhoodGroup": "Lake Union",
    "units": "A4"
  },
  {
    "id_str": "F210019067",
    "created_at": "2/26/2021 2:14:25 PM",
    "timestamp": 1614377665000,
    "description": "Aid Response",
    "address": "233 Broadway E",
    "active": false,
    "unitCount": 1,
    "severity": 0,
    "lat": 47.620289,
    "long": -122.320879,
    "neighborhood": "Capitol Hill",
    "neighborhoodGroup": "East",
    "units": "A25"
  },
  {
    "id_str": "F210019065",
    "created_at": "2/26/2021 2:09:26 PM",
    "timestamp": 1614377366000,
    "description": "Aid Response Yellow",
    "address": "2502 Nob Hill Pl N",
    "active": false,
    "unitCount": 1,
    "severity": 0,
    "lat": 47.641459,
    "long": -122.351289,
    "neighborhood": "Queen Anne",
    "neighborhoodGroup": "Magnolia/Queen Anne",
    "units": "E8"
  },
  {
    "id_str": "F210019063",
    "created_at": "2/26/2021 2:05:03 PM",
    "timestamp": 1614377103000,
    "description": "Medic Response",
    "address": "1601 15th Ave W",
    "active": false,
    "unitCount": 2,
    "severity": 0,
    "lat": 47.633499,
    "long": -122.376195,
    "neighborhood": "Interbay",
    "neighborhoodGroup": "Magnolia/Queen Anne",
    "units": "E20 M18"
  },
  {
    "id_str": "F210019061",
    "created_at": "2/26/2021 1:58:14 PM",
    "timestamp": 1614376694000,
    "description": "Low Acuity Response",
    "address": "4504 S Webster St",
    "active": false,
    "unitCount": 1,
    "severity": 0,
    "lat": 47.535222,
    "long": -122.27653,
    "neighborhood": "Columbia City",
    "neighborhoodGroup": "Southeast",
    "units": "E33"
  },
  {
    "id_str": "F210019060",
    "created_at": "2/26/2021 1:57:30 PM",
    "timestamp": 1614376650000,
    "description": "Aid Response",
    "address": "101 6th Ave S",
    "active": false,
    "unitCount": 1,
    "severity": 0,
    "lat": 47.601701,
    "long": -122.326351,
    "neighborhood": "Pioneer Square/International District",
    "neighborhoodGroup": "Downtown",
    "units": "A5"
  },
  {
    "id_str": "F210019059",
    "created_at": "2/26/2021 1:56:27 PM",
    "timestamp": 1614376587000,
    "description": "Auto Fire Alarm",
    "address": "3700 S Hudson St",
    "active": false,
    "unitCount": 2,
    "severity": 0,
    "lat": 47.557045,
    "long": -122.28614,
    "neighborhood": "Columbia City",
    "neighborhoodGroup": "Southeast",
    "units": "E28 L12"
  },
  {
    "id_str": "F210019056",
    "created_at": "2/26/2021 1:46:01 PM",
    "timestamp": 1614375961000,
    "description": "Automatic Fire Alarm False",
    "address": "12718 Lake City Way Ne",
    "active": false,
    "unitCount": 1,
    "severity": 0,
    "lat": 47.721196,
    "long": -122.294099,
    "neighborhood": "Cedar Park/Meadowbrook",
    "neighborhoodGroup": "North",
    "units": "E39"
  },
  {
    "id_str": "F210019055",
    "created_at": "2/26/2021 1:46:00 PM",
    "timestamp": 1614375960000,
    "description": "Aid Response",
    "address": "3525 Sw Seola Ln",
    "active": false,
    "unitCount": 1,
    "severity": 0,
    "lat": 47.497794,
    "long": -122.376435,
    "neighborhood": "Arbor Heights",
    "neighborhoodGroup": "Southwest",
    "units": "E11"
  },
  {
    "id_str": "F210019054",
    "created_at": "2/26/2021 1:44:12 PM",
    "timestamp": 1614375852000,
    "description": "Auto Fire Alarm",
    "address": "12736 Lake City Way Ne",
    "active": false,
    "unitCount": 2,
    "severity": 0,
    "lat": 47.721301,
    "long": -122.294037,
    "neighborhood": "Cedar Park/Meadowbrook",
    "neighborhoodGroup": "North",
    "units": "E16 L9"
  },
  {
    "id_str": "F210019052",
    "created_at": "2/26/2021 1:38:45 PM",
    "timestamp": 1614375525000,
    "description": "Fire in Building",
    "address": "N 130th St / Aurora Ave N",
    "active": false,
    "unitCount": 20,
    "severity": 2,
    "lat": 47.723212,
    "long": -122.344977,
    "neighborhood": "Haller Lake",
    "neighborhoodGroup": "Northwest",
    "units": "A25 AIR10 B4 B6 DEP1 E16 E22 E24 E25 E31 E38 L4 L5 L9 M31 M44 MAR5 REHAB1 SAFT2 STAF10"
  },
  {
    "id_str": "F210019051",
    "created_at": "2/26/2021 1:30:57 PM",
    "timestamp": 1614375057000,
    "description": "Low Acuity Response",
    "address": "320 Nw 112th St",
    "active": false,
    "unitCount": 1,
    "severity": 0,
    "lat": 47.710417,
    "long": -122.361197,
    "neighborhood": "Broadview/Bitter Lake",
    "neighborhoodGroup": "Northwest",
    "units": "E21"
  },
  {
    "id_str": "F210019049",
    "created_at": "2/26/2021 1:27:36 PM",
    "timestamp": 1614374856000,
    "description": "Aid Response",
    "address": "9506 18th Ave Nw",
    "active": false,
    "unitCount": 3,
    "severity": 0,
    "lat": 47.698277,
    "long": -122.379176,
    "neighborhood": "North Beach/Blue Ridge",
    "neighborhoodGroup": "Ballard",
    "units": "E35 M18 M31"
  },
  {
    "id_str": "F210019048",
    "created_at": "2/26/2021 1:25:33 PM",
    "timestamp": 1614374733000,
    "description": "Aid Response",
    "address": "12515 35th Ave Ne",
    "active": false,
    "unitCount": 1,
    "severity": 0,
    "lat": 47.719433,
    "long": -122.290769,
    "neighborhood": "Cedar Park/Meadowbrook",
    "neighborhoodGroup": "North",
    "units": "E39"
  },
  {
    "id_str": "F210019047",
    "created_at": "2/26/2021 1:19:06 PM",
    "timestamp": 1614374346000,
    "description": "Aid Response",
    "address": "1118 5th Ave",
    "active": false,
    "unitCount": 1,
    "severity": 0,
    "lat": 47.60739,
    "long": -122.332564,
    "neighborhood": "Downtown Commercial Core",
    "neighborhoodGroup": "Downtown",
    "units": "A10"
  },
  {
    "id_str": "F210019046",
    "created_at": "2/26/2021 1:17:05 PM",
    "timestamp": 1614374225000,
    "description": "Aid Response",
    "address": "4609 14th Ave Nw",
    "active": false,
    "unitCount": 1,
    "severity": 0,
    "lat": 47.662262,
    "long": -122.373595,
    "neighborhood": "Ballard",
    "neighborhoodGroup": "Ballard",
    "units": "E20"
  },
  {
    "id_str": "F210019044",
    "created_at": "2/26/2021 1:13:22 PM",
    "timestamp": 1614374002000,
    "description": "Aid Response",
    "address": "1302 E Yesler Way",
    "active": false,
    "unitCount": 1,
    "severity": 0,
    "lat": 47.601688,
    "long": -122.314914,
    "neighborhood": "Judkins Park",
    "neighborhoodGroup": "Central",
    "units": "A5"
  },
  {
    "id_str": "F210019043",
    "created_at": "2/26/2021 1:10:04 PM",
    "timestamp": 1614373804000,
    "description": "MVI - Motor Vehicle Incident",
    "address": "N 34th St / Fremont Ave N",
    "active": false,
    "unitCount": 1,
    "severity": 0,
    "lat": 47.64959,
    "long": -122.349747,
    "neighborhood": "Fremont",
    "neighborhoodGroup": "Lake Union",
    "units": "E9"
  },
  {
    "id_str": "F210019042",
    "created_at": "2/26/2021 1:07:41 PM",
    "timestamp": 1614373661000,
    "description": "Low Acuity Response",
    "address": "718 N 143rd St",
    "active": false,
    "unitCount": 1,
    "severity": 0,
    "lat": 47.732314,
    "long": -122.350236,
    "neighborhood": "Broadview/Bitter Lake",
    "neighborhoodGroup": "Northwest",
    "units": "E24"
  },
  {
    "id_str": "F210019040",
    "created_at": "2/26/2021 12:56:17 PM",
    "timestamp": 1614372977000,
    "description": "Aid Response",
    "address": "2702 Beacon Ave S",
    "active": false,
    "unitCount": 1,
    "severity": 0,
    "lat": 47.579351,
    "long": -122.312266,
    "neighborhood": "North Beacon Hill/Jefferson Park",
    "neighborhoodGroup": "Greater Duwamish",
    "units": "E30"
  },
  {
    "id_str": "F210019033",
    "created_at": "2/26/2021 12:19:03 PM",
    "timestamp": 1614370743000,
    "description": "Aid Response Yellow",
    "address": "1736 Summit Ave",
    "active": false,
    "unitCount": 1,
    "severity": 0,
    "lat": 47.616841,
    "long": -122.32555,
    "neighborhood": "Capitol Hill",
    "neighborhoodGroup": "East",
    "units": "E25"
  },
  {
    "id_str": "F210019032",
    "created_at": "2/26/2021 12:08:46 PM",
    "timestamp": 1614370126000,
    "description": "Aid Response",
    "address": "1602 Ne 86th St",
    "active": false,
    "unitCount": 1,
    "severity": 0,
    "lat": 47.691239,
    "long": -122.310532,
    "neighborhood": "Northgate/Maple Leaf",
    "neighborhoodGroup": "North",
    "units": "E40"
  },
  {
    "id_str": "F210019029",
    "created_at": "2/26/2021 12:05:14 PM",
    "timestamp": 1614369914000,
    "description": "Medic Response",
    "address": "550 17TH AVE",
    "active": false,
    "unitCount": 3,
    "severity": 0,
    "lat": 47.607295,
    "long": -122.308935,
    "neighborhood": "Central Area/Squire Park",
    "neighborhoodGroup": "Central",
    "units": "A25 E25 M1"
  },
  {
    "id_str": "F210019024",
    "created_at": "2/26/2021 11:51:12 AM",
    "timestamp": 1614369072000,
    "description": "Rescue Elevator",
    "address": "1730 Taylor Ave N",
    "active": false,
    "unitCount": 1,
    "severity": 0,
    "lat": 47.634183,
    "long": -122.346293,
    "neighborhood": "Queen Anne",
    "neighborhoodGroup": "Magnolia/Queen Anne",
    "units": "L4"
  },
  {
    "id_str": "F210019023",
    "created_at": "2/26/2021 11:50:36 AM",
    "timestamp": 1614369036000,
    "description": "Aid Response",
    "address": "2200 E Madison St",
    "active": false,
    "unitCount": 1,
    "severity": 0,
    "lat": 47.61842,
    "long": -122.30365,
    "neighborhood": "Central Area/Squire Park",
    "neighborhoodGroup": "Central",
    "units": "A25"
  },
  {
    "id_str": "F210019021",
    "created_at": "2/26/2021 11:49:03 AM",
    "timestamp": 1614368943000,
    "description": "Aid Response",
    "address": "1900 Alaskan Way",
    "active": false,
    "unitCount": 1,
    "severity": 0,
    "lat": 47.608573,
    "long": -122.343891,
    "neighborhood": "Downtown Commercial Core",
    "neighborhoodGroup": "Downtown",
    "units": "A4"
  },
  {
    "id_str": "F210019020",
    "created_at": "2/26/2021 11:47:09 AM",
    "timestamp": 1614368829000,
    "description": "Aid Response Yellow",
    "address": "9200 2nd Ave Sw",
    "active": false,
    "unitCount": 1,
    "severity": 0,
    "lat": 47.521244,
    "long": -122.336301,
    "neighborhood": "Highland Park",
    "neighborhoodGroup": "Delridge Neighborhoods",
    "units": "E26"
  },
  {
    "id_str": "F210019019",
    "created_at": "2/26/2021 11:40:59 AM",
    "timestamp": 1614368459000,
    "description": "Auto Fire Alarm",
    "address": "367 Prospect St",
    "active": false,
    "unitCount": 2,
    "severity": 0,
    "lat": 47.62892,
    "long": -122.349685,
    "neighborhood": "Queen Anne",
    "neighborhoodGroup": "Magnolia/Queen Anne",
    "units": "E8 L4"
  },
  {
    "id_str": "F210019018",
    "created_at": "2/26/2021 11:39:21 AM",
    "timestamp": 1614368361000,
    "description": "Aid Response",
    "address": "2688 Ne University Village St",
    "active": false,
    "unitCount": 1,
    "severity": 0,
    "lat": 47.663336,
    "long": -122.297813,
    "neighborhood": "Ravenna/Bryant",
    "neighborhoodGroup": "Northeast",
    "units": "E38"
  },
  {
    "id_str": "F210019017",
    "created_at": "2/26/2021 11:37:27 AM",
    "timestamp": 1614368247000,
    "description": "Aid Response",
    "address": "6507 41st Ave Sw",
    "active": false,
    "unitCount": 1,
    "severity": 0,
    "lat": 47.544772,
    "long": -122.384454,
    "neighborhood": "Fauntleroy/Seaview",
    "neighborhoodGroup": "Southwest",
    "units": "L13"
  },
  {
    "id_str": "F210019015",
    "created_at": "2/26/2021 11:32:39 AM",
    "timestamp": 1614367959000,
    "description": "Aid Response",
    "address": "9212 18th Ave Sw",
    "active": false,
    "unitCount": 1,
    "severity": 0,
    "lat": 47.520802,
    "long": -122.357809,
    "neighborhood": "Roxhill/Westwood",
    "neighborhoodGroup": "Delridge Neighborhoods",
    "units": "E37"
  },
  {
    "id_str": "F210019013",
    "created_at": "2/26/2021 11:30:47 AM",
    "timestamp": 1614367847000,
    "description": "Illegal Burn",
    "address": "N 85th St / Aurora Ave N",
    "active": false,
    "unitCount": 1,
    "severity": 0,
    "lat": 47.690563,
    "long": -122.344522,
    "neighborhood": "Licton Springs",
    "neighborhoodGroup": "Northwest",
    "units": "E21"
  },
  {
    "id_str": "F210019012",
    "created_at": "2/26/2021 11:26:36 AM",
    "timestamp": 1614367596000,
    "description": "Aid Response",
    "address": "1221 1st Ave",
    "active": false,
    "unitCount": 2,
    "severity": 0,
    "lat": 47.606268,
    "long": -122.337677,
    "neighborhood": "Downtown Commercial Core",
    "neighborhoodGroup": "Downtown",
    "units": "A10 L1"
  },
  {
    "id_str": "F210019010",
    "created_at": "2/26/2021 11:23:00 AM",
    "timestamp": 1614367380000,
    "description": "Auto Fire Alarm",
    "address": "111 Cedar St",
    "active": false,
    "unitCount": 2,
    "severity": 0,
    "lat": 47.615877,
    "long": -122.35052,
    "neighborhood": "Belltown",
    "neighborhoodGroup": "Downtown",
    "units": "E2 L4"
  },
  {
    "id_str": "F210019009",
    "created_at": "2/26/2021 11:10:35 AM",
    "timestamp": 1614366635000,
    "description": "Aid Response",
    "address": "904 7th Ave",
    "active": false,
    "unitCount": 1,
    "severity": 0,
    "lat": 47.6069,
    "long": -122.329051,
    "neighborhood": "First Hill",
    "neighborhoodGroup": "East",
    "units": "A5"
  },
  {
    "id_str": "F210019008",
    "created_at": "2/26/2021 11:08:32 AM",
    "timestamp": 1614366512000,
    "description": "Auto Fire Alarm",
    "address": "1501 Pike Pl",
    "active": false,
    "unitCount": 2,
    "severity": 0,
    "lat": 47.608629,
    "long": -122.340472,
    "neighborhood": "Downtown Commercial Core",
    "neighborhoodGroup": "Downtown",
    "units": "E10 L4"
  },
  {
    "id_str": "F210019007",
    "created_at": "2/26/2021 11:07:33 AM",
    "timestamp": 1614366453000,
    "description": "Aid Response",
    "address": "325 5th Ave N",
    "active": false,
    "unitCount": 1,
    "severity": 0,
    "lat": 47.621487,
    "long": -122.347597,
    "neighborhood": "Cascade/Eastlake",
    "neighborhoodGroup": "Lake Union",
    "units": "A2"
  },
  {
    "id_str": "F210019006",
    "created_at": "2/26/2021 11:03:18 AM",
    "timestamp": 1614366198000,
    "description": "Auto Fire Alarm",
    "address": "4218 Roosevelt Way Ne",
    "active": false,
    "unitCount": 2,
    "severity": 0,
    "lat": 47.658777,
    "long": -122.31777,
    "neighborhood": "Wallingford",
    "neighborhoodGroup": "Lake Union",
    "units": "E17 L9"
  },
  {
    "id_str": "F210019005",
    "created_at": "2/26/2021 11:03:04 AM",
    "timestamp": 1614366184000,
    "description": "Aid Response",
    "address": "11273 59th Ave S",
    "active": false,
    "unitCount": 1,
    "severity": 0,
    "lat": 47.499814,
    "long": -122.259557,
    "units": "E33"
  },
  {
    "id_str": "F210019004",
    "created_at": "2/26/2021 11:01:57 AM",
    "timestamp": 1614366117000,
    "description": "Aid Response",
    "address": "4801 Rainier Ave S",
    "active": false,
    "unitCount": 1,
    "severity": 0,
    "lat": 47.559447,
    "long": -122.285952,
    "neighborhood": "Columbia City",
    "neighborhoodGroup": "Southeast",
    "units": "E28"
  },
  {
    "id_str": "F210019002",
    "created_at": "2/26/2021 10:50:01 AM",
    "timestamp": 1614365401000,
    "description": "Medic Response",
    "address": "5039 Sand Point Pl Ne",
    "active": false,
    "unitCount": 3,
    "severity": 0,
    "lat": 47.665206,
    "long": -122.281616,
    "neighborhood": "Laurelhurst/Sand Point",
    "neighborhoodGroup": "Northeast",
    "units": "E38 E40 M18"
  },
  {
    "id_str": "F210018998",
    "created_at": "2/26/2021 10:35:52 AM",
    "timestamp": 1614364552000,
    "description": "Aid Response",
    "address": "501 Rainier Ave S",
    "active": false,
    "unitCount": 1,
    "severity": 0,
    "lat": 47.598322,
    "long": -122.3134,
    "neighborhood": "Judkins Park",
    "neighborhoodGroup": "Central",
    "units": "E6"
  },
  {
    "id_str": "F210018997",
    "created_at": "2/26/2021 10:35:30 AM",
    "timestamp": 1614364530000,
    "description": "Medic Response",
    "address": "400 E Pine St",
    "active": false,
    "unitCount": 3,
    "severity": 0,
    "lat": 47.615218,
    "long": -122.326804,
    "neighborhood": "Capitol Hill",
    "neighborhoodGroup": "East",
    "units": "A25 M1 M18"
  },
  {
    "id_str": "F210018996",
    "created_at": "2/26/2021 10:30:59 AM",
    "timestamp": 1614364259000,
    "description": "Aid Response",
    "address": "1950 6th Ave",
    "active": false,
    "unitCount": 4,
    "severity": 0,
    "lat": 47.614071,
    "long": -122.337773,
    "neighborhood": "Cascade/Eastlake",
    "neighborhoodGroup": "Lake Union",
    "units": "A4 E2 M1 M18"
  },
  {
    "id_str": "F210018994",
    "created_at": "2/26/2021 10:20:48 AM",
    "timestamp": 1614363648000,
    "description": "Medic Response",
    "address": "3816 23rd Ave Sw",
    "active": false,
    "unitCount": 2,
    "severity": 0,
    "lat": 47.569792,
    "long": -122.3622,
    "neighborhood": "North Delridge",
    "neighborhoodGroup": "Delridge Neighborhoods",
    "units": "E32 M32"
  },
  {
    "id_str": "F210018992",
    "created_at": "2/26/2021 10:13:55 AM",
    "timestamp": 1614363235000,
    "description": "Hang-Up, Aid",
    "address": "1319 S Lane St",
    "active": false,
    "unitCount": 1,
    "severity": 0,
    "lat": 47.596655,
    "long": -122.314887,
    "neighborhood": "Judkins Park",
    "neighborhoodGroup": "Central",
    "units": "A10"
  },
  {
    "id_str": "F210018991",
    "created_at": "2/26/2021 10:13:17 AM",
    "timestamp": 1614363197000,
    "description": "Medic Response",
    "address": "753 N 68th St",
    "active": false,
    "unitCount": 2,
    "severity": 0,
    "lat": 47.678712,
    "long": -122.349239,
    "neighborhood": "Greenwood/Phinney Ridge",
    "neighborhoodGroup": "Northwest",
    "units": "E21 M17"
  },
  {
    "id_str": "F210018989",
    "created_at": "2/26/2021 10:06:17 AM",
    "timestamp": 1614362777000,
    "description": "Auto Fire Alarm",
    "address": "2614 4th Ave",
    "active": false,
    "unitCount": 2,
    "severity": 0,
    "lat": 47.617316,
    "long": -122.347229,
    "neighborhood": "Cascade/Eastlake",
    "neighborhoodGroup": "Lake Union",
    "units": "E2 L4"
  },
  {
    "id_str": "F210018987",
    "created_at": "2/26/2021 9:56:54 AM",
    "timestamp": 1614362214000,
    "description": "Aid Response",
    "address": "5033 37th Ave S",
    "active": false,
    "unitCount": 1,
    "severity": 0,
    "lat": 47.556785,
    "long": -122.286143,
    "neighborhood": "Columbia City",
    "neighborhoodGroup": "Southeast",
    "units": "E28"
  },
  {
    "id_str": "F210018986",
    "created_at": "2/26/2021 9:54:35 AM",
    "timestamp": 1614362075000,
    "description": "Medic Response",
    "address": "14th Ave S / S Dakota St",
    "active": false,
    "unitCount": 2,
    "severity": 0,
    "lat": 47.567237,
    "long": -122.314687,
    "neighborhood": "North Beacon Hill/Jefferson Park",
    "neighborhoodGroup": "Greater Duwamish",
    "units": "E13 M1"
  },
  {
    "id_str": "F210018984",
    "created_at": "2/26/2021 9:53:02 AM",
    "timestamp": 1614361982000,
    "description": "Medic Response",
    "address": "5425 DELRIDGE WAY SW",
    "active": false,
    "unitCount": 2,
    "severity": 0,
    "lat": 47.553494,
    "long": -122.362966,
    "neighborhood": "High Point",
    "neighborhoodGroup": "Delridge Neighborhoods",
    "units": "E11 M32"
  },
  {
    "id_str": "F210018983",
    "created_at": "2/26/2021 9:49:51 AM",
    "timestamp": 1614361791000,
    "description": "Aid Response",
    "address": "6339 34th Ave Sw",
    "active": false,
    "unitCount": 1,
    "severity": 0,
    "lat": 47.546215,
    "long": -122.375056,
    "neighborhood": "High Point",
    "neighborhoodGroup": "Delridge Neighborhoods",
    "units": "E37"
  },
  {
    "id_str": "F210018982",
    "created_at": "2/26/2021 9:42:30 AM",
    "timestamp": 1614361350000,
    "description": "Aid Response",
    "address": "710 Cherry St",
    "active": false,
    "unitCount": 1,
    "severity": 0,
    "lat": 47.605387,
    "long": -122.327511,
    "neighborhood": "First Hill",
    "neighborhoodGroup": "East",
    "units": "A5"
  },
  {
    "id_str": "F210018976",
    "created_at": "2/26/2021 9:20:38 AM",
    "timestamp": 1614360038000,
    "description": "Auto Fire Alarm",
    "address": "2010 S Main St",
    "active": false,
    "unitCount": 2,
    "severity": 0,
    "lat": 47.599997,
    "long": -122.306149,
    "neighborhood": "Judkins Park",
    "neighborhoodGroup": "Central",
    "units": "E6 L1"
  },
  {
    "id_str": "F210018975",
    "created_at": "2/26/2021 9:19:52 AM",
    "timestamp": 1614359992000,
    "description": "Low Acuity Response",
    "address": "1736 Summit Ave",
    "active": false,
    "unitCount": 1,
    "severity": 0,
    "lat": 47.616841,
    "long": -122.32555,
    "neighborhood": "Capitol Hill",
    "neighborhoodGroup": "East",
    "units": "E25"
  },
  {
    "id_str": "F210018970",
    "created_at": "2/26/2021 9:06:31 AM",
    "timestamp": 1614359191000,
    "description": "Auto Fire Alarm",
    "address": "1821 15th Ave",
    "active": false,
    "unitCount": 2,
    "severity": 0,
    "lat": 47.617808,
    "long": -122.312753,
    "neighborhood": "Capitol Hill",
    "neighborhoodGroup": "East",
    "units": "E25 L10"
  },
  {
    "id_str": "F210018969",
    "created_at": "2/26/2021 9:05:38 AM",
    "timestamp": 1614359138000,
    "description": "Low Acuity Response",
    "address": "1215 N 45th St",
    "active": false,
    "unitCount": 1,
    "severity": 0,
    "lat": 47.661385,
    "long": -122.343048,
    "neighborhood": "Wallingford",
    "neighborhoodGroup": "Lake Union",
    "units": "E17"
  },
  {
    "id_str": "F210018967",
    "created_at": "2/26/2021 8:57:14 AM",
    "timestamp": 1614358634000,
    "description": "Aid Response",
    "address": "1718 16th Ave",
    "active": false,
    "unitCount": 1,
    "severity": 0,
    "lat": 47.616649,
    "long": -122.311454,
    "neighborhood": "Central Area/Squire Park",
    "neighborhoodGroup": "Central",
    "units": "A25"
  },
  {
    "id_str": "F210018966",
    "created_at": "2/26/2021 8:53:42 AM",
    "timestamp": 1614358422000,
    "description": "Aid Response",
    "address": "5311 Phinney Ave N",
    "active": false,
    "unitCount": 2,
    "severity": 0,
    "lat": 47.667143,
    "long": -122.35442,
    "neighborhood": "Greenwood/Phinney Ridge",
    "neighborhoodGroup": "Northwest",
    "units": "E2 E21"
  },
  {
    "id_str": "F210018965",
    "created_at": "2/26/2021 8:47:34 AM",
    "timestamp": 1614358054000,
    "description": "1RED 1 Unit",
    "address": "1562 E OLIVE WAY",
    "active": false,
    "unitCount": 1,
    "severity": 0,
    "lat": 47.618583,
    "long": -122.326727,
    "neighborhood": "Capitol Hill",
    "neighborhoodGroup": "East",
    "units": "E25"
  },
  {
    "id_str": "F210018964",
    "created_at": "2/26/2021 8:44:39 AM",
    "timestamp": 1614357879000,
    "description": "Aid Response",
    "address": "516 1st Ave W",
    "active": false,
    "unitCount": 1,
    "severity": 0,
    "lat": 47.623472,
    "long": -122.358023,
    "neighborhood": "Queen Anne",
    "neighborhoodGroup": "Magnolia/Queen Anne",
    "units": "A2"
  },
  {
    "id_str": "F210018961",
    "created_at": "2/26/2021 8:34:23 AM",
    "timestamp": 1614357263000,
    "description": "Medic Response",
    "address": "2900 3rd Ave W",
    "active": false,
    "unitCount": 2,
    "severity": 0,
    "lat": 47.645803,
    "long": -122.360896,
    "neighborhood": "Queen Anne",
    "neighborhoodGroup": "Magnolia/Queen Anne",
    "units": "E9 M18"
  },
  {
    "id_str": "F210018959",
    "created_at": "2/26/2021 8:27:16 AM",
    "timestamp": 1614356836000,
    "description": "Aid Response Yellow",
    "address": "3621 33rd Ave S",
    "active": false,
    "unitCount": 2,
    "severity": 0,
    "lat": 47.571408,
    "long": -122.291001,
    "neighborhood": "Columbia City",
    "neighborhoodGroup": "Southeast",
    "units": "E13 E18"
  },
  {
    "id_str": "F210018958",
    "created_at": "2/26/2021 8:26:19 AM",
    "timestamp": 1614356779000,
    "description": "Low Acuity Response",
    "address": "107 N 100th St",
    "active": false,
    "unitCount": 1,
    "severity": 0,
    "lat": 47.701474,
    "long": -122.357981,
    "neighborhood": "Greenwood/Phinney Ridge",
    "neighborhoodGroup": "Northwest",
    "units": "E35"
  },
  {
    "id_str": "F210018957",
    "created_at": "2/26/2021 8:23:59 AM",
    "timestamp": 1614356639000,
    "description": "Aid Response",
    "address": "100 Crockett St",
    "active": false,
    "unitCount": 1,
    "severity": 0,
    "lat": 47.637416,
    "long": -122.355598,
    "neighborhood": "Queen Anne",
    "neighborhoodGroup": "Magnolia/Queen Anne",
    "units": "E8"
  },
  {
    "id_str": "F210018955",
    "created_at": "2/26/2021 8:21:18 AM",
    "timestamp": 1614356478000,
    "description": "Aid Response",
    "address": "718 N 143rd St",
    "active": false,
    "unitCount": 1,
    "severity": 0,
    "lat": 47.732314,
    "long": -122.350236,
    "neighborhood": "Broadview/Bitter Lake",
    "neighborhoodGroup": "Northwest",
    "units": "E24"
  },
  {
    "id_str": "F210018953",
    "created_at": "2/26/2021 8:14:39 AM",
    "timestamp": 1614356079000,
    "description": "Auto Fire Alarm",
    "address": "2225 Alaskan Way",
    "active": false,
    "unitCount": 2,
    "severity": 0,
    "lat": 47.610948,
    "long": -122.347926,
    "neighborhood": "Belltown",
    "neighborhoodGroup": "Downtown",
    "units": "E2 L4"
  },
  {
    "id_str": "F210018947",
    "created_at": "2/26/2021 8:03:04 AM",
    "timestamp": 1614355384000,
    "description": "Electrical Problem",
    "address": "4408 Sw Graham St",
    "active": false,
    "unitCount": 1,
    "severity": 0,
    "lat": 47.546704,
    "long": -122.38877,
    "neighborhood": "Fauntleroy/Seaview",
    "neighborhoodGroup": "Southwest",
    "units": "E32"
  },
  {
    "id_str": "F210018946",
    "created_at": "2/26/2021 8:02:03 AM",
    "timestamp": 1614355323000,
    "description": "Rubbish Fire",
    "address": "Leary Ave Nw / Nw Ione Pl",
    "active": false,
    "unitCount": 1,
    "severity": 0,
    "lat": 47.665592,
    "long": -122.380857,
    "neighborhood": "Ballard",
    "neighborhoodGroup": "Ballard",
    "units": "E18"
  },
  {
    "id_str": "F210018945",
    "created_at": "2/26/2021 7:53:58 AM",
    "timestamp": 1614354838000,
    "description": "Aid Response",
    "address": "3rd Ave / Pike St",
    "active": false,
    "unitCount": 1,
    "severity": 0,
    "lat": 47.60975,
    "long": -122.337793,
    "neighborhood": "Downtown Commercial Core",
    "neighborhoodGroup": "Downtown",
    "units": "A2"
  },
  {
    "id_str": "F210018940",
    "created_at": "2/26/2021 7:08:31 AM",
    "timestamp": 1614352111000,
    "description": "Aid Response",
    "address": "3rd Ave S / S Washington St",
    "active": false,
    "unitCount": 1,
    "severity": 0,
    "lat": 47.600877,
    "long": -122.330268,
    "neighborhood": "Pioneer Square/International District",
    "neighborhoodGroup": "Downtown",
    "units": "A10"
  },
  {
    "id_str": "F210018939",
    "created_at": "2/26/2021 7:04:49 AM",
    "timestamp": 1614351889000,
    "description": "Low Acuity Response",
    "address": "7531 12th Ave Sw",
    "active": false,
    "unitCount": 1,
    "severity": 0,
    "lat": 47.535269,
    "long": -122.350507,
    "neighborhood": "Riverview",
    "neighborhoodGroup": "Delridge Neighborhoods",
    "units": "E11"
  },
  {
    "id_str": "F210018938",
    "created_at": "2/26/2021 7:03:40 AM",
    "timestamp": 1614351820000,
    "description": "Aid Response",
    "address": "1105 E Fir St",
    "active": false,
    "unitCount": 1,
    "severity": 0,
    "lat": 47.602688,
    "long": -122.318034,
    "neighborhood": "First Hill",
    "neighborhoodGroup": "East",
    "units": "A25"
  },
  {
    "id_str": "F210018935",
    "created_at": "2/26/2021 6:45:02 AM",
    "timestamp": 1614350702000,
    "description": "Auto Fire Alarm",
    "address": "1430 N 130th St",
    "active": false,
    "unitCount": 2,
    "severity": 0,
    "lat": 47.72321,
    "long": -122.340509,
    "neighborhood": "Haller Lake",
    "neighborhoodGroup": "Northwest",
    "units": "E24 L5"
  },
  {
    "id_str": "F210018931",
    "created_at": "2/26/2021 6:25:00 AM",
    "timestamp": 1614349500000,
    "description": "Aid Response",
    "address": "4308 Sw 100th St",
    "active": false,
    "unitCount": 1,
    "severity": 0,
    "lat": 47.513782,
    "long": -122.387424,
    "neighborhood": "Arbor Heights",
    "neighborhoodGroup": "Southwest",
    "units": "L13"
  },
  {
    "id_str": "F210018930",
    "created_at": "2/26/2021 6:12:08 AM",
    "timestamp": 1614348728000,
    "description": "Aid Response",
    "address": "11 W Aloha St",
    "active": false,
    "unitCount": 1,
    "severity": 0,
    "lat": 47.627192,
    "long": -122.356823,
    "neighborhood": "Queen Anne",
    "neighborhoodGroup": "Magnolia/Queen Anne",
    "units": "E8"
  },
  {
    "id_str": "F210018928",
    "created_at": "2/26/2021 6:08:08 AM",
    "timestamp": 1614348488000,
    "description": "Aid Response",
    "address": "317 Marion St",
    "active": false,
    "unitCount": 1,
    "severity": 0,
    "lat": 47.604991,
    "long": -122.333174,
    "neighborhood": "Downtown Commercial Core",
    "neighborhoodGroup": "Downtown",
    "units": "A5"
  },
  {
    "id_str": "F210018926",
    "created_at": "2/26/2021 5:58:34 AM",
    "timestamp": 1614347914000,
    "description": "Illegal Burn",
    "address": "15th Ave Nw / Nw Market St",
    "active": false,
    "unitCount": 1,
    "severity": 0,
    "lat": 47.668667,
    "long": -122.376214,
    "neighborhood": "Ballard",
    "neighborhoodGroup": "Ballard",
    "units": "E18"
  },
  {
    "id_str": "F210018925",
    "created_at": "2/26/2021 5:48:18 AM",
    "timestamp": 1614347298000,
    "description": "Aid Response",
    "address": "11309 8th Ave Ne",
    "active": false,
    "unitCount": 1,
    "severity": 0,
    "lat": 47.710828,
    "long": -122.320613,
    "neighborhood": "Northgate/Maple Leaf",
    "neighborhoodGroup": "North",
    "units": "E39"
  },
  {
    "id_str": "F210018923",
    "created_at": "2/26/2021 5:43:55 AM",
    "timestamp": 1614347035000,
    "description": "Medic Response",
    "address": "1431 Minor Ave",
    "active": false,
    "unitCount": 4,
    "severity": 0,
    "lat": 47.613247,
    "long": -122.327187,
    "neighborhood": "Capitol Hill",
    "neighborhoodGroup": "East",
    "units": "A25 E25 M1 M44"
  },
  {
    "id_str": "F210018922",
    "created_at": "2/26/2021 5:42:53 AM",
    "timestamp": 1614346973000,
    "description": "Medic Response",
    "address": "7710 39th Ave S",
    "active": false,
    "unitCount": 2,
    "severity": 0,
    "lat": 47.53325,
    "long": -122.283311,
    "neighborhood": "South Beacon Hill/NewHolly",
    "neighborhoodGroup": "Greater Duwamish",
    "units": "E33 M28"
  },
  {
    "id_str": "F210018921",
    "created_at": "2/26/2021 5:42:02 AM",
    "timestamp": 1614346922000,
    "description": "Low Acuity Response",
    "address": "9215 5th Ave Ne",
    "active": false,
    "unitCount": 1,
    "severity": 0,
    "lat": 47.695932,
    "long": -122.323065,
    "neighborhood": "Northgate/Maple Leaf",
    "neighborhoodGroup": "North",
    "units": "E16"
  },
  {
    "id_str": "F210018920",
    "created_at": "2/26/2021 5:35:48 AM",
    "timestamp": 1614346548000,
    "description": "Aid Response",
    "address": "617 Queen Anne Ave N",
    "active": false,
    "unitCount": 1,
    "severity": 0,
    "lat": 47.625081,
    "long": -122.356706,
    "neighborhood": "Queen Anne",
    "neighborhoodGroup": "Magnolia/Queen Anne",
    "units": "E8"
  },
  {
    "id_str": "F210018919",
    "created_at": "2/26/2021 5:34:55 AM",
    "timestamp": 1614346495000,
    "description": "1RED 1 Unit",
    "address": "11100 Roosevelt Way Ne",
    "active": false,
    "unitCount": 1,
    "severity": 0,
    "lat": 47.709352,
    "long": -122.317864,
    "neighborhood": "Northgate/Maple Leaf",
    "neighborhoodGroup": "North",
    "units": "E39"
  },
  {
    "id_str": "F210018917",
    "created_at": "2/26/2021 5:25:00 AM",
    "timestamp": 1614345900000,
    "description": "Medic Response",
    "address": "4519 Sw Concord St",
    "active": false,
    "unitCount": 3,
    "severity": 0,
    "lat": 47.524167,
    "long": -122.390415,
    "neighborhood": "Fauntleroy/Seaview",
    "neighborhoodGroup": "Southwest",
    "units": "E37 M32 M44"
  },
  {
    "id_str": "F210018913",
    "created_at": "2/26/2021 4:55:17 AM",
    "timestamp": 1614344117000,
    "description": "Medic Response",
    "address": "204 3rd Ave S",
    "active": false,
    "unitCount": 2,
    "severity": 0,
    "lat": 47.600843,
    "long": -122.330271,
    "neighborhood": "Pioneer Square/International District",
    "neighborhoodGroup": "Downtown",
    "units": "A10 M10"
  },
  {
    "id_str": "F210018911",
    "created_at": "2/26/2021 4:43:35 AM",
    "timestamp": 1614343415000,
    "description": "Aid Response",
    "address": "835 YESLER WAY",
    "active": false,
    "unitCount": 1,
    "severity": 0,
    "lat": 47.598348,
    "long": -122.323044,
    "neighborhood": "Pioneer Square/International District",
    "neighborhoodGroup": "Downtown",
    "units": "A5"
  },
  {
    "id_str": "F210018910",
    "created_at": "2/26/2021 4:34:28 AM",
    "timestamp": 1614342868000,
    "description": "Aid Response",
    "address": "303 10th Ave",
    "active": false,
    "unitCount": 1,
    "severity": 0,
    "lat": 47.604377,
    "long": -122.319411,
    "neighborhood": "First Hill",
    "neighborhoodGroup": "East",
    "units": "A25"
  },
  {
    "id_str": "F210018909",
    "created_at": "2/26/2021 4:29:01 AM",
    "timestamp": 1614342541000,
    "description": "Aid Response",
    "address": "Rainier Ave S / S Rose St",
    "active": false,
    "unitCount": 1,
    "severity": 0,
    "lat": 47.52913,
    "long": -122.269987,
    "neighborhood": "Rainier Beach",
    "neighborhoodGroup": "Southeast",
    "units": "E33"
  },
  {
    "id_str": "F210018908",
    "created_at": "2/26/2021 4:21:38 AM",
    "timestamp": 1614342098000,
    "description": "Auto Fire Alarm",
    "address": "1103 16th Ave",
    "active": false,
    "unitCount": 2,
    "severity": 0,
    "lat": 47.611553,
    "long": -122.311479,
    "neighborhood": "Central Area/Squire Park",
    "neighborhoodGroup": "Central",
    "units": "E25 L10"
  },
  {
    "id_str": "F210018907",
    "created_at": "2/26/2021 3:52:27 AM",
    "timestamp": 1614340347000,
    "description": "Aid Response",
    "address": "1824 12th Ave",
    "active": false,
    "unitCount": 1,
    "severity": 0,
    "lat": 47.617875,
    "long": -122.316895,
    "neighborhood": "Capitol Hill",
    "neighborhoodGroup": "East",
    "units": "A25"
  },
  {
    "id_str": "F210018906",
    "created_at": "2/26/2021 3:42:20 AM",
    "timestamp": 1614339740000,
    "description": "Aid Response",
    "address": "120 Broadway",
    "active": false,
    "unitCount": 1,
    "severity": 0,
    "lat": 47.602255,
    "long": -122.320739,
    "neighborhood": "First Hill",
    "neighborhoodGroup": "East",
    "units": "A5"
  },
  {
    "id_str": "F210018905",
    "created_at": "2/26/2021 3:38:43 AM",
    "timestamp": 1614339523000,
    "description": "Medic Response",
    "address": "201 Yesler Way",
    "active": false,
    "unitCount": 2,
    "severity": 0,
    "lat": 47.601719,
    "long": -122.331966,
    "neighborhood": "Downtown Commercial Core",
    "neighborhoodGroup": "Downtown",
    "units": "A10 M1"
  },
  {
    "id_str": "F210018904",
    "created_at": "2/26/2021 3:05:33 AM",
    "timestamp": 1614337533000,
    "description": "Medic Response",
    "address": "5026 40th Ave Sw",
    "active": false,
    "unitCount": 2,
    "severity": 0,
    "lat": 47.557238,
    "long": -122.382827,
    "neighborhood": "West Seattle Junction/Genesee Hill",
    "neighborhoodGroup": "Southwest",
    "units": "L11 M32"
  },
  {
    "id_str": "F210018903",
    "created_at": "2/26/2021 3:00:32 AM",
    "timestamp": 1614337232000,
    "description": "Aid Response",
    "address": "3266 Sw Avalon Way",
    "active": false,
    "unitCount": 1,
    "severity": 0,
    "lat": 47.56422,
    "long": -122.373106,
    "neighborhood": "North Delridge",
    "neighborhoodGroup": "Delridge Neighborhoods",
    "units": "E32"
  },
  {
    "id_str": "F210018901",
    "created_at": "2/26/2021 2:35:15 AM",
    "timestamp": 1614335715000,
    "description": "Aid Response",
    "address": "305 Harrison St",
    "active": false,
    "unitCount": 1,
    "severity": 0,
    "lat": 47.622089,
    "long": -122.351371,
    "neighborhood": "Queen Anne",
    "neighborhoodGroup": "Magnolia/Queen Anne",
    "units": "A2"
  },
  {
    "id_str": "F210018900",
    "created_at": "2/26/2021 2:22:42 AM",
    "timestamp": 1614334962000,
    "description": "Aid Response",
    "address": "14046 15th Ave Ne",
    "active": false,
    "unitCount": 1,
    "severity": 0,
    "lat": 47.730631,
    "long": -122.312704,
    "neighborhood": "Olympic Hills/Victory Heights",
    "neighborhoodGroup": "North",
    "units": "E39"
  },
  {
    "id_str": "F210018897",
    "created_at": "2/26/2021 2:03:28 AM",
    "timestamp": 1614333808000,
    "description": "Aid Response",
    "address": "N 125th St / Stone Ave N",
    "active": false,
    "unitCount": 1,
    "severity": 0,
    "lat": 47.719572,
    "long": -122.342248,
    "neighborhood": "Haller Lake",
    "neighborhoodGroup": "Northwest",
    "units": "L5"
  },
  {
    "id_str": "F210018896",
    "created_at": "2/26/2021 2:03:26 AM",
    "timestamp": 1614333806000,
    "description": "Aid Response",
    "address": "5TH AVE S / S KING ST",
    "active": false,
    "unitCount": 1,
    "severity": 0,
    "lat": 47.599195,
    "long": -122.327667,
    "neighborhood": "Pioneer Square/International District",
    "neighborhoodGroup": "Downtown",
    "units": "A5"
  },
  {
    "id_str": "F210018893",
    "created_at": "2/26/2021 1:49:53 AM",
    "timestamp": 1614332993000,
    "description": "Aid Response",
    "address": "12205 9th Ave Ne",
    "active": false,
    "unitCount": 1,
    "severity": 0,
    "lat": 47.71688,
    "long": -122.319318,
    "neighborhood": "Haller Lake",
    "neighborhoodGroup": "Northwest",
    "units": "E39"
  },
  {
    "id_str": "F210018892",
    "created_at": "2/26/2021 1:49:46 AM",
    "timestamp": 1614332986000,
    "description": "Auto Fire Alarm",
    "address": "2323 Elliott Ave",
    "active": false,
    "unitCount": 2,
    "severity": 0,
    "lat": 47.612219,
    "long": -122.348524,
    "neighborhood": "Belltown",
    "neighborhoodGroup": "Downtown",
    "units": "E2 L4"
  },
  {
    "id_str": "F210018891",
    "created_at": "2/26/2021 1:45:23 AM",
    "timestamp": 1614332723000,
    "description": "Aid Response",
    "address": "1167 Republican St",
    "active": false,
    "unitCount": 1,
    "severity": 0,
    "lat": 47.62312,
    "long": -122.333818,
    "neighborhood": "Cascade/Eastlake",
    "neighborhoodGroup": "Lake Union",
    "units": "A2"
  },
  {
    "id_str": "F210018890",
    "created_at": "2/26/2021 1:41:05 AM",
    "timestamp": 1614332465000,
    "description": "Low Acuity Response",
    "address": "7008 52nd Ave Ne",
    "active": false,
    "unitCount": 1,
    "severity": 0,
    "lat": 47.679437,
    "long": -122.271631,
    "neighborhood": "Laurelhurst/Sand Point",
    "neighborhoodGroup": "Northeast",
    "units": "E38"
  },
  {
    "id_str": "F210018888",
    "created_at": "2/26/2021 1:28:06 AM",
    "timestamp": 1614331686000,
    "description": "Aid Response",
    "address": "14002 Linden Ave N",
    "active": false,
    "unitCount": 1,
    "severity": 0,
    "lat": 47.730569,
    "long": -122.347758,
    "neighborhood": "Broadview/Bitter Lake",
    "neighborhoodGroup": "Northwest",
    "units": "E24"
  },
  {
    "id_str": "F210018885",
    "created_at": "2/26/2021 1:22:11 AM",
    "timestamp": 1614331331000,
    "description": "Aid Response",
    "address": "9999 Holman Rd Nw",
    "active": false,
    "unitCount": 1,
    "severity": 0,
    "lat": 47.701698,
    "long": -122.362125,
    "neighborhood": "North Beach/Blue Ridge",
    "neighborhoodGroup": "Ballard",
    "units": "E35"
  },
  {
    "id_str": "F210018882",
    "created_at": "2/26/2021 12:34:29 AM",
    "timestamp": 1614328469000,
    "description": "Medic Response",
    "address": "2200 E Madison St",
    "active": false,
    "unitCount": 2,
    "severity": 0,
    "lat": 47.61842,
    "long": -122.30365,
    "neighborhood": "Central Area/Squire Park",
    "neighborhoodGroup": "Central",
    "units": "A25 M10"
  },
  {
    "id_str": "F210018880",
    "created_at": "2/26/2021 12:29:00 AM",
    "timestamp": 1614328140000,
    "description": "Aid Response",
    "address": "811 Maynard Ave S",
    "active": false,
    "unitCount": 1,
    "severity": 0,
    "lat": 47.595741,
    "long": -122.325068,
    "neighborhood": "Duwamish/SODO",
    "neighborhoodGroup": "Greater Duwamish",
    "units": "A10"
  },
  {
    "id_str": "F210018878",
    "created_at": "2/26/2021 12:01:05 AM",
    "timestamp": 1614326465000,
    "description": "Aid Response",
    "address": "811 Maynard Ave S",
    "active": false,
    "unitCount": 1,
    "severity": 0,
    "lat": 47.595741,
    "long": -122.325068,
    "neighborhood": "Duwamish/SODO",
    "neighborhoodGroup": "Greater Duwamish",
    "units": "A10"
  },
  {
    "id_str": "F210018877",
    "created_at": "2/25/2021 11:41:26 PM",
    "timestamp": 1614325286000,
    "description": "Unk Odor",
    "address": "4221 5th Ave Ne",
    "active": false,
    "unitCount": 1,
    "severity": 0,
    "lat": 47.657935,
    "long": -122.323005,
    "neighborhood": "Wallingford",
    "neighborhoodGroup": "Lake Union",
    "units": "E31"
  },
  {
    "id_str": "F210018876",
    "created_at": "2/25/2021 11:36:03 PM",
    "timestamp": 1614324963000,
    "description": "Medic Response",
    "address": "1501 E Thomas St",
    "active": false,
    "unitCount": 3,
    "severity": 0,
    "lat": 47.620503,
    "long": -122.312698,
    "neighborhood": "Capitol Hill",
    "neighborhoodGroup": "East",
    "units": "A25 E25 M1"
  },
  {
    "id_str": "F210018874",
    "created_at": "2/25/2021 11:23:23 PM",
    "timestamp": 1614324203000,
    "description": "Aid Response",
    "address": "2009 Rainier Ave S",
    "active": false,
    "unitCount": 1,
    "severity": 0,
    "lat": 47.58541,
    "long": -122.303541,
    "neighborhood": "North Beacon Hill/Jefferson Park",
    "neighborhoodGroup": "Greater Duwamish",
    "units": "E6"
  },
  {
    "id_str": "F210018873",
    "created_at": "2/25/2021 11:20:24 PM",
    "timestamp": 1614324024000,
    "description": "Aid Response",
    "address": "3615 S Adams St",
    "active": false,
    "unitCount": 1,
    "severity": 0,
    "lat": 47.5654,
    "long": -122.287186,
    "neighborhood": "Columbia City",
    "neighborhoodGroup": "Southeast",
    "units": "E30"
  },
  {
    "id_str": "F210018872",
    "created_at": "2/25/2021 11:15:10 PM",
    "timestamp": 1614323710000,
    "description": "Aid Response",
    "address": "601 PINE ST",
    "active": false,
    "unitCount": 1,
    "severity": 0,
    "lat": 47.613533,
    "long": -122.332031,
    "neighborhood": "First Hill",
    "neighborhoodGroup": "East",
    "units": "A25"
  },
  {
    "id_str": "F210018871",
    "created_at": "2/25/2021 11:09:16 PM",
    "timestamp": 1614323356000,
    "description": "Aid Response",
    "address": "5033 37th Ave S",
    "active": false,
    "unitCount": 1,
    "severity": 0,
    "lat": 47.556785,
    "long": -122.286143,
    "neighborhood": "Columbia City",
    "neighborhoodGroup": "Southeast",
    "units": "E28"
  },
  {
    "id_str": "F210018870",
    "created_at": "2/25/2021 11:04:45 PM",
    "timestamp": 1614323085000,
    "description": "Medic Response",
    "address": "223 Yesler Way",
    "active": false,
    "unitCount": 2,
    "severity": 0,
    "lat": 47.601718,
    "long": -122.331581,
    "neighborhood": "Downtown Commercial Core",
    "neighborhoodGroup": "Downtown",
    "units": "A5 M10"
  },
  {
    "id_str": "F210018869",
    "created_at": "2/25/2021 11:00:14 PM",
    "timestamp": 1614322814000,
    "description": "Auto Fire Alarm",
    "address": "9201 Rainier Ave S",
    "active": false,
    "unitCount": 2,
    "severity": 0,
    "lat": 47.52101,
    "long": -122.269997,
    "neighborhood": "Rainier Beach",
    "neighborhoodGroup": "Southeast",
    "units": "E33 L12"
  },
  {
    "id_str": "F210018868",
    "created_at": "2/25/2021 10:52:39 PM",
    "timestamp": 1614322359000,
    "description": "Aid Response",
    "address": "6941 24th Ave Sw",
    "active": false,
    "unitCount": 1,
    "severity": 0,
    "lat": 47.540269,
    "long": -122.363016,
    "neighborhood": "High Point",
    "neighborhoodGroup": "Delridge Neighborhoods",
    "units": "E11"
  },
  {
    "id_str": "F210018867",
    "created_at": "2/25/2021 10:38:44 PM",
    "timestamp": 1614321524000,
    "description": "Rescue Lock In/Out",
    "address": "7944 Delridge Way Sw",
    "active": false,
    "unitCount": 1,
    "severity": 0,
    "lat": 47.531475,
    "long": -122.360444,
    "neighborhood": "Roxhill/Westwood",
    "neighborhoodGroup": "Delridge Neighborhoods",
    "units": "L13"
  },
  {
    "id_str": "F210018866",
    "created_at": "2/25/2021 10:33:30 PM",
    "timestamp": 1614321210000,
    "description": "Medic Response",
    "address": "8750 Mary Ave Nw",
    "active": false,
    "unitCount": 2,
    "severity": 0,
    "lat": 47.692732,
    "long": -122.375453,
    "neighborhood": "North Beach/Blue Ridge",
    "neighborhoodGroup": "Ballard",
    "units": "E35 M31"
  },
  {
    "id_str": "F210018865",
    "created_at": "2/25/2021 10:28:13 PM",
    "timestamp": 1614320893000,
    "description": "Aid Response",
    "address": "2418 Nw 56th St",
    "active": false,
    "unitCount": 1,
    "severity": 0,
    "lat": 47.669458,
    "long": -122.387807,
    "neighborhood": "Sunset Hill/Loyal Heights",
    "neighborhoodGroup": "Ballard",
    "units": "E18"
  },
  {
    "id_str": "F210018863",
    "created_at": "2/25/2021 10:18:45 PM",
    "timestamp": 1614320325000,
    "description": "Aid Response",
    "address": "5918 S HAZEL ST",
    "active": false,
    "unitCount": 1,
    "severity": 0,
    "lat": 47.504327,
    "long": -122.259254,
    "neighborhood": "Rainier Beach",
    "neighborhoodGroup": "Southeast",
    "units": "E33"
  },
  {
    "id_str": "F210018862",
    "created_at": "2/25/2021 10:08:02 PM",
    "timestamp": 1614319682000,
    "description": "Aid Response",
    "address": "811 Maynard Ave S",
    "active": false,
    "unitCount": 1,
    "severity": 0,
    "lat": 47.595741,
    "long": -122.325068,
    "neighborhood": "Duwamish/SODO",
    "neighborhoodGroup": "Greater Duwamish",
    "units": "A10"
  },
  {
    "id_str": "F210018861",
    "created_at": "2/25/2021 10:04:16 PM",
    "timestamp": 1614319456000,
    "description": "Aid Response",
    "address": "11616 Aurora Ave N",
    "active": false,
    "unitCount": 1,
    "severity": 0,
    "lat": 47.713747,
    "long": -122.344837,
    "neighborhood": "Broadview/Bitter Lake",
    "neighborhoodGroup": "Northwest",
    "units": "E24"
  },
  {
    "id_str": "F210018860",
    "created_at": "2/25/2021 10:03:11 PM",
    "timestamp": 1614319391000,
    "description": "Aid Response",
    "address": "3204 Sw Morgan St",
    "active": false,
    "unitCount": 1,
    "severity": 0,
    "lat": 47.544669,
    "long": -122.373777,
    "neighborhood": "High Point",
    "neighborhoodGroup": "Delridge Neighborhoods",
    "units": "E37"
  },
  {
    "id_str": "F210018857",
    "created_at": "2/25/2021 9:51:26 PM",
    "timestamp": 1614318686000,
    "description": "AFA4 - Auto Alarm 2 + 1 + 1",
    "address": "523 Pine St",
    "active": false,
    "unitCount": 4,
    "severity": 0,
    "lat": 47.611781,
    "long": -122.336223,
    "neighborhood": "First Hill",
    "neighborhoodGroup": "East",
    "units": "B2 E2 E5 L4"
  },
  {
    "id_str": "F210018858",
    "created_at": "2/25/2021 9:50:36 PM",
    "timestamp": 1614318636000,
    "description": "Aid Response",
    "address": "9240 2nd Ave Sw",
    "active": false,
    "unitCount": 1,
    "severity": 0,
    "lat": 47.520451,
    "long": -122.336003,
    "units": "E26"
  },
  {
    "id_str": "F210018856",
    "created_at": "2/25/2021 9:33:10 PM",
    "timestamp": 1614317590000,
    "description": "Hang-Up, Aid",
    "address": "424 Minor Ave N",
    "active": false,
    "unitCount": 1,
    "severity": 0,
    "lat": 47.622242,
    "long": -122.332995,
    "neighborhood": "Cascade/Eastlake",
    "neighborhoodGroup": "Lake Union",
    "units": "A2"
  },
  {
    "id_str": "F210018855",
    "created_at": "2/25/2021 9:32:14 PM",
    "timestamp": 1614317534000,
    "description": "Aid Response",
    "address": "509 7th Ave S",
    "active": false,
    "unitCount": 1,
    "severity": 0,
    "lat": 47.598273,
    "long": -122.323754,
    "neighborhood": "Pioneer Square/International District",
    "neighborhoodGroup": "Downtown",
    "units": "A5"
  },
  {
    "id_str": "F210018852",
    "created_at": "2/25/2021 9:27:44 PM",
    "timestamp": 1614317264000,
    "description": "Aid Response",
    "address": "4519 Sw Concord St",
    "active": false,
    "unitCount": 1,
    "severity": 0,
    "lat": 47.524167,
    "long": -122.390415,
    "neighborhood": "Fauntleroy/Seaview",
    "neighborhoodGroup": "Southwest",
    "units": "E11"
  },
  {
    "id_str": "F210018851",
    "created_at": "2/25/2021 9:16:24 PM",
    "timestamp": 1614316584000,
    "description": "Aid Response",
    "address": "429 14th Ave E",
    "active": false,
    "unitCount": 1,
    "severity": 0,
    "lat": 47.622284,
    "long": -122.314667,
    "neighborhood": "Capitol Hill",
    "neighborhoodGroup": "East",
    "units": "A25"
  },
  {
    "id_str": "F210018850",
    "created_at": "2/25/2021 9:14:07 PM",
    "timestamp": 1614316447000,
    "description": "Aid Response",
    "address": "1521 Nw Market St",
    "active": false,
    "unitCount": 1,
    "severity": 0,
    "lat": 47.668671,
    "long": -122.377312,
    "neighborhood": "Ballard",
    "neighborhoodGroup": "Ballard",
    "units": "M18"
  },
  {
    "id_str": "F210018849",
    "created_at": "2/25/2021 9:13:10 PM",
    "timestamp": 1614316390000,
    "description": "Aid Response",
    "address": "11501 15th Ave Ne",
    "active": false,
    "unitCount": 1,
    "severity": 0,
    "lat": 47.712167,
    "long": -122.312433,
    "neighborhood": "Olympic Hills/Victory Heights",
    "neighborhoodGroup": "North",
    "units": "E39"
  },
  {
    "id_str": "F210018848",
    "created_at": "2/25/2021 9:12:08 PM",
    "timestamp": 1614316328000,
    "description": "Medic Response, 6 per Rule",
    "address": "10264 39th Ave Sw",
    "active": false,
    "unitCount": 3,
    "severity": 0,
    "lat": 47.511377,
    "long": -122.381636,
    "neighborhood": "Arbor Heights",
    "neighborhoodGroup": "Southwest",
    "units": "E37 L13 M26"
  },
  {
    "id_str": "F210018847",
    "created_at": "2/25/2021 9:07:00 PM",
    "timestamp": 1614316020000,
    "description": "Medic Response, 7 per Rule",
    "address": "3630 Renton Ave S",
    "active": false,
    "unitCount": 3,
    "severity": 0,
    "lat": 47.571282,
    "long": -122.296553,
    "neighborhood": "Columbia City",
    "neighborhoodGroup": "Southeast",
    "units": "E13 E30 M28"
  },
  {
    "id_str": "F210018846",
    "created_at": "2/25/2021 9:05:31 PM",
    "timestamp": 1614315931000,
    "description": "Aid Response",
    "address": "Boren Ave S / S Jackson St",
    "active": false,
    "unitCount": 1,
    "severity": 0,
    "lat": 47.59921,
    "long": -122.314137,
    "neighborhood": "Judkins Park",
    "neighborhoodGroup": "Central",
    "units": "E6"
  },
  {
    "id_str": "F210018845",
    "created_at": "2/25/2021 9:04:21 PM",
    "timestamp": 1614315861000,
    "description": "Medic Response",
    "address": "5922 44th Ave Sw",
    "active": false,
    "unitCount": 2,
    "severity": 0,
    "lat": 47.549915,
    "long": -122.388583,
    "neighborhood": "Fauntleroy/Seaview",
    "neighborhoodGroup": "Southwest",
    "units": "E32 M32"
  },
  {
    "id_str": "F210018844",
    "created_at": "2/25/2021 8:51:27 PM",
    "timestamp": 1614315087000,
    "description": "Aid Response",
    "address": "100 Crockett St",
    "active": false,
    "unitCount": 1,
    "severity": 0,
    "lat": 47.637416,
    "long": -122.355598,
    "neighborhood": "Queen Anne",
    "neighborhoodGroup": "Magnolia/Queen Anne",
    "units": "E8"
  },
  {
    "id_str": "F210018842",
    "created_at": "2/25/2021 8:39:23 PM",
    "timestamp": 1614314363000,
    "description": "Aid Response",
    "address": "4849 18th Ave Sw",
    "active": false,
    "unitCount": 1,
    "severity": 0,
    "lat": 47.556731,
    "long": -122.357043,
    "neighborhood": "Riverview",
    "neighborhoodGroup": "Delridge Neighborhoods",
    "units": "E11"
  },
  {
    "id_str": "F210018841",
    "created_at": "2/25/2021 8:26:05 PM",
    "timestamp": 1614313565000,
    "description": "Aid Response",
    "address": "509 3rd Ave",
    "active": false,
    "unitCount": 2,
    "severity": 0,
    "lat": 47.602114,
    "long": -122.330809,
    "neighborhood": "Downtown Commercial Core",
    "neighborhoodGroup": "Downtown",
    "units": "A10 E10"
  },
  {
    "id_str": "F210018840",
    "created_at": "2/25/2021 8:22:58 PM",
    "timestamp": 1614313378000,
    "description": "Aid Response",
    "address": "12724 Lake City Way Ne",
    "active": false,
    "unitCount": 2,
    "severity": 0,
    "lat": 47.721231,
    "long": -122.294078,
    "neighborhood": "Cedar Park/Meadowbrook",
    "neighborhoodGroup": "North",
    "units": "E39 M17"
  },
  {
    "id_str": "F210018839",
    "created_at": "2/25/2021 8:07:27 PM",
    "timestamp": 1614312447000,
    "description": "Aid Response",
    "address": "3434 Beacon Ave S",
    "active": false,
    "unitCount": 1,
    "severity": 0,
    "lat": 47.572891,
    "long": -122.308547,
    "neighborhood": "North Beacon Hill/Jefferson Park",
    "neighborhoodGroup": "Greater Duwamish",
    "units": "E13"
  },
  {
    "id_str": "F210018837",
    "created_at": "2/25/2021 7:48:04 PM",
    "timestamp": 1614311284000,
    "description": "Aid Response",
    "address": "801 Alaskan Way",
    "active": false,
    "unitCount": 1,
    "severity": 0,
    "lat": 47.602348,
    "long": -122.337148,
    "neighborhood": "Downtown Commercial Core",
    "neighborhoodGroup": "Downtown",
    "units": "E5"
  },
  {
    "id_str": "F210018835",
    "created_at": "2/25/2021 7:44:26 PM",
    "timestamp": 1614311066000,
    "description": "Aid Response",
    "address": "298 Yesler Way",
    "active": false,
    "unitCount": 3,
    "severity": 0,
    "lat": 47.601716,
    "long": -122.330265,
    "neighborhood": "Downtown Commercial Core",
    "neighborhoodGroup": "Downtown",
    "units": "A14 A5 R1"
  },
  {
    "id_str": "F210018832",
    "created_at": "2/25/2021 7:40:20 PM",
    "timestamp": 1614310820000,
    "description": "AFA4 - Auto Alarm 2 + 1 + 1",
    "address": "1408 12th Ave",
    "active": false,
    "unitCount": 4,
    "severity": 0,
    "lat": 47.612976,
    "long": -122.31674,
    "neighborhood": "Capitol Hill",
    "neighborhoodGroup": "East",
    "units": "B2 E10 E25 L10"
  },
  {
    "id_str": "F210018831",
    "created_at": "2/25/2021 7:36:48 PM",
    "timestamp": 1614310608000,
    "description": "Aid Response",
    "address": "1605 N 34th St",
    "active": false,
    "unitCount": 1,
    "severity": 0,
    "lat": 47.648058,
    "long": -122.338677,
    "neighborhood": "Fremont",
    "neighborhoodGroup": "Lake Union",
    "units": "E9"
  },
  {
    "id_str": "F210018830",
    "created_at": "2/25/2021 7:32:33 PM",
    "timestamp": 1614310353000,
    "description": "Aid Response",
    "address": "820 Lenora St",
    "active": false,
    "unitCount": 1,
    "severity": 0,
    "lat": 47.616626,
    "long": -122.337719,
    "neighborhood": "Cascade/Eastlake",
    "neighborhoodGroup": "Lake Union",
    "units": "A4"
  },
  {
    "id_str": "F210018828",
    "created_at": "2/25/2021 7:25:45 PM",
    "timestamp": 1614309945000,
    "description": "Electrical Problem",
    "address": "3201 21st Ave W",
    "active": false,
    "unitCount": 2,
    "severity": 0,
    "lat": 47.648456,
    "long": -122.383358,
    "neighborhood": "Interbay",
    "neighborhoodGroup": "Magnolia/Queen Anne",
    "units": "E20 MAR5"
  },
  {
    "id_str": "F210018827",
    "created_at": "2/25/2021 7:13:57 PM",
    "timestamp": 1614309237000,
    "description": "Aid Response",
    "address": "6853 19th Ave Ne",
    "active": false,
    "unitCount": 1,
    "severity": 0,
    "lat": 47.678108,
    "long": -122.30769,
    "neighborhood": "Ravenna/Bryant",
    "neighborhoodGroup": "Northeast",
    "units": "E16"
  },
  {
    "id_str": "F210018826",
    "created_at": "2/25/2021 7:11:53 PM",
    "timestamp": 1614309113000,
    "description": "Automatic Fire Alarm Resd",
    "address": "814 Mcgilvra Blvd E",
    "active": false,
    "unitCount": 1,
    "severity": 0,
    "lat": 47.626359,
    "long": -122.282503,
    "neighborhood": "Madison Park",
    "neighborhoodGroup": "East",
    "units": "E34"
  },
  {
    "id_str": "F210018825",
    "created_at": "2/25/2021 7:02:44 PM",
    "timestamp": 1614308564000,
    "description": "Automatic Fire Alarm Resd",
    "address": "1620 E Prospect St",
    "active": false,
    "unitCount": 1,
    "severity": 0,
    "lat": 47.62869,
    "long": -122.310967,
    "neighborhood": "Miller Park",
    "neighborhoodGroup": "East",
    "units": "L10"
  },
  {
    "id_str": "F210018824",
    "created_at": "2/25/2021 6:58:27 PM",
    "timestamp": 1614308307000,
    "description": "Activated CO Detector",
    "address": "8429 37th Ave S",
    "active": false,
    "unitCount": 1,
    "severity": 0,
    "lat": 47.527621,
    "long": -122.285957,
    "neighborhood": "South Beacon Hill/NewHolly",
    "neighborhoodGroup": "Greater Duwamish",
    "units": "L12"
  },
  {
    "id_str": "F210018823",
    "created_at": "2/25/2021 6:55:48 PM",
    "timestamp": 1614308148000,
    "description": "Medic Response",
    "address": "4315 7th Ave Ne",
    "active": false,
    "unitCount": 3,
    "severity": 0,
    "lat": 47.659626,
    "long": -122.320836,
    "neighborhood": "Wallingford",
    "neighborhoodGroup": "Lake Union",
    "units": "L9 M1 M17"
  },
  {
    "id_str": "F210018822",
    "created_at": "2/25/2021 6:52:29 PM",
    "timestamp": 1614307949000,
    "description": "MVI Medic",
    "address": "Roosevelt Way Ne / Ne 74th St",
    "active": false,
    "unitCount": 2,
    "severity": 0,
    "lat": 47.682235,
    "long": -122.317472,
    "neighborhood": "Ravenna/Bryant",
    "neighborhoodGroup": "Northeast",
    "units": "E17 M31"
  },
  {
    "id_str": "F210018821",
    "created_at": "2/25/2021 6:51:59 PM",
    "timestamp": 1614307919000,
    "description": "Aid Response",
    "address": "32nd Ave Nw / Nw Market St",
    "active": false,
    "unitCount": 2,
    "severity": 0,
    "lat": 47.668624,
    "long": -122.398318,
    "neighborhood": "Sunset Hill/Loyal Heights",
    "neighborhoodGroup": "Ballard",
    "units": "A18 E18"
  },
  {
    "id_str": "F210018820",
    "created_at": "2/25/2021 6:50:49 PM",
    "timestamp": 1614307849000,
    "description": "Illegal Burn",
    "address": "1400 Hubbell Pl",
    "active": false,
    "unitCount": 1,
    "severity": 0,
    "lat": 47.611543,
    "long": -122.330225,
    "neighborhood": "First Hill",
    "neighborhoodGroup": "East",
    "units": "E25"
  },
  {
    "id_str": "F210018818",
    "created_at": "2/25/2021 6:48:16 PM",
    "timestamp": 1614307696000,
    "description": "1RED 1 Unit",
    "address": "7th Ave / Cherry St",
    "active": false,
    "unitCount": 1,
    "severity": 0,
    "lat": 47.60534,
    "long": -122.327624,
    "neighborhood": "First Hill",
    "neighborhoodGroup": "East",
    "units": "E10"
  },
  {
    "id_str": "F210018816",
    "created_at": "2/25/2021 6:43:24 PM",
    "timestamp": 1614307404000,
    "description": "AFA4 - Auto Alarm 2 + 1 + 1",
    "address": "1753 Nw 56th St",
    "active": false,
    "unitCount": 4,
    "severity": 0,
    "lat": 47.669446,
    "long": -122.37945,
    "neighborhood": "Ballard",
    "neighborhoodGroup": "Ballard",
    "units": "B4 E18 E20 L8"
  },
  {
    "id_str": "F210018814",
    "created_at": "2/25/2021 6:36:44 PM",
    "timestamp": 1614307004000,
    "description": "Aid Response",
    "address": "6652 EAST GREEN LAKE WAY N",
    "active": false,
    "unitCount": 1,
    "severity": 0,
    "lat": 47.674205,
    "long": -122.335156,
    "neighborhood": "Green Lake",
    "neighborhoodGroup": "Northwest",
    "units": "E31"
  },
  {
    "id_str": "F210018813",
    "created_at": "2/25/2021 6:31:25 PM",
    "timestamp": 1614306685000,
    "description": "Medic Response, 7 per Rule",
    "address": "1811 Eastlake Ave",
    "active": false,
    "unitCount": 3,
    "severity": 0,
    "lat": 47.618002,
    "long": -122.329182,
    "neighborhood": "Cascade/Eastlake",
    "neighborhoodGroup": "Lake Union",
    "units": "A4 E5 M1"
  },
  {
    "id_str": "F210018811",
    "created_at": "2/25/2021 6:24:13 PM",
    "timestamp": 1614306253000,
    "description": "Automatic Fire Alarm Resd",
    "address": "1111 Shenandoah Dr E",
    "active": false,
    "unitCount": 1,
    "severity": 0,
    "lat": 47.629632,
    "long": -122.288407,
    "neighborhood": "Madison Park",
    "neighborhoodGroup": "East",
    "units": "E34"
  },
  {
    "id_str": "F210018809",
    "created_at": "2/25/2021 6:19:10 PM",
    "timestamp": 1614305950000,
    "description": "Alarm Bell",
    "address": "720 Seneca St",
    "active": false,
    "unitCount": 2,
    "severity": 0,
    "lat": 47.609088,
    "long": -122.330457,
    "neighborhood": "First Hill",
    "neighborhoodGroup": "East",
    "units": "E5 L1"
  },
  {
    "id_str": "F210018807",
    "created_at": "2/25/2021 6:16:27 PM",
    "timestamp": 1614305787000,
    "description": "Aid Response",
    "address": "12th Ave S / S Forest St",
    "active": false,
    "unitCount": 1,
    "severity": 0,
    "lat": 47.577765,
    "long": -122.317361,
    "neighborhood": "Duwamish/SODO",
    "neighborhoodGroup": "Greater Duwamish",
    "units": "E13"
  },
  {
    "id_str": "F210018806",
    "created_at": "2/25/2021 6:15:51 PM",
    "timestamp": 1614305751000,
    "description": "Medic Response",
    "address": "14396 30th Ave Ne",
    "active": false,
    "unitCount": 2,
    "severity": 0,
    "lat": 47.732881,
    "long": -122.296531,
    "neighborhood": "Olympic Hills/Victory Heights",
    "neighborhoodGroup": "North",
    "units": "E39 M17"
  },
  {
    "id_str": "F210018805",
    "created_at": "2/25/2021 6:15:39 PM",
    "timestamp": 1614305739000,
    "description": "Medic Response",
    "address": "2366 Eastlake Ave E",
    "active": false,
    "unitCount": 2,
    "severity": 0,
    "lat": 47.640483,
    "long": -122.32589,
    "neighborhood": "Montlake/Portage Bay",
    "neighborhoodGroup": "Northeast",
    "units": "E22 M10"
  },
  {
    "id_str": "F210018803",
    "created_at": "2/25/2021 6:12:54 PM",
    "timestamp": 1614305574000,
    "description": "Aid Response",
    "address": "Roosevelt Way Ne / Ne 69th St",
    "active": false,
    "unitCount": 1,
    "severity": 0,
    "lat": 47.678741,
    "long": -122.317403,
    "neighborhood": "Ravenna/Bryant",
    "neighborhoodGroup": "Northeast",
    "units": "E16"
  },
  {
    "id_str": "F210018802",
    "created_at": "2/25/2021 6:03:51 PM",
    "timestamp": 1614305031000,
    "description": "Aid Response",
    "address": "2569 29th Ave S",
    "active": false,
    "unitCount": 1,
    "severity": 0,
    "lat": 47.579891,
    "long": -122.295179,
    "neighborhood": "Mt. Baker/North Rainier",
    "neighborhoodGroup": "Southeast",
    "units": "E30"
  },
  {
    "id_str": "F210018798",
    "created_at": "2/25/2021 5:51:00 PM",
    "timestamp": 1614304260000,
    "description": "Aid Response",
    "address": "8606 35th Ave Ne",
    "active": false,
    "unitCount": 1,
    "severity": 0,
    "lat": 47.690963,
    "long": -122.290694,
    "neighborhood": "Wedgwood/View Ridge",
    "neighborhoodGroup": "Northeast",
    "units": "E40"
  },
  {
    "id_str": "F210018795",
    "created_at": "2/25/2021 5:23:34 PM",
    "timestamp": 1614302614000,
    "description": "Aid Response",
    "address": "Boston St / 5th Ave N",
    "active": false,
    "unitCount": 1,
    "severity": 0,
    "lat": 47.638254,
    "long": -122.347097,
    "neighborhood": "Queen Anne",
    "neighborhoodGroup": "Magnolia/Queen Anne",
    "units": "E8"
  },
  {
    "id_str": "F210018794",
    "created_at": "2/25/2021 5:16:36 PM",
    "timestamp": 1614302196000,
    "description": "Auto Fire Alarm",
    "address": "505 Ne 70th St",
    "active": false,
    "unitCount": 2,
    "severity": 0,
    "lat": 47.679478,
    "long": -122.322726,
    "neighborhood": "Green Lake",
    "neighborhoodGroup": "Northwest",
    "units": "E16 L9"
  },
  {
    "id_str": "F210018793",
    "created_at": "2/25/2021 5:13:42 PM",
    "timestamp": 1614302022000,
    "description": "Medic Response",
    "address": "520 S Main St",
    "active": false,
    "unitCount": 2,
    "severity": 0,
    "lat": 47.600034,
    "long": -122.327396,
    "neighborhood": "Pioneer Square/International District",
    "neighborhoodGroup": "Downtown",
    "units": "A10 M1"
  },
  {
    "id_str": "F210018791",
    "created_at": "2/25/2021 4:58:09 PM",
    "timestamp": 1614301089000,
    "description": "Rubbish Fire",
    "address": "Madison St / Boren Ave",
    "active": false,
    "unitCount": 1,
    "severity": 0,
    "lat": 47.609338,
    "long": -122.325139,
    "neighborhood": "First Hill",
    "neighborhoodGroup": "East",
    "units": "E25"
  },
  {
    "id_str": "F210018790",
    "created_at": "2/25/2021 4:56:26 PM",
    "timestamp": 1614300986000,
    "description": "Aid Response",
    "address": "100 Yesler Way",
    "active": false,
    "unitCount": 2,
    "severity": 0,
    "lat": 47.601722,
    "long": -122.334179,
    "neighborhood": "Downtown Commercial Core",
    "neighborhoodGroup": "Downtown",
    "units": "A5 H1"
  },
  {
    "id_str": "F210018789",
    "created_at": "2/25/2021 4:51:09 PM",
    "timestamp": 1614300669000,
    "description": "Low Acuity Response",
    "address": "10321 Meridian Ave N",
    "active": false,
    "unitCount": 1,
    "severity": 0,
    "lat": 47.703403,
    "long": -122.333906,
    "neighborhood": "Northgate/Maple Leaf",
    "neighborhoodGroup": "North",
    "units": "E24"
  },
  {
    "id_str": "F210018787",
    "created_at": "2/25/2021 4:42:47 PM",
    "timestamp": 1614300167000,
    "description": "Aid Response",
    "address": "750 Republican St",
    "active": false,
    "unitCount": 1,
    "severity": 0,
    "lat": 47.623224,
    "long": -122.342361,
    "neighborhood": "Cascade/Eastlake",
    "neighborhoodGroup": "Lake Union",
    "units": "A4"
  },
  {
    "id_str": "F210018785",
    "created_at": "2/25/2021 4:41:02 PM",
    "timestamp": 1614300062000,
    "description": "Rubbish Fire",
    "address": "University Way Ne / Ne 55th St",
    "active": false,
    "unitCount": 1,
    "severity": 0,
    "lat": 47.668547,
    "long": -122.313018,
    "neighborhood": "University District",
    "neighborhoodGroup": "Northeast",
    "units": "E17"
  },
  {
    "id_str": "F210018782",
    "created_at": "2/25/2021 4:34:42 PM",
    "timestamp": 1614299682000,
    "description": "Aid Response",
    "address": "6322 40th Ave Sw",
    "active": false,
    "unitCount": 1,
    "severity": 0,
    "lat": 47.546149,
    "long": -122.383167,
    "neighborhood": "Fauntleroy/Seaview",
    "neighborhoodGroup": "Southwest",
    "units": "E37"
  },
  {
    "id_str": "F210018783",
    "created_at": "2/25/2021 4:34:40 PM",
    "timestamp": 1614299680000,
    "description": "Aid Response",
    "address": "12501 Greenwood Ave N",
    "active": false,
    "unitCount": 1,
    "severity": 0,
    "lat": 47.719601,
    "long": -122.355539,
    "neighborhood": "Broadview/Bitter Lake",
    "neighborhoodGroup": "Northwest",
    "units": "A31"
  },
  {
    "id_str": "F210018781",
    "created_at": "2/25/2021 4:27:54 PM",
    "timestamp": 1614299274000,
    "description": "Medic Response",
    "address": "825 Eastlake Ave E",
    "active": false,
    "unitCount": 2,
    "severity": 0,
    "lat": 47.626215,
    "long": -122.329199,
    "neighborhood": "Cascade/Eastlake",
    "neighborhoodGroup": "Lake Union",
    "units": "A2 M10"
  },
  {
    "id_str": "F210018778",
    "created_at": "2/25/2021 4:20:47 PM",
    "timestamp": 1614298847000,
    "description": "Aid Response",
    "address": "10th Ave S / S Weller St",
    "active": false,
    "unitCount": 1,
    "severity": 0,
    "lat": 47.597509,
    "long": -122.319645,
    "neighborhood": "Pioneer Square/International District",
    "neighborhoodGroup": "Downtown",
    "units": "A10"
  },
  {
    "id_str": "F210018777",
    "created_at": "2/25/2021 4:20:29 PM",
    "timestamp": 1614298829000,
    "description": "Low Acuity Response",
    "address": "1401 Boren Ave",
    "active": false,
    "unitCount": 2,
    "severity": 0,
    "lat": 47.612472,
    "long": -122.328005,
    "neighborhood": "First Hill",
    "neighborhoodGroup": "East",
    "units": "A25 E25"
  },
  {
    "id_str": "F210018776",
    "created_at": "2/25/2021 4:18:49 PM",
    "timestamp": 1614298729000,
    "description": "Medic Response",
    "address": "9023 38th Ave S",
    "active": false,
    "unitCount": 2,
    "severity": 0,
    "lat": 47.522358,
    "long": -122.284819,
    "neighborhood": "South Beacon Hill/NewHolly",
    "neighborhoodGroup": "Greater Duwamish",
    "units": "E33 M28"
  },
  {
    "id_str": "F210018775",
    "created_at": "2/25/2021 4:14:53 PM",
    "timestamp": 1614298493000,
    "description": "Aid Response",
    "address": "1321 E John St",
    "active": false,
    "unitCount": 1,
    "severity": 0,
    "lat": 47.619948,
    "long": -122.31534,
    "neighborhood": "Capitol Hill",
    "neighborhoodGroup": "East",
    "units": "A25"
  }
]