[
  {
    "id_str": "F210018878",
    "created_at": "2/26/2021 12:01:05 AM",
    "timestamp": 1614326465000,
    "description": "Aid Response",
    "address": "811 Maynard Ave S",
    "active": true,
    "unitCount": 1,
    "severity": 0,
    "lat": 47.595741,
    "long": -122.325068,
    "neighborhood": "Duwamish/SODO",
    "neighborhoodGroup": "Greater Duwamish",
    "units": "A10"
  },
  {
    "id_str": "F210018877",
    "created_at": "2/25/2021 11:41:26 PM",
    "timestamp": 1614325286000,
    "description": "Unk Odor",
    "address": "4221 5th Ave Ne",
    "active": false,
    "unitCount": 1,
    "severity": 0,
    "lat": 47.657935,
    "long": -122.323005,
    "neighborhood": "Wallingford",
    "neighborhoodGroup": "Lake Union",
    "units": "E31"
  },
  {
    "id_str": "F210018876",
    "created_at": "2/25/2021 11:36:03 PM",
    "timestamp": 1614324963000,
    "description": "Medic Response",
    "address": "1501 E Thomas St",
    "active": true,
    "unitCount": 3,
    "severity": 0,
    "lat": 47.620503,
    "long": -122.312698,
    "neighborhood": "Capitol Hill",
    "neighborhoodGroup": "East",
    "units": "A25 E25 M1"
  },
  {
    "id_str": "F210018874",
    "created_at": "2/25/2021 11:23:23 PM",
    "timestamp": 1614324203000,
    "description": "Aid Response",
    "address": "2009 Rainier Ave S",
    "active": false,
    "unitCount": 1,
    "severity": 0,
    "lat": 47.58541,
    "long": -122.303541,
    "neighborhood": "North Beacon Hill/Jefferson Park",
    "neighborhoodGroup": "Greater Duwamish",
    "units": "E6"
  },
  {
    "id_str": "F210018873",
    "created_at": "2/25/2021 11:20:24 PM",
    "timestamp": 1614324024000,
    "description": "Aid Response",
    "address": "3615 S Adams St",
    "active": false,
    "unitCount": 1,
    "severity": 0,
    "lat": 47.5654,
    "long": -122.287186,
    "neighborhood": "Columbia City",
    "neighborhoodGroup": "Southeast",
    "units": "E30"
  },
  {
    "id_str": "F210018872",
    "created_at": "2/25/2021 11:15:10 PM",
    "timestamp": 1614323710000,
    "description": "Aid Response",
    "address": "601 PINE ST",
    "active": false,
    "unitCount": 1,
    "severity": 0,
    "lat": 47.613533,
    "long": -122.332031,
    "neighborhood": "First Hill",
    "neighborhoodGroup": "East",
    "units": "A25"
  },
  {
    "id_str": "F210018871",
    "created_at": "2/25/2021 11:09:16 PM",
    "timestamp": 1614323356000,
    "description": "Aid Response",
    "address": "5033 37th Ave S",
    "active": false,
    "unitCount": 1,
    "severity": 0,
    "lat": 47.556785,
    "long": -122.286143,
    "neighborhood": "Columbia City",
    "neighborhoodGroup": "Southeast",
    "units": "E28"
  },
  {
    "id_str": "F210018870",
    "created_at": "2/25/2021 11:04:45 PM",
    "timestamp": 1614323085000,
    "description": "Medic Response",
    "address": "223 Yesler Way",
    "active": true,
    "unitCount": 2,
    "severity": 0,
    "lat": 47.601718,
    "long": -122.331581,
    "neighborhood": "Downtown Commercial Core",
    "neighborhoodGroup": "Downtown",
    "units": "A5 M10"
  },
  {
    "id_str": "F210018869",
    "created_at": "2/25/2021 11:00:14 PM",
    "timestamp": 1614322814000,
    "description": "Auto Fire Alarm",
    "address": "9201 Rainier Ave S",
    "active": false,
    "unitCount": 2,
    "severity": 0,
    "lat": 47.52101,
    "long": -122.269997,
    "neighborhood": "Rainier Beach",
    "neighborhoodGroup": "Southeast",
    "units": "E33 L12"
  },
  {
    "id_str": "F210018868",
    "created_at": "2/25/2021 10:52:39 PM",
    "timestamp": 1614322359000,
    "description": "Aid Response",
    "address": "6941 24th Ave Sw",
    "active": false,
    "unitCount": 1,
    "severity": 0,
    "lat": 47.540269,
    "long": -122.363016,
    "neighborhood": "High Point",
    "neighborhoodGroup": "Delridge Neighborhoods",
    "units": "E11"
  },
  {
    "id_str": "F210018867",
    "created_at": "2/25/2021 10:38:44 PM",
    "timestamp": 1614321524000,
    "description": "Rescue Lock In/Out",
    "address": "7944 Delridge Way Sw",
    "active": false,
    "unitCount": 1,
    "severity": 0,
    "lat": 47.531475,
    "long": -122.360444,
    "neighborhood": "Roxhill/Westwood",
    "neighborhoodGroup": "Delridge Neighborhoods",
    "units": "L13"
  },
  {
    "id_str": "F210018866",
    "created_at": "2/25/2021 10:33:30 PM",
    "timestamp": 1614321210000,
    "description": "Medic Response",
    "address": "8750 Mary Ave Nw",
    "active": false,
    "unitCount": 2,
    "severity": 0,
    "lat": 47.692732,
    "long": -122.375453,
    "neighborhood": "North Beach/Blue Ridge",
    "neighborhoodGroup": "Ballard",
    "units": "E35 M31"
  },
  {
    "id_str": "F210018865",
    "created_at": "2/25/2021 10:28:13 PM",
    "timestamp": 1614320893000,
    "description": "Aid Response",
    "address": "2418 Nw 56th St",
    "active": false,
    "unitCount": 1,
    "severity": 0,
    "lat": 47.669458,
    "long": -122.387807,
    "neighborhood": "Sunset Hill/Loyal Heights",
    "neighborhoodGroup": "Ballard",
    "units": "E18"
  },
  {
    "id_str": "F210018863",
    "created_at": "2/25/2021 10:18:45 PM",
    "timestamp": 1614320325000,
    "description": "Aid Response",
    "address": "5918 S HAZEL ST",
    "active": false,
    "unitCount": 1,
    "severity": 0,
    "lat": 47.504327,
    "long": -122.259254,
    "neighborhood": "Rainier Beach",
    "neighborhoodGroup": "Southeast",
    "units": "E33"
  },
  {
    "id_str": "F210018862",
    "created_at": "2/25/2021 10:08:02 PM",
    "timestamp": 1614319682000,
    "description": "Aid Response",
    "address": "811 Maynard Ave S",
    "active": false,
    "unitCount": 1,
    "severity": 0,
    "lat": 47.595741,
    "long": -122.325068,
    "neighborhood": "Duwamish/SODO",
    "neighborhoodGroup": "Greater Duwamish",
    "units": "A10"
  },
  {
    "id_str": "F210018861",
    "created_at": "2/25/2021 10:04:16 PM",
    "timestamp": 1614319456000,
    "description": "Aid Response",
    "address": "11616 Aurora Ave N",
    "active": false,
    "unitCount": 1,
    "severity": 0,
    "lat": 47.713747,
    "long": -122.344837,
    "neighborhood": "Broadview/Bitter Lake",
    "neighborhoodGroup": "Northwest",
    "units": "E24"
  },
  {
    "id_str": "F210018860",
    "created_at": "2/25/2021 10:03:11 PM",
    "timestamp": 1614319391000,
    "description": "Aid Response",
    "address": "3204 Sw Morgan St",
    "active": false,
    "unitCount": 1,
    "severity": 0,
    "lat": 47.544669,
    "long": -122.373777,
    "neighborhood": "High Point",
    "neighborhoodGroup": "Delridge Neighborhoods",
    "units": "E37"
  },
  {
    "id_str": "F210018857",
    "created_at": "2/25/2021 9:51:26 PM",
    "timestamp": 1614318686000,
    "description": "AFA4 - Auto Alarm 2 + 1 + 1",
    "address": "523 Pine St",
    "active": false,
    "unitCount": 4,
    "severity": 0,
    "lat": 47.611781,
    "long": -122.336223,
    "neighborhood": "First Hill",
    "neighborhoodGroup": "East",
    "units": "B2 E2 E5 L4"
  },
  {
    "id_str": "F210018858",
    "created_at": "2/25/2021 9:50:36 PM",
    "timestamp": 1614318636000,
    "description": "Aid Response",
    "address": "9240 2nd Ave Sw",
    "active": false,
    "unitCount": 1,
    "severity": 0,
    "lat": 47.520451,
    "long": -122.336003,
    "units": "E26"
  },
  {
    "id_str": "F210018856",
    "created_at": "2/25/2021 9:33:10 PM",
    "timestamp": 1614317590000,
    "description": "Hang-Up, Aid",
    "address": "424 Minor Ave N",
    "active": false,
    "unitCount": 1,
    "severity": 0,
    "lat": 47.622242,
    "long": -122.332995,
    "neighborhood": "Cascade/Eastlake",
    "neighborhoodGroup": "Lake Union",
    "units": "A2"
  },
  {
    "id_str": "F210018855",
    "created_at": "2/25/2021 9:32:14 PM",
    "timestamp": 1614317534000,
    "description": "Aid Response",
    "address": "509 7th Ave S",
    "active": false,
    "unitCount": 1,
    "severity": 0,
    "lat": 47.598273,
    "long": -122.323754,
    "neighborhood": "Pioneer Square/International District",
    "neighborhoodGroup": "Downtown",
    "units": "A5"
  },
  {
    "id_str": "F210018852",
    "created_at": "2/25/2021 9:27:44 PM",
    "timestamp": 1614317264000,
    "description": "Aid Response",
    "address": "4519 Sw Concord St",
    "active": false,
    "unitCount": 1,
    "severity": 0,
    "lat": 47.524167,
    "long": -122.390415,
    "neighborhood": "Fauntleroy/Seaview",
    "neighborhoodGroup": "Southwest",
    "units": "E11"
  },
  {
    "id_str": "F210018851",
    "created_at": "2/25/2021 9:16:24 PM",
    "timestamp": 1614316584000,
    "description": "Aid Response",
    "address": "429 14th Ave E",
    "active": false,
    "unitCount": 1,
    "severity": 0,
    "lat": 47.622284,
    "long": -122.314667,
    "neighborhood": "Capitol Hill",
    "neighborhoodGroup": "East",
    "units": "A25"
  },
  {
    "id_str": "F210018850",
    "created_at": "2/25/2021 9:14:07 PM",
    "timestamp": 1614316447000,
    "description": "Aid Response",
    "address": "1521 Nw Market St",
    "active": false,
    "unitCount": 1,
    "severity": 0,
    "lat": 47.668671,
    "long": -122.377312,
    "neighborhood": "Ballard",
    "neighborhoodGroup": "Ballard",
    "units": "M18"
  },
  {
    "id_str": "F210018849",
    "created_at": "2/25/2021 9:13:10 PM",
    "timestamp": 1614316390000,
    "description": "Aid Response",
    "address": "11501 15th Ave Ne",
    "active": false,
    "unitCount": 1,
    "severity": 0,
    "lat": 47.712167,
    "long": -122.312433,
    "neighborhood": "Olympic Hills/Victory Heights",
    "neighborhoodGroup": "North",
    "units": "E39"
  },
  {
    "id_str": "F210018848",
    "created_at": "2/25/2021 9:12:08 PM",
    "timestamp": 1614316328000,
    "description": "Medic Response, 6 per Rule",
    "address": "10264 39th Ave Sw",
    "active": false,
    "unitCount": 3,
    "severity": 0,
    "lat": 47.511377,
    "long": -122.381636,
    "neighborhood": "Arbor Heights",
    "neighborhoodGroup": "Southwest",
    "units": "E37 L13 M26"
  },
  {
    "id_str": "F210018847",
    "created_at": "2/25/2021 9:07:00 PM",
    "timestamp": 1614316020000,
    "description": "Medic Response, 7 per Rule",
    "address": "3630 Renton Ave S",
    "active": false,
    "unitCount": 3,
    "severity": 0,
    "lat": 47.571282,
    "long": -122.296553,
    "neighborhood": "Columbia City",
    "neighborhoodGroup": "Southeast",
    "units": "E13 E30 M28"
  },
  {
    "id_str": "F210018846",
    "created_at": "2/25/2021 9:05:31 PM",
    "timestamp": 1614315931000,
    "description": "Aid Response",
    "address": "Boren Ave S / S Jackson St",
    "active": false,
    "unitCount": 1,
    "severity": 0,
    "lat": 47.59921,
    "long": -122.314137,
    "neighborhood": "Judkins Park",
    "neighborhoodGroup": "Central",
    "units": "E6"
  },
  {
    "id_str": "F210018845",
    "created_at": "2/25/2021 9:04:21 PM",
    "timestamp": 1614315861000,
    "description": "Medic Response",
    "address": "5922 44th Ave Sw",
    "active": false,
    "unitCount": 2,
    "severity": 0,
    "lat": 47.549915,
    "long": -122.388583,
    "neighborhood": "Fauntleroy/Seaview",
    "neighborhoodGroup": "Southwest",
    "units": "E32 M32"
  },
  {
    "id_str": "F210018844",
    "created_at": "2/25/2021 8:51:27 PM",
    "timestamp": 1614315087000,
    "description": "Aid Response",
    "address": "100 Crockett St",
    "active": false,
    "unitCount": 1,
    "severity": 0,
    "lat": 47.637416,
    "long": -122.355598,
    "neighborhood": "Queen Anne",
    "neighborhoodGroup": "Magnolia/Queen Anne",
    "units": "E8"
  },
  {
    "id_str": "F210018842",
    "created_at": "2/25/2021 8:39:23 PM",
    "timestamp": 1614314363000,
    "description": "Aid Response",
    "address": "4849 18th Ave Sw",
    "active": false,
    "unitCount": 1,
    "severity": 0,
    "lat": 47.556731,
    "long": -122.357043,
    "neighborhood": "Riverview",
    "neighborhoodGroup": "Delridge Neighborhoods",
    "units": "E11"
  },
  {
    "id_str": "F210018841",
    "created_at": "2/25/2021 8:26:05 PM",
    "timestamp": 1614313565000,
    "description": "Aid Response",
    "address": "509 3rd Ave",
    "active": false,
    "unitCount": 2,
    "severity": 0,
    "lat": 47.602114,
    "long": -122.330809,
    "neighborhood": "Downtown Commercial Core",
    "neighborhoodGroup": "Downtown",
    "units": "A10 E10"
  },
  {
    "id_str": "F210018840",
    "created_at": "2/25/2021 8:22:58 PM",
    "timestamp": 1614313378000,
    "description": "Aid Response",
    "address": "12724 Lake City Way Ne",
    "active": false,
    "unitCount": 2,
    "severity": 0,
    "lat": 47.721231,
    "long": -122.294078,
    "neighborhood": "Cedar Park/Meadowbrook",
    "neighborhoodGroup": "North",
    "units": "E39 M17"
  },
  {
    "id_str": "F210018839",
    "created_at": "2/25/2021 8:07:27 PM",
    "timestamp": 1614312447000,
    "description": "Aid Response",
    "address": "3434 Beacon Ave S",
    "active": false,
    "unitCount": 1,
    "severity": 0,
    "lat": 47.572891,
    "long": -122.308547,
    "neighborhood": "North Beacon Hill/Jefferson Park",
    "neighborhoodGroup": "Greater Duwamish",
    "units": "E13"
  },
  {
    "id_str": "F210018837",
    "created_at": "2/25/2021 7:48:04 PM",
    "timestamp": 1614311284000,
    "description": "Aid Response",
    "address": "801 Alaskan Way",
    "active": false,
    "unitCount": 1,
    "severity": 0,
    "lat": 47.602348,
    "long": -122.337148,
    "neighborhood": "Downtown Commercial Core",
    "neighborhoodGroup": "Downtown",
    "units": "E5"
  },
  {
    "id_str": "F210018835",
    "created_at": "2/25/2021 7:44:26 PM",
    "timestamp": 1614311066000,
    "description": "Aid Response",
    "address": "298 Yesler Way",
    "active": false,
    "unitCount": 3,
    "severity": 0,
    "lat": 47.601716,
    "long": -122.330265,
    "neighborhood": "Downtown Commercial Core",
    "neighborhoodGroup": "Downtown",
    "units": "A14 A5 R1"
  },
  {
    "id_str": "F210018832",
    "created_at": "2/25/2021 7:40:20 PM",
    "timestamp": 1614310820000,
    "description": "AFA4 - Auto Alarm 2 + 1 + 1",
    "address": "1408 12th Ave",
    "active": false,
    "unitCount": 4,
    "severity": 0,
    "lat": 47.612976,
    "long": -122.31674,
    "neighborhood": "Capitol Hill",
    "neighborhoodGroup": "East",
    "units": "B2 E10 E25 L10"
  },
  {
    "id_str": "F210018831",
    "created_at": "2/25/2021 7:36:48 PM",
    "timestamp": 1614310608000,
    "description": "Aid Response",
    "address": "1605 N 34th St",
    "active": false,
    "unitCount": 1,
    "severity": 0,
    "lat": 47.648058,
    "long": -122.338677,
    "neighborhood": "Fremont",
    "neighborhoodGroup": "Lake Union",
    "units": "E9"
  },
  {
    "id_str": "F210018830",
    "created_at": "2/25/2021 7:32:33 PM",
    "timestamp": 1614310353000,
    "description": "Aid Response",
    "address": "820 Lenora St",
    "active": false,
    "unitCount": 1,
    "severity": 0,
    "lat": 47.616626,
    "long": -122.337719,
    "neighborhood": "Cascade/Eastlake",
    "neighborhoodGroup": "Lake Union",
    "units": "A4"
  },
  {
    "id_str": "F210018828",
    "created_at": "2/25/2021 7:25:45 PM",
    "timestamp": 1614309945000,
    "description": "Electrical Problem",
    "address": "3201 21st Ave W",
    "active": false,
    "unitCount": 2,
    "severity": 0,
    "lat": 47.648456,
    "long": -122.383358,
    "neighborhood": "Interbay",
    "neighborhoodGroup": "Magnolia/Queen Anne",
    "units": "E20 MAR5"
  },
  {
    "id_str": "F210018827",
    "created_at": "2/25/2021 7:13:57 PM",
    "timestamp": 1614309237000,
    "description": "Aid Response",
    "address": "6853 19th Ave Ne",
    "active": false,
    "unitCount": 1,
    "severity": 0,
    "lat": 47.678108,
    "long": -122.30769,
    "neighborhood": "Ravenna/Bryant",
    "neighborhoodGroup": "Northeast",
    "units": "E16"
  },
  {
    "id_str": "F210018826",
    "created_at": "2/25/2021 7:11:53 PM",
    "timestamp": 1614309113000,
    "description": "Automatic Fire Alarm Resd",
    "address": "814 Mcgilvra Blvd E",
    "active": false,
    "unitCount": 1,
    "severity": 0,
    "lat": 47.626359,
    "long": -122.282503,
    "neighborhood": "Madison Park",
    "neighborhoodGroup": "East",
    "units": "E34"
  },
  {
    "id_str": "F210018825",
    "created_at": "2/25/2021 7:02:44 PM",
    "timestamp": 1614308564000,
    "description": "Automatic Fire Alarm Resd",
    "address": "1620 E Prospect St",
    "active": false,
    "unitCount": 1,
    "severity": 0,
    "lat": 47.62869,
    "long": -122.310967,
    "neighborhood": "Miller Park",
    "neighborhoodGroup": "East",
    "units": "L10"
  },
  {
    "id_str": "F210018824",
    "created_at": "2/25/2021 6:58:27 PM",
    "timestamp": 1614308307000,
    "description": "Activated CO Detector",
    "address": "8429 37th Ave S",
    "active": false,
    "unitCount": 1,
    "severity": 0,
    "lat": 47.527621,
    "long": -122.285957,
    "neighborhood": "South Beacon Hill/NewHolly",
    "neighborhoodGroup": "Greater Duwamish",
    "units": "L12"
  },
  {
    "id_str": "F210018823",
    "created_at": "2/25/2021 6:55:48 PM",
    "timestamp": 1614308148000,
    "description": "Medic Response",
    "address": "4315 7th Ave Ne",
    "active": false,
    "unitCount": 3,
    "severity": 0,
    "lat": 47.659626,
    "long": -122.320836,
    "neighborhood": "Wallingford",
    "neighborhoodGroup": "Lake Union",
    "units": "L9 M1 M17"
  },
  {
    "id_str": "F210018822",
    "created_at": "2/25/2021 6:52:29 PM",
    "timestamp": 1614307949000,
    "description": "MVI Medic",
    "address": "Roosevelt Way Ne / Ne 74th St",
    "active": false,
    "unitCount": 2,
    "severity": 0,
    "lat": 47.682235,
    "long": -122.317472,
    "neighborhood": "Ravenna/Bryant",
    "neighborhoodGroup": "Northeast",
    "units": "E17 M31"
  },
  {
    "id_str": "F210018821",
    "created_at": "2/25/2021 6:51:59 PM",
    "timestamp": 1614307919000,
    "description": "Aid Response",
    "address": "32nd Ave Nw / Nw Market St",
    "active": false,
    "unitCount": 2,
    "severity": 0,
    "lat": 47.668624,
    "long": -122.398318,
    "neighborhood": "Sunset Hill/Loyal Heights",
    "neighborhoodGroup": "Ballard",
    "units": "A18 E18"
  },
  {
    "id_str": "F210018820",
    "created_at": "2/25/2021 6:50:49 PM",
    "timestamp": 1614307849000,
    "description": "Illegal Burn",
    "address": "1400 Hubbell Pl",
    "active": false,
    "unitCount": 1,
    "severity": 0,
    "lat": 47.611543,
    "long": -122.330225,
    "neighborhood": "First Hill",
    "neighborhoodGroup": "East",
    "units": "E25"
  },
  {
    "id_str": "F210018818",
    "created_at": "2/25/2021 6:48:16 PM",
    "timestamp": 1614307696000,
    "description": "1RED 1 Unit",
    "address": "7th Ave / Cherry St",
    "active": false,
    "unitCount": 1,
    "severity": 0,
    "lat": 47.60534,
    "long": -122.327624,
    "neighborhood": "First Hill",
    "neighborhoodGroup": "East",
    "units": "E10"
  },
  {
    "id_str": "F210018816",
    "created_at": "2/25/2021 6:43:24 PM",
    "timestamp": 1614307404000,
    "description": "AFA4 - Auto Alarm 2 + 1 + 1",
    "address": "1753 Nw 56th St",
    "active": false,
    "unitCount": 4,
    "severity": 0,
    "lat": 47.669446,
    "long": -122.37945,
    "neighborhood": "Ballard",
    "neighborhoodGroup": "Ballard",
    "units": "B4 E18 E20 L8"
  },
  {
    "id_str": "F210018814",
    "created_at": "2/25/2021 6:36:44 PM",
    "timestamp": 1614307004000,
    "description": "Aid Response",
    "address": "6652 EAST GREEN LAKE WAY N",
    "active": false,
    "unitCount": 1,
    "severity": 0,
    "lat": 47.674205,
    "long": -122.335156,
    "neighborhood": "Green Lake",
    "neighborhoodGroup": "Northwest",
    "units": "E31"
  },
  {
    "id_str": "F210018813",
    "created_at": "2/25/2021 6:31:25 PM",
    "timestamp": 1614306685000,
    "description": "Medic Response, 7 per Rule",
    "address": "1811 Eastlake Ave",
    "active": false,
    "unitCount": 3,
    "severity": 0,
    "lat": 47.618002,
    "long": -122.329182,
    "neighborhood": "Cascade/Eastlake",
    "neighborhoodGroup": "Lake Union",
    "units": "A4 E5 M1"
  },
  {
    "id_str": "F210018811",
    "created_at": "2/25/2021 6:24:13 PM",
    "timestamp": 1614306253000,
    "description": "Automatic Fire Alarm Resd",
    "address": "1111 Shenandoah Dr E",
    "active": false,
    "unitCount": 1,
    "severity": 0,
    "lat": 47.629632,
    "long": -122.288407,
    "neighborhood": "Madison Park",
    "neighborhoodGroup": "East",
    "units": "E34"
  },
  {
    "id_str": "F210018809",
    "created_at": "2/25/2021 6:19:10 PM",
    "timestamp": 1614305950000,
    "description": "Alarm Bell",
    "address": "720 Seneca St",
    "active": false,
    "unitCount": 2,
    "severity": 0,
    "lat": 47.609088,
    "long": -122.330457,
    "neighborhood": "First Hill",
    "neighborhoodGroup": "East",
    "units": "E5 L1"
  },
  {
    "id_str": "F210018807",
    "created_at": "2/25/2021 6:16:27 PM",
    "timestamp": 1614305787000,
    "description": "Aid Response",
    "address": "12th Ave S / S Forest St",
    "active": false,
    "unitCount": 1,
    "severity": 0,
    "lat": 47.577765,
    "long": -122.317361,
    "neighborhood": "Duwamish/SODO",
    "neighborhoodGroup": "Greater Duwamish",
    "units": "E13"
  },
  {
    "id_str": "F210018806",
    "created_at": "2/25/2021 6:15:51 PM",
    "timestamp": 1614305751000,
    "description": "Medic Response",
    "address": "14396 30th Ave Ne",
    "active": false,
    "unitCount": 2,
    "severity": 0,
    "lat": 47.732881,
    "long": -122.296531,
    "neighborhood": "Olympic Hills/Victory Heights",
    "neighborhoodGroup": "North",
    "units": "E39 M17"
  },
  {
    "id_str": "F210018805",
    "created_at": "2/25/2021 6:15:39 PM",
    "timestamp": 1614305739000,
    "description": "Medic Response",
    "address": "2366 Eastlake Ave E",
    "active": false,
    "unitCount": 2,
    "severity": 0,
    "lat": 47.640483,
    "long": -122.32589,
    "neighborhood": "Montlake/Portage Bay",
    "neighborhoodGroup": "Northeast",
    "units": "E22 M10"
  },
  {
    "id_str": "F210018803",
    "created_at": "2/25/2021 6:12:54 PM",
    "timestamp": 1614305574000,
    "description": "Aid Response",
    "address": "Roosevelt Way Ne / Ne 69th St",
    "active": false,
    "unitCount": 1,
    "severity": 0,
    "lat": 47.678741,
    "long": -122.317403,
    "neighborhood": "Ravenna/Bryant",
    "neighborhoodGroup": "Northeast",
    "units": "E16"
  },
  {
    "id_str": "F210018802",
    "created_at": "2/25/2021 6:03:51 PM",
    "timestamp": 1614305031000,
    "description": "Aid Response",
    "address": "2569 29th Ave S",
    "active": false,
    "unitCount": 1,
    "severity": 0,
    "lat": 47.579891,
    "long": -122.295179,
    "neighborhood": "Mt. Baker/North Rainier",
    "neighborhoodGroup": "Southeast",
    "units": "E30"
  },
  {
    "id_str": "F210018798",
    "created_at": "2/25/2021 5:51:00 PM",
    "timestamp": 1614304260000,
    "description": "Aid Response",
    "address": "8606 35th Ave Ne",
    "active": false,
    "unitCount": 1,
    "severity": 0,
    "lat": 47.690963,
    "long": -122.290694,
    "neighborhood": "Wedgwood/View Ridge",
    "neighborhoodGroup": "Northeast",
    "units": "E40"
  },
  {
    "id_str": "F210018795",
    "created_at": "2/25/2021 5:23:34 PM",
    "timestamp": 1614302614000,
    "description": "Aid Response",
    "address": "Boston St / 5th Ave N",
    "active": false,
    "unitCount": 1,
    "severity": 0,
    "lat": 47.638254,
    "long": -122.347097,
    "neighborhood": "Queen Anne",
    "neighborhoodGroup": "Magnolia/Queen Anne",
    "units": "E8"
  },
  {
    "id_str": "F210018794",
    "created_at": "2/25/2021 5:16:36 PM",
    "timestamp": 1614302196000,
    "description": "Auto Fire Alarm",
    "address": "505 Ne 70th St",
    "active": false,
    "unitCount": 2,
    "severity": 0,
    "lat": 47.679478,
    "long": -122.322726,
    "neighborhood": "Green Lake",
    "neighborhoodGroup": "Northwest",
    "units": "E16 L9"
  },
  {
    "id_str": "F210018793",
    "created_at": "2/25/2021 5:13:42 PM",
    "timestamp": 1614302022000,
    "description": "Medic Response",
    "address": "520 S Main St",
    "active": false,
    "unitCount": 2,
    "severity": 0,
    "lat": 47.600034,
    "long": -122.327396,
    "neighborhood": "Pioneer Square/International District",
    "neighborhoodGroup": "Downtown",
    "units": "A10 M1"
  },
  {
    "id_str": "F210018791",
    "created_at": "2/25/2021 4:58:09 PM",
    "timestamp": 1614301089000,
    "description": "Rubbish Fire",
    "address": "Madison St / Boren Ave",
    "active": false,
    "unitCount": 1,
    "severity": 0,
    "lat": 47.609338,
    "long": -122.325139,
    "neighborhood": "First Hill",
    "neighborhoodGroup": "East",
    "units": "E25"
  },
  {
    "id_str": "F210018790",
    "created_at": "2/25/2021 4:56:26 PM",
    "timestamp": 1614300986000,
    "description": "Aid Response",
    "address": "100 Yesler Way",
    "active": false,
    "unitCount": 2,
    "severity": 0,
    "lat": 47.601722,
    "long": -122.334179,
    "neighborhood": "Downtown Commercial Core",
    "neighborhoodGroup": "Downtown",
    "units": "A5 H1"
  },
  {
    "id_str": "F210018789",
    "created_at": "2/25/2021 4:51:09 PM",
    "timestamp": 1614300669000,
    "description": "Low Acuity Response",
    "address": "10321 Meridian Ave N",
    "active": false,
    "unitCount": 1,
    "severity": 0,
    "lat": 47.703403,
    "long": -122.333906,
    "neighborhood": "Northgate/Maple Leaf",
    "neighborhoodGroup": "North",
    "units": "E24"
  },
  {
    "id_str": "F210018787",
    "created_at": "2/25/2021 4:42:47 PM",
    "timestamp": 1614300167000,
    "description": "Aid Response",
    "address": "750 Republican St",
    "active": false,
    "unitCount": 1,
    "severity": 0,
    "lat": 47.623224,
    "long": -122.342361,
    "neighborhood": "Cascade/Eastlake",
    "neighborhoodGroup": "Lake Union",
    "units": "A4"
  },
  {
    "id_str": "F210018785",
    "created_at": "2/25/2021 4:41:02 PM",
    "timestamp": 1614300062000,
    "description": "Rubbish Fire",
    "address": "University Way Ne / Ne 55th St",
    "active": false,
    "unitCount": 1,
    "severity": 0,
    "lat": 47.668547,
    "long": -122.313018,
    "neighborhood": "University District",
    "neighborhoodGroup": "Northeast",
    "units": "E17"
  },
  {
    "id_str": "F210018782",
    "created_at": "2/25/2021 4:34:42 PM",
    "timestamp": 1614299682000,
    "description": "Aid Response",
    "address": "6322 40th Ave Sw",
    "active": false,
    "unitCount": 1,
    "severity": 0,
    "lat": 47.546149,
    "long": -122.383167,
    "neighborhood": "Fauntleroy/Seaview",
    "neighborhoodGroup": "Southwest",
    "units": "E37"
  },
  {
    "id_str": "F210018783",
    "created_at": "2/25/2021 4:34:40 PM",
    "timestamp": 1614299680000,
    "description": "Aid Response",
    "address": "12501 Greenwood Ave N",
    "active": false,
    "unitCount": 1,
    "severity": 0,
    "lat": 47.719601,
    "long": -122.355539,
    "neighborhood": "Broadview/Bitter Lake",
    "neighborhoodGroup": "Northwest",
    "units": "A31"
  },
  {
    "id_str": "F210018781",
    "created_at": "2/25/2021 4:27:54 PM",
    "timestamp": 1614299274000,
    "description": "Medic Response",
    "address": "825 Eastlake Ave E",
    "active": false,
    "unitCount": 2,
    "severity": 0,
    "lat": 47.626215,
    "long": -122.329199,
    "neighborhood": "Cascade/Eastlake",
    "neighborhoodGroup": "Lake Union",
    "units": "A2 M10"
  },
  {
    "id_str": "F210018778",
    "created_at": "2/25/2021 4:20:47 PM",
    "timestamp": 1614298847000,
    "description": "Aid Response",
    "address": "10th Ave S / S Weller St",
    "active": false,
    "unitCount": 1,
    "severity": 0,
    "lat": 47.597509,
    "long": -122.319645,
    "neighborhood": "Pioneer Square/International District",
    "neighborhoodGroup": "Downtown",
    "units": "A10"
  },
  {
    "id_str": "F210018777",
    "created_at": "2/25/2021 4:20:29 PM",
    "timestamp": 1614298829000,
    "description": "Low Acuity Response",
    "address": "1401 Boren Ave",
    "active": false,
    "unitCount": 2,
    "severity": 0,
    "lat": 47.612472,
    "long": -122.328005,
    "neighborhood": "First Hill",
    "neighborhoodGroup": "East",
    "units": "A25 E25"
  },
  {
    "id_str": "F210018776",
    "created_at": "2/25/2021 4:18:49 PM",
    "timestamp": 1614298729000,
    "description": "Medic Response",
    "address": "9023 38th Ave S",
    "active": false,
    "unitCount": 2,
    "severity": 0,
    "lat": 47.522358,
    "long": -122.284819,
    "neighborhood": "South Beacon Hill/NewHolly",
    "neighborhoodGroup": "Greater Duwamish",
    "units": "E33 M28"
  },
  {
    "id_str": "F210018775",
    "created_at": "2/25/2021 4:14:53 PM",
    "timestamp": 1614298493000,
    "description": "Aid Response",
    "address": "1321 E John St",
    "active": false,
    "unitCount": 1,
    "severity": 0,
    "lat": 47.619948,
    "long": -122.31534,
    "neighborhood": "Capitol Hill",
    "neighborhoodGroup": "East",
    "units": "A25"
  }
]