[
  {
    "id_str": "F220023894",
    "created_at": "2/26/2022 3:45:52 PM",
    "timestamp": 1645919152000,
    "description": "Aid Response",
    "address": "700 6th Ave S",
    "active": false,
    "unitCount": 1,
    "severity": 0,
    "lat": 47.596676,
    "long": -122.32637,
    "neighborhood": "Pioneer Square/International District",
    "neighborhoodGroup": "Downtown",
    "units": "A5"
  },
  {
    "id_str": "F220023893",
    "created_at": "2/26/2022 3:33:46 PM",
    "timestamp": 1645918426000,
    "description": "Aid Response",
    "address": "4755 Fauntleroy Way Sw",
    "active": false,
    "unitCount": 1,
    "severity": 0,
    "lat": 47.560074,
    "long": -122.381457,
    "neighborhood": "West Seattle Junction/Genesee Hill",
    "neighborhoodGroup": "Southwest",
    "units": "L11"
  },
  {
    "id_str": "F220023891",
    "created_at": "2/26/2022 3:31:10 PM",
    "timestamp": 1645918270000,
    "description": "Aid Response",
    "address": "4259 8th Ave Nw",
    "active": false,
    "unitCount": 1,
    "severity": 0,
    "lat": 47.658859,
    "long": -122.366111,
    "neighborhood": "Ballard",
    "neighborhoodGroup": "Ballard",
    "units": "E9"
  },
  {
    "id_str": "F220023890",
    "created_at": "2/26/2022 3:30:19 PM",
    "timestamp": 1645918219000,
    "description": "Medic Response",
    "address": "51st Ave S / S Genesee St",
    "active": false,
    "unitCount": 3,
    "severity": 0,
    "lat": 47.564114,
    "long": -122.269474,
    "neighborhood": "Columbia City",
    "neighborhoodGroup": "Southeast",
    "units": "E28 L12 M28"
  },
  {
    "id_str": "F220023889",
    "created_at": "2/26/2022 3:27:05 PM",
    "timestamp": 1645918025000,
    "description": "Aid Response",
    "address": "6529 24th Ave Nw",
    "active": false,
    "unitCount": 1,
    "severity": 0,
    "lat": 47.676195,
    "long": -122.387578,
    "neighborhood": "Sunset Hill/Loyal Heights",
    "neighborhoodGroup": "Ballard",
    "units": "L8"
  },
  {
    "id_str": "F220023888",
    "created_at": "2/26/2022 3:21:18 PM",
    "timestamp": 1645917678000,
    "description": "Low Acuity Response",
    "address": "420 Blanchard St",
    "active": false,
    "unitCount": 1,
    "severity": 0,
    "lat": 47.614736,
    "long": -122.342459,
    "neighborhood": "Cascade/Eastlake",
    "neighborhoodGroup": "Lake Union",
    "units": "A2"
  },
  {
    "id_str": "F220023884",
    "created_at": "2/26/2022 3:08:32 PM",
    "timestamp": 1645916912000,
    "description": "Low Acuity Response",
    "address": "9811 California Ave Sw",
    "active": false,
    "unitCount": 1,
    "severity": 0,
    "lat": 47.515534,
    "long": -122.387511,
    "neighborhood": "Arbor Heights",
    "neighborhoodGroup": "Southwest",
    "units": "E37"
  },
  {
    "id_str": "F220023882",
    "created_at": "2/26/2022 3:07:17 PM",
    "timestamp": 1645916837000,
    "description": "Aid Response",
    "address": "2326 California Ave Sw",
    "active": false,
    "unitCount": 1,
    "severity": 0,
    "lat": 47.582838,
    "long": -122.386485,
    "neighborhood": "Alki/Admiral",
    "neighborhoodGroup": "Southwest",
    "units": "E29"
  },
  {
    "id_str": "F220023883",
    "created_at": "2/26/2022 3:07:13 PM",
    "timestamp": 1645916833000,
    "description": "Brush Fire",
    "address": "EASTLAKE AVE E / ALOHA ST",
    "active": false,
    "unitCount": 1,
    "severity": 0,
    "lat": 47.626877,
    "long": -122.329216,
    "neighborhood": "Cascade/Eastlake",
    "neighborhoodGroup": "Lake Union",
    "units": "E2"
  },
  {
    "id_str": "F220023881",
    "created_at": "2/26/2022 3:01:51 PM",
    "timestamp": 1645916511000,
    "description": "Aid Response",
    "address": "1827 Yale Ave",
    "active": false,
    "unitCount": 1,
    "severity": 0,
    "lat": 47.617709,
    "long": -122.330044,
    "neighborhood": "Cascade/Eastlake",
    "neighborhoodGroup": "Lake Union",
    "units": "A25"
  },
  {
    "id_str": "F220023880",
    "created_at": "2/26/2022 3:00:18 PM",
    "timestamp": 1645916418000,
    "description": "MVI - Motor Vehicle Incident",
    "address": "29th Ave W / W Armour St",
    "active": false,
    "unitCount": 1,
    "severity": 0,
    "lat": 47.64461,
    "long": -122.394246,
    "neighborhood": "Magnolia",
    "neighborhoodGroup": "Magnolia/Queen Anne",
    "units": "E41"
  },
  {
    "id_str": "F220023879",
    "created_at": "2/26/2022 2:51:32 PM",
    "timestamp": 1645915892000,
    "description": "Medic Response, 6 per Rule",
    "address": "Broadway E / E John St",
    "active": false,
    "unitCount": 3,
    "severity": 0,
    "lat": 47.619908,
    "long": -122.320873,
    "neighborhood": "Capitol Hill",
    "neighborhoodGroup": "East",
    "units": "E25 L10 M10"
  },
  {
    "id_str": "F220023878",
    "created_at": "2/26/2022 2:50:50 PM",
    "timestamp": 1645915850000,
    "description": "Aid Response",
    "address": "1124 Pike St",
    "active": false,
    "unitCount": 1,
    "severity": 0,
    "lat": 47.61358,
    "long": -122.328642,
    "neighborhood": "First Hill",
    "neighborhoodGroup": "East",
    "units": "A25"
  },
  {
    "id_str": "F220023876",
    "created_at": "2/26/2022 2:47:48 PM",
    "timestamp": 1645915668000,
    "description": "Aid Response",
    "address": "8124 Rainier Ave S",
    "active": false,
    "unitCount": 1,
    "severity": 0,
    "lat": 47.53025,
    "long": -122.269989,
    "neighborhood": "Rainier Beach",
    "neighborhoodGroup": "Southeast",
    "units": "E33"
  },
  {
    "id_str": "F220023875",
    "created_at": "2/26/2022 2:46:26 PM",
    "timestamp": 1645915586000,
    "description": "Medic Response",
    "address": "3rd Ave / Union St",
    "active": false,
    "unitCount": 3,
    "severity": 0,
    "lat": 47.608756,
    "long": -122.336885,
    "neighborhood": "Downtown Commercial Core",
    "neighborhoodGroup": "Downtown",
    "units": "A5 E5 M10"
  },
  {
    "id_str": "F220023874",
    "created_at": "2/26/2022 2:43:51 PM",
    "timestamp": 1645915431000,
    "description": "Aid Response",
    "address": "10th Ave S / S Jackson St",
    "active": false,
    "unitCount": 1,
    "severity": 0,
    "lat": 47.599184,
    "long": -122.319639,
    "neighborhood": "Pioneer Square/International District",
    "neighborhoodGroup": "Downtown",
    "units": "A10"
  },
  {
    "id_str": "F220023873",
    "created_at": "2/26/2022 2:36:58 PM",
    "timestamp": 1645915018000,
    "description": "Aid Response",
    "address": "7418 Bagley Ave N",
    "active": false,
    "unitCount": 1,
    "severity": 0,
    "lat": 47.682766,
    "long": -122.331586,
    "neighborhood": "Green Lake",
    "neighborhoodGroup": "Northwest",
    "units": "A31"
  },
  {
    "id_str": "F220023870",
    "created_at": "2/26/2022 2:23:05 PM",
    "timestamp": 1645914185000,
    "description": "Natural Gas Odor",
    "address": "6546 California Ave Sw",
    "active": false,
    "unitCount": 1,
    "severity": 0,
    "lat": 47.544455,
    "long": -122.38722,
    "neighborhood": "Fauntleroy/Seaview",
    "neighborhoodGroup": "Southwest",
    "units": "L11"
  },
  {
    "id_str": "F220023871",
    "created_at": "2/26/2022 2:21:52 PM",
    "timestamp": 1645914112000,
    "description": "Aid Response",
    "address": "1959 Ne Pacific St",
    "active": false,
    "unitCount": 1,
    "severity": 0,
    "lat": 47.650694,
    "long": -122.307916,
    "neighborhood": "University District",
    "neighborhoodGroup": "Northeast",
    "units": "E17"
  },
  {
    "id_str": "F220023867",
    "created_at": "2/26/2022 2:02:42 PM",
    "timestamp": 1645912962000,
    "description": "Aid Response",
    "address": "1421 Minor Ave",
    "active": false,
    "unitCount": 1,
    "severity": 0,
    "lat": 47.613146,
    "long": -122.327096,
    "neighborhood": "Capitol Hill",
    "neighborhoodGroup": "East",
    "units": "A25"
  },
  {
    "id_str": "F220023868",
    "created_at": "2/26/2022 2:01:46 PM",
    "timestamp": 1645912906000,
    "description": "Aid Response",
    "address": "1660 S Columbian Way",
    "active": false,
    "unitCount": 1,
    "severity": 0,
    "lat": 47.561845,
    "long": -122.310824,
    "neighborhood": "North Beacon Hill/Jefferson Park",
    "neighborhoodGroup": "Greater Duwamish",
    "units": "E13"
  },
  {
    "id_str": "F220023865",
    "created_at": "2/26/2022 1:45:52 PM",
    "timestamp": 1645911952000,
    "description": "Medic Response",
    "address": "1959 Ne Pacific St",
    "active": false,
    "unitCount": 2,
    "severity": 0,
    "lat": 47.650694,
    "long": -122.307916,
    "neighborhood": "University District",
    "neighborhoodGroup": "Northeast",
    "units": "E17 M17"
  },
  {
    "id_str": "F220023864",
    "created_at": "2/26/2022 1:40:42 PM",
    "timestamp": 1645911642000,
    "description": "Medic Response",
    "address": "509 3rd Ave",
    "active": false,
    "unitCount": 2,
    "severity": 0,
    "lat": 47.602114,
    "long": -122.330809,
    "neighborhood": "Downtown Commercial Core",
    "neighborhoodGroup": "Downtown",
    "units": "A5 M1"
  },
  {
    "id_str": "F220023861",
    "created_at": "2/26/2022 1:33:31 PM",
    "timestamp": 1645911211000,
    "description": "Aid Response",
    "address": "Ne 143rd St / 15th Ave Ne",
    "active": false,
    "unitCount": 1,
    "severity": 0,
    "lat": 47.732126,
    "long": -122.312724,
    "neighborhood": "Olympic Hills/Victory Heights",
    "neighborhoodGroup": "North",
    "units": "E24"
  },
  {
    "id_str": "F220023860",
    "created_at": "2/26/2022 1:30:05 PM",
    "timestamp": 1645911005000,
    "description": "Aid Response",
    "address": "222 Pike St",
    "active": false,
    "unitCount": 1,
    "severity": 0,
    "lat": 47.609389,
    "long": -122.338655,
    "neighborhood": "Downtown Commercial Core",
    "neighborhoodGroup": "Downtown",
    "units": "E5"
  },
  {
    "id_str": "F220023858",
    "created_at": "2/26/2022 1:27:41 PM",
    "timestamp": 1645910861000,
    "description": "Aid Response",
    "address": "8005 Sand Point Way Ne",
    "active": false,
    "unitCount": 1,
    "severity": 0,
    "lat": 47.687429,
    "long": -122.265462,
    "neighborhood": "Laurelhurst/Sand Point",
    "neighborhoodGroup": "Northeast",
    "units": "E40"
  },
  {
    "id_str": "F220023856",
    "created_at": "2/26/2022 1:23:25 PM",
    "timestamp": 1645910605000,
    "description": "Medic Response",
    "address": "1603 Lakeview Blvd E",
    "active": false,
    "unitCount": 2,
    "severity": 0,
    "lat": 47.634237,
    "long": -122.322398,
    "neighborhood": "Cascade/Eastlake",
    "neighborhoodGroup": "Lake Union",
    "units": "A86 M10"
  },
  {
    "id_str": "F220023854",
    "created_at": "2/26/2022 1:16:52 PM",
    "timestamp": 1645910212000,
    "description": "Investigate Out Of Service",
    "address": "840 Nw 96th St",
    "active": false,
    "unitCount": 1,
    "severity": 0,
    "lat": 47.69924,
    "long": -122.367884,
    "neighborhood": "North Beach/Blue Ridge",
    "neighborhoodGroup": "Ballard",
    "units": "E35"
  },
  {
    "id_str": "F220023853",
    "created_at": "2/26/2022 1:15:32 PM",
    "timestamp": 1645910132000,
    "description": "Rescue Elevator",
    "address": "3020 15th Ave W",
    "active": false,
    "unitCount": 1,
    "severity": 0,
    "lat": 47.646751,
    "long": -122.376353,
    "neighborhood": "Interbay",
    "neighborhoodGroup": "Magnolia/Queen Anne",
    "units": "L8"
  },
  {
    "id_str": "F220023852",
    "created_at": "2/26/2022 1:05:11 PM",
    "timestamp": 1645909511000,
    "description": "Aid Response",
    "address": "7730 20th Ave Sw",
    "active": false,
    "unitCount": 2,
    "severity": 0,
    "lat": 47.533417,
    "long": -122.359222,
    "neighborhood": "Roxhill/Westwood",
    "neighborhoodGroup": "Delridge Neighborhoods",
    "units": "E37 M32"
  },
  {
    "id_str": "F220023850",
    "created_at": "2/26/2022 12:50:48 PM",
    "timestamp": 1645908648000,
    "description": "Medic Response",
    "address": "4400 37th Ave S",
    "active": false,
    "unitCount": 2,
    "severity": 0,
    "lat": 47.564112,
    "long": -122.286056,
    "neighborhood": "Columbia City",
    "neighborhoodGroup": "Southeast",
    "units": "E30 M28"
  },
  {
    "id_str": "F220023849",
    "created_at": "2/26/2022 12:48:32 PM",
    "timestamp": 1645908512000,
    "description": "Aid Response",
    "address": "1616 Ne 65th St",
    "active": false,
    "unitCount": 1,
    "severity": 0,
    "lat": 47.675782,
    "long": -122.310683,
    "neighborhood": "University District",
    "neighborhoodGroup": "Northeast",
    "units": "A31"
  },
  {
    "id_str": "F220023848",
    "created_at": "2/26/2022 12:46:40 PM",
    "timestamp": 1645908400000,
    "description": "Scenes Of Violence Aid",
    "address": "23rd Ave / E Cherry St",
    "active": false,
    "unitCount": 2,
    "severity": 0,
    "lat": 47.608009,
    "long": -122.30277,
    "neighborhood": "Central Area/Squire Park",
    "neighborhoodGroup": "Central",
    "units": "B2 E6"
  },
  {
    "id_str": "F220023838",
    "created_at": "2/26/2022 12:42:04 PM",
    "timestamp": 1645908124000,
    "description": "Encampment Fire",
    "address": "26th Ave Sw / Sw Juneau St",
    "active": false,
    "unitCount": 1,
    "severity": 0,
    "lat": 47.550123,
    "long": -122.365579,
    "neighborhood": "High Point",
    "neighborhoodGroup": "Delridge Neighborhoods",
    "units": "E11"
  },
  {
    "id_str": "F220023836",
    "created_at": "2/26/2022 12:34:55 PM",
    "timestamp": 1645907695000,
    "description": "Aid Response",
    "address": "520 S King St",
    "active": false,
    "unitCount": 1,
    "severity": 0,
    "lat": 47.598356,
    "long": -122.327404,
    "neighborhood": "Pioneer Square/International District",
    "neighborhoodGroup": "Downtown",
    "units": "A10"
  },
  {
    "id_str": "F220023834",
    "created_at": "2/26/2022 12:29:36 PM",
    "timestamp": 1645907376000,
    "description": "Low Acuity Response",
    "address": "3001 Nw 60th St",
    "active": false,
    "unitCount": 1,
    "severity": 0,
    "lat": 47.672244,
    "long": -122.395663,
    "neighborhood": "Sunset Hill/Loyal Heights",
    "neighborhoodGroup": "Ballard",
    "units": "L8"
  },
  {
    "id_str": "F220023833",
    "created_at": "2/26/2022 12:26:53 PM",
    "timestamp": 1645907213000,
    "description": "Auto Fire Alarm",
    "address": "2339 Fairview Ave E",
    "active": false,
    "unitCount": 4,
    "severity": 0,
    "lat": 47.640181,
    "long": -122.32939,
    "neighborhood": "Montlake/Portage Bay",
    "neighborhoodGroup": "Northeast",
    "units": "E17 FIREBOAT L10 L9"
  },
  {
    "id_str": "F220023830",
    "created_at": "2/26/2022 12:24:55 PM",
    "timestamp": 1645907095000,
    "description": "Water Job Minor",
    "address": "4200 Mary Gates Memorial Dr Ne",
    "active": false,
    "unitCount": 1,
    "severity": 0,
    "lat": 47.65988,
    "long": -122.291744,
    "neighborhood": "University District",
    "neighborhoodGroup": "Northeast",
    "units": "L9"
  },
  {
    "id_str": "F220023827",
    "created_at": "2/26/2022 12:24:14 PM",
    "timestamp": 1645907054000,
    "description": "Aid Response",
    "address": "Sw Alaska St / 42nd Ave Sw",
    "active": false,
    "unitCount": 1,
    "severity": 0,
    "lat": 47.561101,
    "long": -122.385457,
    "neighborhood": "West Seattle Junction/Genesee Hill",
    "neighborhoodGroup": "Southwest",
    "units": "L11"
  },
  {
    "id_str": "F220023822",
    "created_at": "2/26/2022 12:19:06 PM",
    "timestamp": 1645906746000,
    "description": "Brush Fire",
    "address": "Eastlake Ave E / Aloha St",
    "active": false,
    "unitCount": 1,
    "severity": 0,
    "lat": 47.626877,
    "long": -122.329216,
    "neighborhood": "Cascade/Eastlake",
    "neighborhoodGroup": "Lake Union",
    "units": "E2"
  },
  {
    "id_str": "F220023821",
    "created_at": "2/26/2022 12:17:01 PM",
    "timestamp": 1645906621000,
    "description": "Aid Response",
    "address": "6th Ave S / S Jackson St",
    "active": false,
    "unitCount": 1,
    "severity": 0,
    "lat": 47.599193,
    "long": -122.326361,
    "neighborhood": "Pioneer Square/International District",
    "neighborhoodGroup": "Downtown",
    "units": "A5"
  },
  {
    "id_str": "F220023819",
    "created_at": "2/26/2022 12:07:00 PM",
    "timestamp": 1645906020000,
    "description": "Aid Response",
    "address": "7504 Aurora Ave N",
    "active": false,
    "unitCount": 1,
    "severity": 0,
    "lat": 47.683324,
    "long": -122.344484,
    "neighborhood": "Greenwood/Phinney Ridge",
    "neighborhoodGroup": "Northwest",
    "units": "A31"
  },
  {
    "id_str": "F220023818",
    "created_at": "2/26/2022 12:04:46 PM",
    "timestamp": 1645905886000,
    "description": "Aid Response",
    "address": "9722 8th Ave Nw",
    "active": false,
    "unitCount": 1,
    "severity": 0,
    "lat": 47.700241,
    "long": -122.366049,
    "neighborhood": "North Beach/Blue Ridge",
    "neighborhoodGroup": "Ballard",
    "units": "E35"
  },
  {
    "id_str": "F220023817",
    "created_at": "2/26/2022 12:00:22 PM",
    "timestamp": 1645905622000,
    "description": "Scenes Of Violence 7",
    "address": "8th Ave S / S Jackson St",
    "active": false,
    "unitCount": 5,
    "severity": 1,
    "lat": 47.599186,
    "long": -122.322445,
    "neighborhood": "Pioneer Square/International District",
    "neighborhoodGroup": "Downtown",
    "units": "A10 B5 E10 M1 M44"
  },
  {
    "id_str": "F220023816",
    "created_at": "2/26/2022 11:57:34 AM",
    "timestamp": 1645905454000,
    "description": "Aid Response",
    "address": "1107 7th Ave W",
    "active": false,
    "unitCount": 1,
    "severity": 0,
    "lat": 47.628803,
    "long": -122.366475,
    "neighborhood": "Queen Anne",
    "neighborhoodGroup": "Magnolia/Queen Anne",
    "units": "E8"
  },
  {
    "id_str": "F220023815",
    "created_at": "2/26/2022 11:54:41 AM",
    "timestamp": 1645905281000,
    "description": "MVI - Motor Vehicle Incident",
    "address": "306 6TH AVE S",
    "active": false,
    "unitCount": 2,
    "severity": 0,
    "lat": 47.599093,
    "long": -122.286607,
    "neighborhood": "Madrona/Leschi",
    "neighborhoodGroup": "Central",
    "units": "L1 L3"
  },
  {
    "id_str": "F220023813",
    "created_at": "2/26/2022 11:48:16 AM",
    "timestamp": 1645904896000,
    "description": "Aid Response",
    "address": "3500 Stone Way N",
    "active": false,
    "unitCount": 1,
    "severity": 0,
    "lat": 47.64942,
    "long": -122.342733,
    "neighborhood": "Fremont",
    "neighborhoodGroup": "Lake Union",
    "units": "E9"
  },
  {
    "id_str": "F220023811",
    "created_at": "2/26/2022 11:40:02 AM",
    "timestamp": 1645904402000,
    "description": "Aid Response",
    "address": "Aurora Ave N / N 80th St",
    "active": false,
    "unitCount": 1,
    "severity": 0,
    "lat": 47.686942,
    "long": -122.344503,
    "neighborhood": "Green Lake",
    "neighborhoodGroup": "Northwest",
    "units": "A31"
  },
  {
    "id_str": "F220023809",
    "created_at": "2/26/2022 11:32:06 AM",
    "timestamp": 1645903926000,
    "description": "Aid Response",
    "address": "525 14th Ave E",
    "active": false,
    "unitCount": 1,
    "severity": 0,
    "lat": 47.623391,
    "long": -122.314649,
    "neighborhood": "Capitol Hill",
    "neighborhoodGroup": "East",
    "units": "A25"
  },
  {
    "id_str": "F220023807",
    "created_at": "2/26/2022 11:28:48 AM",
    "timestamp": 1645903728000,
    "description": "1RED 1 Unit",
    "address": "1704 Ne Columbia Rd",
    "active": false,
    "unitCount": 3,
    "severity": 0,
    "lat": 47.650205,
    "long": -122.310398,
    "neighborhood": "University District",
    "neighborhoodGroup": "Northeast",
    "units": "E17 E40 L9"
  },
  {
    "id_str": "F220023803",
    "created_at": "2/26/2022 11:22:40 AM",
    "timestamp": 1645903360000,
    "description": "Aid Response",
    "address": "302 NE NORTHGATE WAY",
    "active": false,
    "unitCount": 1,
    "severity": 0,
    "lat": 47.708611,
    "long": -122.325928,
    "neighborhood": "Northgate/Maple Leaf",
    "neighborhoodGroup": "North",
    "units": "L5"
  },
  {
    "id_str": "F220023804",
    "created_at": "2/26/2022 11:20:50 AM",
    "timestamp": 1645903250000,
    "description": "Aid Response Freeway",
    "address": "Nb I5 At Yesler",
    "active": false,
    "unitCount": 3,
    "severity": 0,
    "lat": 47.589701,
    "long": -122.320678,
    "neighborhood": "Duwamish/SODO",
    "neighborhoodGroup": "Greater Duwamish",
    "units": "A5 E30 E6"
  },
  {
    "id_str": "F220023799",
    "created_at": "2/26/2022 11:15:47 AM",
    "timestamp": 1645902947000,
    "description": "Aid Response",
    "address": "Green Lake Dr N / Aurora Ave N",
    "active": false,
    "unitCount": 1,
    "severity": 0,
    "lat": 47.689113,
    "long": -122.344514,
    "neighborhood": "Green Lake",
    "neighborhoodGroup": "Northwest",
    "units": "E21"
  },
  {
    "id_str": "F220023798",
    "created_at": "2/26/2022 11:12:37 AM",
    "timestamp": 1645902757000,
    "description": "Aid Response",
    "address": "E Olive Pl / Bellevue Ave",
    "active": false,
    "unitCount": 1,
    "severity": 0,
    "lat": 47.617077,
    "long": -122.32682,
    "neighborhood": "Capitol Hill",
    "neighborhoodGroup": "East",
    "units": "A25"
  },
  {
    "id_str": "F220023797",
    "created_at": "2/26/2022 11:07:36 AM",
    "timestamp": 1645902456000,
    "description": "Aid Response",
    "address": "921 N 105th St",
    "active": false,
    "unitCount": 1,
    "severity": 0,
    "lat": 47.705058,
    "long": -122.347095,
    "neighborhood": "Licton Springs",
    "neighborhoodGroup": "Northwest",
    "units": "E31"
  },
  {
    "id_str": "F220023796",
    "created_at": "2/26/2022 11:07:16 AM",
    "timestamp": 1645902436000,
    "description": "Aid Response Yellow",
    "address": "114 23rd Ave",
    "active": false,
    "unitCount": 1,
    "severity": 0,
    "lat": 47.601943,
    "long": -122.302433,
    "neighborhood": "Central Area/Squire Park",
    "neighborhoodGroup": "Central",
    "units": "A10"
  },
  {
    "id_str": "F220023795",
    "created_at": "2/26/2022 11:06:06 AM",
    "timestamp": 1645902366000,
    "description": "Aid Response",
    "address": "1050 Ne 50th St",
    "active": false,
    "unitCount": 1,
    "severity": 0,
    "lat": 47.664932,
    "long": -122.316859,
    "neighborhood": "University District",
    "neighborhoodGroup": "Northeast",
    "units": "E40"
  },
  {
    "id_str": "F220023792",
    "created_at": "2/26/2022 10:57:55 AM",
    "timestamp": 1645901875000,
    "description": "Aid Response",
    "address": "5260 University Way Ne",
    "active": false,
    "unitCount": 1,
    "severity": 0,
    "lat": 47.666854,
    "long": -122.313044,
    "neighborhood": "University District",
    "neighborhoodGroup": "Northeast",
    "units": "L9"
  },
  {
    "id_str": "V220023791",
    "created_at": "2/26/2022 10:53:28 AM",
    "timestamp": 1645901608000,
    "description": "Marine Fire On Shore",
    "address": "1801 16TH AVE SW",
    "active": false,
    "unitCount": 26,
    "severity": 2,
    "lat": 47.295731,
    "long": -122.25855,
    "units": "A14 A5 AIR26 AIR260 B5 B7 DEP1 E10 E13 E27 E29 E36 E5 E6 FIREBOAT L1 L13 L3 M32 M44 MRN1 PTRL4 R1 RB5 SAFT2 STAF10"
  },
  {
    "id_str": "F220023790",
    "created_at": "2/26/2022 10:44:10 AM",
    "timestamp": 1645901050000,
    "description": "Aid Response",
    "address": "13000 Linden Ave N",
    "active": false,
    "unitCount": 1,
    "severity": 0,
    "lat": 47.723218,
    "long": -122.348195,
    "neighborhood": "Broadview/Bitter Lake",
    "neighborhoodGroup": "Northwest",
    "units": "E24"
  },
  {
    "id_str": "F220023789",
    "created_at": "2/26/2022 10:43:49 AM",
    "timestamp": 1645901029000,
    "description": "Natural Gas Odor",
    "address": "9010 35th Ave Sw",
    "active": false,
    "unitCount": 1,
    "severity": 0,
    "lat": 47.522771,
    "long": -122.376703,
    "neighborhood": "Roxhill/Westwood",
    "neighborhoodGroup": "Delridge Neighborhoods",
    "units": "L13"
  },
  {
    "id_str": "F220023788",
    "created_at": "2/26/2022 10:34:18 AM",
    "timestamp": 1645900458000,
    "description": "Aid Response",
    "address": "2119 3rd Ave",
    "active": false,
    "unitCount": 1,
    "severity": 0,
    "lat": 47.613308,
    "long": -122.342432,
    "neighborhood": "Cascade/Eastlake",
    "neighborhoodGroup": "Lake Union",
    "units": "A2"
  },
  {
    "id_str": "F220023787",
    "created_at": "2/26/2022 10:32:16 AM",
    "timestamp": 1645900336000,
    "description": "Rescue Elevator",
    "address": "4313 University Way Ne",
    "active": false,
    "unitCount": 1,
    "severity": 0,
    "lat": 47.659884,
    "long": -122.313166,
    "neighborhood": "University District",
    "neighborhoodGroup": "Northeast",
    "units": "L9"
  },
  {
    "id_str": "F220023786",
    "created_at": "2/26/2022 10:08:54 AM",
    "timestamp": 1645898934000,
    "description": "Aid Response",
    "address": "35th Ave Ne / Ne 75th St",
    "active": false,
    "unitCount": 2,
    "severity": 0,
    "lat": 47.683048,
    "long": -122.290479,
    "neighborhood": "Wedgwood/View Ridge",
    "neighborhoodGroup": "Northeast",
    "units": "E38 E40"
  },
  {
    "id_str": "F220023785",
    "created_at": "2/26/2022 10:05:26 AM",
    "timestamp": 1645898726000,
    "description": "Aid Response",
    "address": "3221 36th Ave S",
    "active": false,
    "unitCount": 1,
    "severity": 0,
    "lat": 47.574915,
    "long": -122.287714,
    "neighborhood": "Mt. Baker/North Rainier",
    "neighborhoodGroup": "Southeast",
    "units": "E30"
  },
  {
    "id_str": "F220023783",
    "created_at": "2/26/2022 9:59:41 AM",
    "timestamp": 1645898381000,
    "description": "Rescue Elevator",
    "address": "2301 E Union St",
    "active": false,
    "unitCount": 1,
    "severity": 0,
    "lat": 47.612941,
    "long": -122.302697,
    "neighborhood": "Central Area/Squire Park",
    "neighborhoodGroup": "Central",
    "units": "L10"
  },
  {
    "id_str": "F220023782",
    "created_at": "2/26/2022 9:55:45 AM",
    "timestamp": 1645898145000,
    "description": "Aid Response",
    "address": "5th Ave S / S Jackson St",
    "active": false,
    "unitCount": 2,
    "severity": 0,
    "lat": 47.599195,
    "long": -122.327667,
    "neighborhood": "Pioneer Square/International District",
    "neighborhoodGroup": "Downtown",
    "units": "A10 M10"
  },
  {
    "id_str": "F220023779",
    "created_at": "2/26/2022 9:45:58 AM",
    "timestamp": 1645897558000,
    "description": "Brush Fire Freeway",
    "address": "Nb I5 At 45",
    "active": false,
    "unitCount": 4,
    "severity": 0,
    "lat": 47.65745,
    "long": -122.322155,
    "neighborhood": "Wallingford",
    "neighborhoodGroup": "Lake Union",
    "units": "B6 E10 E17 E25"
  },
  {
    "id_str": "F220023776",
    "created_at": "2/26/2022 9:40:21 AM",
    "timestamp": 1645897221000,
    "description": "Aid Response",
    "address": "2119 3rd Ave",
    "active": false,
    "unitCount": 1,
    "severity": 0,
    "lat": 47.613308,
    "long": -122.342432,
    "neighborhood": "Cascade/Eastlake",
    "neighborhoodGroup": "Lake Union",
    "units": "A2"
  },
  {
    "id_str": "F220023775",
    "created_at": "2/26/2022 9:39:57 AM",
    "timestamp": 1645897197000,
    "description": "4RED - 2 + 1 + 1",
    "address": "75 Vine St",
    "active": false,
    "unitCount": 4,
    "severity": 0,
    "lat": 47.614557,
    "long": -122.350578,
    "neighborhood": "Belltown",
    "neighborhoodGroup": "Downtown",
    "units": "B2 E5 E8 L4"
  },
  {
    "id_str": "F220023773",
    "created_at": "2/26/2022 9:14:42 AM",
    "timestamp": 1645895682000,
    "description": "Rubbish Fire",
    "address": "2nd Ave S / S Washington St",
    "active": false,
    "unitCount": 1,
    "severity": 0,
    "lat": 47.600879,
    "long": -122.331572,
    "neighborhood": "Pioneer Square/International District",
    "neighborhoodGroup": "Downtown",
    "units": "E10"
  },
  {
    "id_str": "F220023772",
    "created_at": "2/26/2022 9:14:36 AM",
    "timestamp": 1645895676000,
    "description": "Medic Response",
    "address": "1700 Airport Way S",
    "active": false,
    "unitCount": 2,
    "severity": 0,
    "lat": 47.588225,
    "long": -122.321391,
    "neighborhood": "Duwamish/SODO",
    "neighborhoodGroup": "Greater Duwamish",
    "units": "A5 M10"
  },
  {
    "id_str": "F220023771",
    "created_at": "2/26/2022 9:11:24 AM",
    "timestamp": 1645895484000,
    "description": "Aid Response",
    "address": "2519 1st Ave",
    "active": false,
    "unitCount": 1,
    "severity": 0,
    "lat": 47.614798,
    "long": -122.348918,
    "neighborhood": "Belltown",
    "neighborhoodGroup": "Downtown",
    "units": "E2"
  },
  {
    "id_str": "F220023769",
    "created_at": "2/26/2022 9:10:46 AM",
    "timestamp": 1645895446000,
    "description": "Aid Response",
    "address": "109 Dexter Ave N",
    "active": false,
    "unitCount": 1,
    "severity": 0,
    "lat": 47.618646,
    "long": -122.342401,
    "neighborhood": "Cascade/Eastlake",
    "neighborhoodGroup": "Lake Union",
    "units": "A2"
  },
  {
    "id_str": "F220023768",
    "created_at": "2/26/2022 9:10:13 AM",
    "timestamp": 1645895413000,
    "description": "Aid Response",
    "address": "3rd Ave Nw / Leary Way Nw",
    "active": false,
    "unitCount": 1,
    "severity": 0,
    "lat": 47.654938,
    "long": -122.360831,
    "neighborhood": "Fremont",
    "neighborhoodGroup": "Lake Union",
    "units": "E9"
  },
  {
    "id_str": "F220023767",
    "created_at": "2/26/2022 8:53:12 AM",
    "timestamp": 1645894392000,
    "description": "Aid Response",
    "address": "2020 S Jackson St",
    "active": false,
    "unitCount": 1,
    "severity": 0,
    "lat": 47.599261,
    "long": -122.305296,
    "neighborhood": "Judkins Park",
    "neighborhoodGroup": "Central",
    "units": "L3"
  },
  {
    "id_str": "F220023766",
    "created_at": "2/26/2022 8:50:04 AM",
    "timestamp": 1645894204000,
    "description": "Aid Response",
    "address": "921 N 105th St",
    "active": false,
    "unitCount": 1,
    "severity": 0,
    "lat": 47.705058,
    "long": -122.347095,
    "neighborhood": "Licton Springs",
    "neighborhoodGroup": "Northwest",
    "units": "E31"
  },
  {
    "id_str": "F220023765",
    "created_at": "2/26/2022 8:49:15 AM",
    "timestamp": 1645894155000,
    "description": "Aid Response",
    "address": "8239 42nd Ave Ne",
    "active": false,
    "unitCount": 1,
    "severity": 0,
    "lat": 47.688643,
    "long": -122.283276,
    "neighborhood": "Wedgwood/View Ridge",
    "neighborhoodGroup": "Northeast",
    "units": "E40"
  },
  {
    "id_str": "F220023763",
    "created_at": "2/26/2022 8:44:23 AM",
    "timestamp": 1645893863000,
    "description": "Medic Response",
    "address": "723 37th Ave",
    "active": false,
    "unitCount": 2,
    "severity": 0,
    "lat": 47.608201,
    "long": -122.286125,
    "neighborhood": "Madrona/Leschi",
    "neighborhoodGroup": "Central",
    "units": "E6 M1"
  },
  {
    "id_str": "F220023762",
    "created_at": "2/26/2022 8:40:20 AM",
    "timestamp": 1645893620000,
    "description": "Aid Response Yellow",
    "address": "109 23rd Ave E",
    "active": false,
    "unitCount": 1,
    "severity": 0,
    "lat": 47.619215,
    "long": -122.302545,
    "neighborhood": "Central Area/Squire Park",
    "neighborhoodGroup": "Central",
    "units": "A25"
  },
  {
    "id_str": "F220023760",
    "created_at": "2/26/2022 8:35:19 AM",
    "timestamp": 1645893319000,
    "description": "Aid Response",
    "address": "5244 18th Ave Ne",
    "active": false,
    "unitCount": 1,
    "severity": 0,
    "lat": 47.666708,
    "long": -122.308298,
    "neighborhood": "University District",
    "neighborhoodGroup": "Northeast",
    "units": "A86"
  },
  {
    "id_str": "F220023756",
    "created_at": "2/26/2022 8:29:36 AM",
    "timestamp": 1645892976000,
    "description": "Medic Response",
    "address": "6609 28th Ave S",
    "active": false,
    "unitCount": 2,
    "severity": 0,
    "lat": 47.543478,
    "long": -122.296895,
    "neighborhood": "South Beacon Hill/NewHolly",
    "neighborhoodGroup": "Greater Duwamish",
    "units": "E28 M28"
  },
  {
    "id_str": "F220023755",
    "created_at": "2/26/2022 8:27:31 AM",
    "timestamp": 1645892851000,
    "description": "Auto Fire Alarm",
    "address": "3801 Beacon Ave S",
    "active": false,
    "unitCount": 3,
    "severity": 0,
    "lat": 47.569305,
    "long": -122.307328,
    "neighborhood": "North Beacon Hill/Jefferson Park",
    "neighborhoodGroup": "Greater Duwamish",
    "units": "E13 L12 R1"
  },
  {
    "id_str": "F220023754",
    "created_at": "2/26/2022 8:21:28 AM",
    "timestamp": 1645892488000,
    "description": "Aid Response",
    "address": "4219 S Othello St",
    "active": false,
    "unitCount": 1,
    "severity": 0,
    "lat": 47.53705,
    "long": -122.280473,
    "neighborhood": "Columbia City",
    "neighborhoodGroup": "Southeast",
    "units": "E28"
  },
  {
    "id_str": "F220023753",
    "created_at": "2/26/2022 8:21:18 AM",
    "timestamp": 1645892478000,
    "description": "Aid Response",
    "address": "820 Nw 95th St",
    "active": false,
    "unitCount": 1,
    "severity": 0,
    "lat": 47.697867,
    "long": -122.367016,
    "neighborhood": "Greenwood/Phinney Ridge",
    "neighborhoodGroup": "Northwest",
    "units": "E35"
  },
  {
    "id_str": "F220023751",
    "created_at": "2/26/2022 8:05:33 AM",
    "timestamp": 1645891533000,
    "description": "Aid Response",
    "address": "1401 2nd Ave",
    "active": false,
    "unitCount": 1,
    "severity": 0,
    "lat": 47.608292,
    "long": -122.337995,
    "neighborhood": "Downtown Commercial Core",
    "neighborhoodGroup": "Downtown",
    "units": "A10"
  },
  {
    "id_str": "F220023750",
    "created_at": "2/26/2022 8:04:06 AM",
    "timestamp": 1645891446000,
    "description": "Aid Response",
    "address": "400 S Jackson St",
    "active": false,
    "unitCount": 1,
    "severity": 0,
    "lat": 47.599197,
    "long": -122.328968,
    "neighborhood": "Pioneer Square/International District",
    "neighborhoodGroup": "Downtown",
    "units": "A5"
  },
  {
    "id_str": "F220023749",
    "created_at": "2/26/2022 8:00:41 AM",
    "timestamp": 1645891241000,
    "description": "AFA4 - Auto Alarm 2 + 1 + 1",
    "address": "2611 S Dearborn St",
    "active": false,
    "unitCount": 2,
    "severity": 0,
    "lat": 47.595541,
    "long": -122.298643,
    "neighborhood": "Madrona/Leschi",
    "neighborhoodGroup": "Central",
    "units": "E6 L3"
  },
  {
    "id_str": "F220023748",
    "created_at": "2/26/2022 7:59:59 AM",
    "timestamp": 1645891199000,
    "description": "Aid Response",
    "address": "Ne 42nd St / Roosevelt Way Ne",
    "active": false,
    "unitCount": 1,
    "severity": 0,
    "lat": 47.658369,
    "long": -122.31778,
    "neighborhood": "Wallingford",
    "neighborhoodGroup": "Lake Union",
    "units": "E17"
  },
  {
    "id_str": "F220023747",
    "created_at": "2/26/2022 7:56:35 AM",
    "timestamp": 1645890995000,
    "description": "Aid Response",
    "address": "709 W Blaine St",
    "active": false,
    "unitCount": 1,
    "severity": 0,
    "lat": 47.634714,
    "long": -122.366447,
    "neighborhood": "Queen Anne",
    "neighborhoodGroup": "Magnolia/Queen Anne",
    "units": "E8"
  },
  {
    "id_str": "F220023745",
    "created_at": "2/26/2022 7:42:17 AM",
    "timestamp": 1645890137000,
    "description": "Low Acuity Response",
    "address": "118 Bell St",
    "active": false,
    "unitCount": 1,
    "severity": 0,
    "lat": 47.613497,
    "long": -122.346355,
    "neighborhood": "Belltown",
    "neighborhoodGroup": "Downtown",
    "units": "E2"
  },
  {
    "id_str": "F220023740",
    "created_at": "2/26/2022 7:19:58 AM",
    "timestamp": 1645888798000,
    "description": "Aid Response",
    "address": "2702 Beacon Ave S",
    "active": false,
    "unitCount": 1,
    "severity": 0,
    "lat": 47.579351,
    "long": -122.312266,
    "neighborhood": "North Beacon Hill/Jefferson Park",
    "neighborhoodGroup": "Greater Duwamish",
    "units": "E13"
  },
  {
    "id_str": "F220023739",
    "created_at": "2/26/2022 7:13:17 AM",
    "timestamp": 1645888397000,
    "description": "Aid Response Yellow",
    "address": "114 23rd Ave",
    "active": false,
    "unitCount": 1,
    "severity": 0,
    "lat": 47.601943,
    "long": -122.302433,
    "neighborhood": "Central Area/Squire Park",
    "neighborhoodGroup": "Central",
    "units": "E6"
  },
  {
    "id_str": "F220023738",
    "created_at": "2/26/2022 7:04:36 AM",
    "timestamp": 1645887876000,
    "description": "Aid Response",
    "address": "216 23rd Ave E",
    "active": false,
    "unitCount": 1,
    "severity": 0,
    "lat": 47.620386,
    "long": -122.302497,
    "neighborhood": "Central Area/Squire Park",
    "neighborhoodGroup": "Central",
    "units": "A25"
  },
  {
    "id_str": "F220023737",
    "created_at": "2/26/2022 7:02:30 AM",
    "timestamp": 1645887750000,
    "description": "Aid Response",
    "address": "800 S Donovan St",
    "active": false,
    "unitCount": 2,
    "severity": 0,
    "lat": 47.525615,
    "long": -122.32293,
    "neighborhood": "South Park",
    "neighborhoodGroup": "Greater Duwamish",
    "units": "A14 E26"
  },
  {
    "id_str": "F220023733",
    "created_at": "2/26/2022 6:58:13 AM",
    "timestamp": 1645887493000,
    "description": "4RED - 2 + 1 + 1",
    "address": "4th Ave / Columbia St",
    "active": false,
    "unitCount": 4,
    "severity": 0,
    "lat": 47.604662,
    "long": -122.331604,
    "neighborhood": "Downtown Commercial Core",
    "neighborhoodGroup": "Downtown",
    "units": "B2 E10 E5 L1"
  },
  {
    "id_str": "F220023732",
    "created_at": "2/26/2022 6:56:20 AM",
    "timestamp": 1645887380000,
    "description": "Rescue Extrication",
    "address": "6166 4th Ave S",
    "active": false,
    "unitCount": 10,
    "severity": 2,
    "lat": 47.54761,
    "long": -122.329585,
    "neighborhood": "Georgetown",
    "neighborhoodGroup": "Greater Duwamish",
    "units": "A14 B5 B7 E26 E27 L12 M28 M44 R1 SAFT2"
  },
  {
    "id_str": "F220023731",
    "created_at": "2/26/2022 6:28:46 AM",
    "timestamp": 1645885726000,
    "description": "Aid Response",
    "address": "13000 Linden Ave N",
    "active": false,
    "unitCount": 1,
    "severity": 0,
    "lat": 47.723218,
    "long": -122.348195,
    "neighborhood": "Broadview/Bitter Lake",
    "neighborhoodGroup": "Northwest",
    "units": "E24"
  },
  {
    "id_str": "F220023730",
    "created_at": "2/26/2022 6:20:50 AM",
    "timestamp": 1645885250000,
    "description": "Dumpster Fire",
    "address": "10522 Lake City Way Ne",
    "active": false,
    "unitCount": 1,
    "severity": 0,
    "lat": 47.704979,
    "long": -122.30162,
    "neighborhood": "Olympic Hills/Victory Heights",
    "neighborhoodGroup": "North",
    "units": "E39"
  },
  {
    "id_str": "F220023729",
    "created_at": "2/26/2022 6:17:48 AM",
    "timestamp": 1645885068000,
    "description": "MVI - Motor Vehicle Incident",
    "address": "Rainier Ave S / S Henderson St",
    "active": false,
    "unitCount": 1,
    "severity": 0,
    "lat": 47.523307,
    "long": -122.269986,
    "neighborhood": "Rainier Beach",
    "neighborhoodGroup": "Southeast",
    "units": "E33"
  },
  {
    "id_str": "F220023726",
    "created_at": "2/26/2022 5:49:10 AM",
    "timestamp": 1645883350000,
    "description": "Aid Response",
    "address": "2759 46th Ave Sw",
    "active": false,
    "unitCount": 1,
    "severity": 0,
    "lat": 47.578979,
    "long": -122.390697,
    "neighborhood": "West Seattle Junction/Genesee Hill",
    "neighborhoodGroup": "Southwest",
    "units": "E29"
  },
  {
    "id_str": "F220023725",
    "created_at": "2/26/2022 5:46:24 AM",
    "timestamp": 1645883184000,
    "description": "1RED 1 Unit",
    "address": "6th Ave N / Denny Way",
    "active": false,
    "unitCount": 1,
    "severity": 0,
    "lat": 47.618561,
    "long": -122.345006,
    "neighborhood": "Cascade/Eastlake",
    "neighborhoodGroup": "Lake Union",
    "units": "E2"
  },
  {
    "id_str": "F220023722",
    "created_at": "2/26/2022 5:09:34 AM",
    "timestamp": 1645880974000,
    "description": "Natural Gas Odor",
    "address": "819 Virginia St",
    "active": false,
    "unitCount": 1,
    "severity": 0,
    "lat": 47.61585,
    "long": -122.336428,
    "neighborhood": "Cascade/Eastlake",
    "neighborhoodGroup": "Lake Union",
    "units": "L4"
  },
  {
    "id_str": "F220023720",
    "created_at": "2/26/2022 5:06:09 AM",
    "timestamp": 1645880769000,
    "description": "Electrical Problem",
    "address": "3210 34th Ave S",
    "active": false,
    "unitCount": 1,
    "severity": 0,
    "lat": 47.575065,
    "long": -122.289864,
    "neighborhood": "Mt. Baker/North Rainier",
    "neighborhoodGroup": "Southeast",
    "units": "E30"
  },
  {
    "id_str": "F220023717",
    "created_at": "2/26/2022 4:47:05 AM",
    "timestamp": 1645879625000,
    "description": "Aid Response",
    "address": "Stone Ave N / N 115th St",
    "active": false,
    "unitCount": 1,
    "severity": 0,
    "lat": 47.712312,
    "long": -122.342124,
    "neighborhood": "Haller Lake",
    "neighborhoodGroup": "Northwest",
    "units": "E31"
  },
  {
    "id_str": "F220023716",
    "created_at": "2/26/2022 4:23:10 AM",
    "timestamp": 1645878190000,
    "description": "Aid Response",
    "address": "2215 1st Ave",
    "active": false,
    "unitCount": 1,
    "severity": 0,
    "lat": 47.612716,
    "long": -122.345399,
    "neighborhood": "Belltown",
    "neighborhoodGroup": "Downtown",
    "units": "A2"
  },
  {
    "id_str": "F220023715",
    "created_at": "2/26/2022 4:22:35 AM",
    "timestamp": 1645878155000,
    "description": "Medic Response, 7 per Rule",
    "address": "S King St / 10th Ave S",
    "active": false,
    "unitCount": 3,
    "severity": 0,
    "lat": 47.598348,
    "long": -122.319644,
    "neighborhood": "Pioneer Square/International District",
    "neighborhoodGroup": "Downtown",
    "units": "A10 E10 M10"
  },
  {
    "id_str": "F220023714",
    "created_at": "2/26/2022 4:19:17 AM",
    "timestamp": 1645877957000,
    "description": "Aid Response",
    "address": "3812 28th Ave W",
    "active": false,
    "unitCount": 1,
    "severity": 0,
    "lat": 47.654788,
    "long": -122.392908,
    "neighborhood": "Interbay",
    "neighborhoodGroup": "Magnolia/Queen Anne",
    "units": "E41"
  },
  {
    "id_str": "F220023712",
    "created_at": "2/26/2022 3:55:21 AM",
    "timestamp": 1645876521000,
    "description": "Rescue Elevator",
    "address": "415 10th Ave",
    "active": false,
    "unitCount": 1,
    "severity": 0,
    "lat": 47.605346,
    "long": -122.319413,
    "neighborhood": "First Hill",
    "neighborhoodGroup": "East",
    "units": "L10"
  },
  {
    "id_str": "F220023711",
    "created_at": "2/26/2022 3:52:45 AM",
    "timestamp": 1645876365000,
    "description": "Aid Response",
    "address": "709 W Blaine St",
    "active": false,
    "unitCount": 1,
    "severity": 0,
    "lat": 47.634714,
    "long": -122.366447,
    "neighborhood": "Queen Anne",
    "neighborhoodGroup": "Magnolia/Queen Anne",
    "units": "E8"
  },
  {
    "id_str": "F220023710",
    "created_at": "2/26/2022 3:44:43 AM",
    "timestamp": 1645875883000,
    "description": "1RED 1 Unit",
    "address": "14045 Greenwood Ave N",
    "active": false,
    "unitCount": 1,
    "severity": 0,
    "lat": 47.730765,
    "long": -122.355564,
    "neighborhood": "Broadview/Bitter Lake",
    "neighborhoodGroup": "Northwest",
    "units": "E24"
  },
  {
    "id_str": "F220023709",
    "created_at": "2/26/2022 3:40:42 AM",
    "timestamp": 1645875642000,
    "description": "Aid Response",
    "address": "1425 Western Ave",
    "active": false,
    "unitCount": 1,
    "severity": 0,
    "lat": 47.607607,
    "long": -122.340438,
    "neighborhood": "Downtown Commercial Core",
    "neighborhoodGroup": "Downtown",
    "units": "E5"
  },
  {
    "id_str": "F220023708",
    "created_at": "2/26/2022 3:39:30 AM",
    "timestamp": 1645875570000,
    "description": "Aid Response",
    "address": "8708 Rainier Ave S",
    "active": false,
    "unitCount": 1,
    "severity": 0,
    "lat": 47.52539,
    "long": -122.269984,
    "neighborhood": "Rainier Beach",
    "neighborhoodGroup": "Southeast",
    "units": "E33"
  },
  {
    "id_str": "F220023707",
    "created_at": "2/26/2022 3:31:28 AM",
    "timestamp": 1645875088000,
    "description": "Investigate Out Of Service",
    "address": "1212 Harrison St",
    "active": false,
    "unitCount": 1,
    "severity": 0,
    "lat": 47.621972,
    "long": -122.332673,
    "neighborhood": "Cascade/Eastlake",
    "neighborhoodGroup": "Lake Union",
    "units": "E2"
  },
  {
    "id_str": "F220023706",
    "created_at": "2/26/2022 3:18:43 AM",
    "timestamp": 1645874323000,
    "description": "Aid Response",
    "address": "5th Ave S / S Washington St",
    "active": false,
    "unitCount": 1,
    "severity": 0,
    "lat": 47.600873,
    "long": -122.32766,
    "neighborhood": "Pioneer Square/International District",
    "neighborhoodGroup": "Downtown",
    "units": "E10"
  },
  {
    "id_str": "F220023703",
    "created_at": "2/26/2022 3:02:13 AM",
    "timestamp": 1645873333000,
    "description": "Low Acuity Response",
    "address": "1005 Terrace St",
    "active": false,
    "unitCount": 1,
    "severity": 0,
    "lat": 47.604615,
    "long": -122.32228,
    "neighborhood": "First Hill",
    "neighborhoodGroup": "East",
    "units": "A5"
  },
  {
    "id_str": "F220023702",
    "created_at": "2/26/2022 2:59:25 AM",
    "timestamp": 1645873165000,
    "description": "Aid Response",
    "address": "1011 S Weller St",
    "active": false,
    "unitCount": 1,
    "severity": 0,
    "lat": 47.597509,
    "long": -122.319511,
    "neighborhood": "Pioneer Square/International District",
    "neighborhoodGroup": "Downtown",
    "units": "A10"
  },
  {
    "id_str": "F220023701",
    "created_at": "2/26/2022 2:44:48 AM",
    "timestamp": 1645872288000,
    "description": "Illegal Burn",
    "address": "N 115th St / Stone Ave N",
    "active": false,
    "unitCount": 1,
    "severity": 0,
    "lat": 47.712312,
    "long": -122.342124,
    "neighborhood": "Haller Lake",
    "neighborhoodGroup": "Northwest",
    "units": "E31"
  },
  {
    "id_str": "F220023700",
    "created_at": "2/26/2022 2:40:33 AM",
    "timestamp": 1645872033000,
    "description": "Aid Response",
    "address": "12507 Greenwood Ave N",
    "active": false,
    "unitCount": 1,
    "severity": 0,
    "lat": 47.719656,
    "long": -122.355539,
    "neighborhood": "Broadview/Bitter Lake",
    "neighborhoodGroup": "Northwest",
    "units": "E24"
  },
  {
    "id_str": "F220023699",
    "created_at": "2/26/2022 2:33:47 AM",
    "timestamp": 1645871627000,
    "description": "Aid Response",
    "address": "17th Ave / E Olive St",
    "active": false,
    "unitCount": 2,
    "severity": 0,
    "lat": 47.616443,
    "long": -122.310151,
    "neighborhood": "Central Area/Squire Park",
    "neighborhoodGroup": "Central",
    "units": "A25 E25"
  },
  {
    "id_str": "F220023698",
    "created_at": "2/26/2022 2:29:03 AM",
    "timestamp": 1645871343000,
    "description": "Aid Response",
    "address": "10507 Aurora Ave N",
    "active": false,
    "unitCount": 1,
    "severity": 0,
    "lat": 47.705096,
    "long": -122.344695,
    "neighborhood": "Licton Springs",
    "neighborhoodGroup": "Northwest",
    "units": "E31"
  },
  {
    "id_str": "F220023697",
    "created_at": "2/26/2022 2:27:32 AM",
    "timestamp": 1645871252000,
    "description": "Aid Response",
    "address": "509 3rd Ave",
    "active": false,
    "unitCount": 1,
    "severity": 0,
    "lat": 47.602114,
    "long": -122.330809,
    "neighborhood": "Downtown Commercial Core",
    "neighborhoodGroup": "Downtown",
    "units": "A5"
  },
  {
    "id_str": "F220023696",
    "created_at": "2/26/2022 2:24:37 AM",
    "timestamp": 1645871077000,
    "description": "Aid Response",
    "address": "1519 12th Ave",
    "active": false,
    "unitCount": 1,
    "severity": 0,
    "lat": 47.614317,
    "long": -122.316839,
    "neighborhood": "Capitol Hill",
    "neighborhoodGroup": "East",
    "units": "A25"
  },
  {
    "id_str": "F220023695",
    "created_at": "2/26/2022 2:19:42 AM",
    "timestamp": 1645870782000,
    "description": "4RED - 2 + 1 + 1",
    "address": "509 3rd Ave",
    "active": false,
    "unitCount": 4,
    "severity": 0,
    "lat": 47.602114,
    "long": -122.330809,
    "neighborhood": "Downtown Commercial Core",
    "neighborhoodGroup": "Downtown",
    "units": "B2 E10 E5 L1"
  },
  {
    "id_str": "F220023694",
    "created_at": "2/26/2022 2:03:49 AM",
    "timestamp": 1645869829000,
    "description": "Aid Response",
    "address": "N 35th St / Evanston Ave N",
    "active": false,
    "unitCount": 1,
    "severity": 0,
    "lat": 47.650739,
    "long": -122.351299,
    "neighborhood": "Fremont",
    "neighborhoodGroup": "Lake Union",
    "units": "E9"
  },
  {
    "id_str": "F220023693",
    "created_at": "2/26/2022 1:56:18 AM",
    "timestamp": 1645869378000,
    "description": "Aid Response",
    "address": "501 S Royal Brougham Way",
    "active": false,
    "unitCount": 1,
    "severity": 0,
    "lat": 47.592396,
    "long": -122.327325,
    "neighborhood": "Duwamish/SODO",
    "neighborhoodGroup": "Greater Duwamish",
    "units": "A10"
  },
  {
    "id_str": "F220023692",
    "created_at": "2/26/2022 1:47:35 AM",
    "timestamp": 1645868855000,
    "description": "Low Acuity Response",
    "address": "9811 California Ave Sw",
    "active": false,
    "unitCount": 1,
    "severity": 0,
    "lat": 47.515534,
    "long": -122.387511,
    "neighborhood": "Arbor Heights",
    "neighborhoodGroup": "Southwest",
    "units": "E37"
  },
  {
    "id_str": "F220023691",
    "created_at": "2/26/2022 1:39:27 AM",
    "timestamp": 1645868367000,
    "description": "Aid Response",
    "address": "1419 Nw 61st St",
    "active": false,
    "unitCount": 1,
    "severity": 0,
    "lat": 47.673087,
    "long": -122.374062,
    "neighborhood": "Whittier Heights",
    "neighborhoodGroup": "Ballard",
    "units": "E18"
  },
  {
    "id_str": "F220023689",
    "created_at": "2/26/2022 1:37:45 AM",
    "timestamp": 1645868265000,
    "description": "MVI - Motor Vehicle Incident",
    "address": "N 35th St / Evanston Ave N",
    "active": false,
    "unitCount": 1,
    "severity": 0,
    "lat": 47.650739,
    "long": -122.351299,
    "neighborhood": "Fremont",
    "neighborhoodGroup": "Lake Union",
    "units": "E9"
  },
  {
    "id_str": "F220023688",
    "created_at": "2/26/2022 1:36:40 AM",
    "timestamp": 1645868200000,
    "description": "Aid Response",
    "address": "1001 E James Way",
    "active": false,
    "unitCount": 1,
    "severity": 0,
    "lat": 47.607834,
    "long": -122.319302,
    "neighborhood": "First Hill",
    "neighborhoodGroup": "East",
    "units": "A25"
  },
  {
    "id_str": "F220023686",
    "created_at": "2/26/2022 1:24:42 AM",
    "timestamp": 1645867482000,
    "description": "Aid Response",
    "address": "4730 16TH AVE NE",
    "active": false,
    "unitCount": 1,
    "severity": 0,
    "lat": 47.664884,
    "long": -122.310802,
    "neighborhood": "University District",
    "neighborhoodGroup": "Northeast",
    "units": "E17"
  },
  {
    "id_str": "F220023685",
    "created_at": "2/26/2022 1:24:10 AM",
    "timestamp": 1645867450000,
    "description": "Aid Response",
    "address": "715 Spring St",
    "active": false,
    "unitCount": 1,
    "severity": 0,
    "lat": 47.608268,
    "long": -122.330056,
    "neighborhood": "First Hill",
    "neighborhoodGroup": "East",
    "units": "A5"
  },
  {
    "id_str": "F220023684",
    "created_at": "2/26/2022 1:23:11 AM",
    "timestamp": 1645867391000,
    "description": "Low Acuity Response",
    "address": "317 Marion St",
    "active": false,
    "unitCount": 1,
    "severity": 0,
    "lat": 47.604991,
    "long": -122.333174,
    "neighborhood": "Downtown Commercial Core",
    "neighborhoodGroup": "Downtown",
    "units": "A10"
  },
  {
    "id_str": "F220023682",
    "created_at": "2/26/2022 1:19:26 AM",
    "timestamp": 1645867166000,
    "description": "Aid Response",
    "address": "1921 1st Ave",
    "active": false,
    "unitCount": 1,
    "severity": 0,
    "lat": 47.610448,
    "long": -122.341563,
    "neighborhood": "Belltown",
    "neighborhoodGroup": "Downtown",
    "units": "A2"
  },
  {
    "id_str": "F220023679",
    "created_at": "2/26/2022 12:49:48 AM",
    "timestamp": 1645865388000,
    "description": "Aid Response",
    "address": "110 S Horton St",
    "active": false,
    "unitCount": 1,
    "severity": 0,
    "lat": 47.574386,
    "long": -122.333993,
    "neighborhood": "Duwamish/SODO",
    "neighborhoodGroup": "Greater Duwamish",
    "units": "A14"
  },
  {
    "id_str": "F220023677",
    "created_at": "2/26/2022 12:29:24 AM",
    "timestamp": 1645864164000,
    "description": "1RED 1 Unit",
    "address": "Highland Park Way Sw / 2nd Ave Sw",
    "active": false,
    "unitCount": 4,
    "severity": 0,
    "lat": 47.539813,
    "long": -122.337111,
    "neighborhood": "South Park",
    "neighborhoodGroup": "Greater Duwamish",
    "units": "B7 E11 E26 L13"
  },
  {
    "id_str": "F220023675",
    "created_at": "2/26/2022 12:21:43 AM",
    "timestamp": 1645863703000,
    "description": "Aid Response",
    "address": "14045 Corliss Ave N",
    "active": false,
    "unitCount": 1,
    "severity": 0,
    "lat": 47.73074,
    "long": -122.331557,
    "neighborhood": "Haller Lake",
    "neighborhoodGroup": "Northwest",
    "units": "E24"
  },
  {
    "id_str": "F220023674",
    "created_at": "2/26/2022 12:19:42 AM",
    "timestamp": 1645863582000,
    "description": "Hang-Up, Aid",
    "address": "4503 17th Ave Ne",
    "active": false,
    "unitCount": 2,
    "severity": 0,
    "lat": 47.661278,
    "long": -122.309724,
    "neighborhood": "University District",
    "neighborhoodGroup": "Northeast",
    "units": "E17 L9"
  },
  {
    "id_str": "F220023672",
    "created_at": "2/26/2022 12:14:05 AM",
    "timestamp": 1645863245000,
    "description": "4RED - 2 + 1 + 1",
    "address": "24th Ave S / S Massachusetts St",
    "active": false,
    "unitCount": 4,
    "severity": 0,
    "lat": 47.588345,
    "long": -122.301288,
    "neighborhood": "Mt. Baker/North Rainier",
    "neighborhoodGroup": "Southeast",
    "units": "B5 E30 E6 L3"
  },
  {
    "id_str": "F220023670",
    "created_at": "2/26/2022 12:12:38 AM",
    "timestamp": 1645863158000,
    "description": "Medic Response",
    "address": "515 Madison St",
    "active": false,
    "unitCount": 2,
    "severity": 0,
    "lat": 47.606624,
    "long": -122.331628,
    "neighborhood": "First Hill",
    "neighborhoodGroup": "East",
    "units": "A5 M1"
  },
  {
    "id_str": "F220023669",
    "created_at": "2/26/2022 12:06:46 AM",
    "timestamp": 1645862806000,
    "description": "Aid Response",
    "address": "2118 Halleck Ave Sw",
    "active": false,
    "unitCount": 1,
    "severity": 0,
    "lat": 47.584875,
    "long": -122.397748,
    "neighborhood": "Alki/Admiral",
    "neighborhoodGroup": "Southwest",
    "units": "E29"
  },
  {
    "id_str": "F220023668",
    "created_at": "2/26/2022 12:03:13 AM",
    "timestamp": 1645862593000,
    "description": "Aid Response",
    "address": "4710 19th Ave Ne",
    "active": false,
    "unitCount": 1,
    "severity": 0,
    "lat": 47.663106,
    "long": -122.307217,
    "neighborhood": "University District",
    "neighborhoodGroup": "Northeast",
    "units": "E17"
  },
  {
    "id_str": "F220023667",
    "created_at": "2/26/2022 12:01:13 AM",
    "timestamp": 1645862473000,
    "description": "Activated CO Detector",
    "address": "2209 1st Ave",
    "active": false,
    "unitCount": 1,
    "severity": 0,
    "lat": 47.612669,
    "long": -122.345319,
    "neighborhood": "Belltown",
    "neighborhoodGroup": "Downtown",
    "units": "L4"
  },
  {
    "id_str": "F220023666",
    "created_at": "2/25/2022 11:59:27 PM",
    "timestamp": 1645862367000,
    "description": "Aid Response",
    "address": "1001 E James Way",
    "active": false,
    "unitCount": 1,
    "severity": 0,
    "lat": 47.607834,
    "long": -122.319302,
    "neighborhood": "First Hill",
    "neighborhoodGroup": "East",
    "units": "E25"
  },
  {
    "id_str": "F220023664",
    "created_at": "2/25/2022 11:50:17 PM",
    "timestamp": 1645861817000,
    "description": "Activated CO Detector",
    "address": "1246 N Northgate Way",
    "active": false,
    "unitCount": 1,
    "severity": 0,
    "lat": 47.705049,
    "long": -122.342708,
    "neighborhood": "Licton Springs",
    "neighborhoodGroup": "Northwest",
    "units": "L5"
  },
  {
    "id_str": "F220023663",
    "created_at": "2/25/2022 11:47:08 PM",
    "timestamp": 1645861628000,
    "description": "Aid Response",
    "address": "13426 Greenwood Ave N",
    "active": false,
    "unitCount": 1,
    "severity": 0,
    "lat": 47.726728,
    "long": -122.355555,
    "neighborhood": "Broadview/Bitter Lake",
    "neighborhoodGroup": "Northwest",
    "units": "E24"
  },
  {
    "id_str": "F220023662",
    "created_at": "2/25/2022 11:43:27 PM",
    "timestamp": 1645861407000,
    "description": "Aid Response",
    "address": "817 Virginia St",
    "active": false,
    "unitCount": 2,
    "severity": 0,
    "lat": 47.615836,
    "long": -122.336446,
    "neighborhood": "Cascade/Eastlake",
    "neighborhoodGroup": "Lake Union",
    "units": "A2 E2"
  },
  {
    "id_str": "F220023660",
    "created_at": "2/25/2022 11:40:52 PM",
    "timestamp": 1645861252000,
    "description": "Aid Response",
    "address": "105 W Mercer St",
    "active": false,
    "unitCount": 1,
    "severity": 0,
    "lat": 47.624588,
    "long": -122.358069,
    "neighborhood": "Queen Anne",
    "neighborhoodGroup": "Magnolia/Queen Anne",
    "units": "E8"
  },
  {
    "id_str": "F220023658",
    "created_at": "2/25/2022 11:39:15 PM",
    "timestamp": 1645861155000,
    "description": "Aid Response",
    "address": "2nd Ave / Pike St",
    "active": false,
    "unitCount": 1,
    "severity": 0,
    "lat": 47.609285,
    "long": -122.338904,
    "neighborhood": "Downtown Commercial Core",
    "neighborhoodGroup": "Downtown",
    "units": "E5"
  },
  {
    "id_str": "F220023659",
    "created_at": "2/25/2022 11:39:14 PM",
    "timestamp": 1645861154000,
    "description": "Aid Response",
    "address": "3rd Ave / Pike St",
    "active": false,
    "unitCount": 1,
    "severity": 0,
    "lat": 47.60975,
    "long": -122.337793,
    "neighborhood": "Downtown Commercial Core",
    "neighborhoodGroup": "Downtown",
    "units": "A10"
  },
  {
    "id_str": "F220023657",
    "created_at": "2/25/2022 11:36:59 PM",
    "timestamp": 1645861019000,
    "description": "Aid Response",
    "address": "752 S Trenton St",
    "active": false,
    "unitCount": 1,
    "severity": 0,
    "lat": 47.524766,
    "long": -122.324268,
    "neighborhood": "South Park",
    "neighborhoodGroup": "Greater Duwamish",
    "units": "E26"
  },
  {
    "id_str": "F220023655",
    "created_at": "2/25/2022 11:35:58 PM",
    "timestamp": 1645860958000,
    "description": "Medic Response",
    "address": "1431 Minor Ave",
    "active": false,
    "unitCount": 2,
    "severity": 0,
    "lat": 47.613247,
    "long": -122.327187,
    "neighborhood": "Capitol Hill",
    "neighborhoodGroup": "East",
    "units": "A25 M1"
  },
  {
    "id_str": "F220023654",
    "created_at": "2/25/2022 11:35:22 PM",
    "timestamp": 1645860922000,
    "description": "Car Fire",
    "address": "S Hudson St / Utah Ave S",
    "active": false,
    "unitCount": 2,
    "severity": 0,
    "lat": 47.557412,
    "long": -122.335506,
    "neighborhood": "Duwamish/SODO",
    "neighborhoodGroup": "Greater Duwamish",
    "units": "E27 MAR5"
  },
  {
    "id_str": "F220023653",
    "created_at": "2/25/2022 11:31:37 PM",
    "timestamp": 1645860697000,
    "description": "Medic Response",
    "address": "3rd Ave / Pine St",
    "active": false,
    "unitCount": 2,
    "severity": 0,
    "lat": 47.610743,
    "long": -122.338702,
    "neighborhood": "Downtown Commercial Core",
    "neighborhoodGroup": "Downtown",
    "units": "A2 M10"
  },
  {
    "id_str": "F220023652",
    "created_at": "2/25/2022 11:27:45 PM",
    "timestamp": 1645860465000,
    "description": "Aid Response",
    "address": "204 Ne 94th St",
    "active": false,
    "unitCount": 1,
    "severity": 0,
    "lat": 47.69681,
    "long": -122.327101,
    "neighborhood": "Northgate/Maple Leaf",
    "neighborhoodGroup": "North",
    "units": "E16"
  },
  {
    "id_str": "F220023650",
    "created_at": "2/25/2022 11:26:44 PM",
    "timestamp": 1645860404000,
    "description": "Aid Response",
    "address": "10507 Aurora Ave N",
    "active": false,
    "unitCount": 1,
    "severity": 0,
    "lat": 47.705096,
    "long": -122.344695,
    "neighborhood": "Licton Springs",
    "neighborhoodGroup": "Northwest",
    "units": "L5"
  },
  {
    "id_str": "F220023649",
    "created_at": "2/25/2022 11:23:46 PM",
    "timestamp": 1645860226000,
    "description": "Aid Response",
    "address": "10200 1st Ave Ne",
    "active": false,
    "unitCount": 1,
    "severity": 0,
    "lat": 47.702577,
    "long": -122.328518,
    "neighborhood": "Northgate/Maple Leaf",
    "neighborhoodGroup": "North",
    "units": "E31"
  },
  {
    "id_str": "F220023648",
    "created_at": "2/25/2022 11:20:21 PM",
    "timestamp": 1645860021000,
    "description": "Unk Odor",
    "address": "10th Ave E / E Newton St",
    "active": false,
    "unitCount": 1,
    "severity": 0,
    "lat": 47.637252,
    "long": -122.32008,
    "neighborhood": "North Capitol Hill",
    "neighborhoodGroup": "East",
    "units": "E22"
  },
  {
    "id_str": "F220023646",
    "created_at": "2/25/2022 11:15:26 PM",
    "timestamp": 1645859726000,
    "description": "Aid Response",
    "address": "5727 37th Ave S",
    "active": false,
    "unitCount": 1,
    "severity": 0,
    "lat": 47.551024,
    "long": -122.286266,
    "neighborhood": "Columbia City",
    "neighborhoodGroup": "Southeast",
    "units": "E28"
  },
  {
    "id_str": "F220023645",
    "created_at": "2/25/2022 11:06:42 PM",
    "timestamp": 1645859202000,
    "description": "Aid Response",
    "address": "820 Nw 95th St",
    "active": false,
    "unitCount": 1,
    "severity": 0,
    "lat": 47.697867,
    "long": -122.367016,
    "neighborhood": "Greenwood/Phinney Ridge",
    "neighborhoodGroup": "Northwest",
    "units": "E35"
  },
  {
    "id_str": "F220023639",
    "created_at": "2/25/2022 10:46:55 PM",
    "timestamp": 1645858015000,
    "description": "Aid Response",
    "address": "5405 Leary Ave Nw",
    "active": false,
    "unitCount": 1,
    "severity": 0,
    "lat": 47.666943,
    "long": -122.382448,
    "neighborhood": "Ballard",
    "neighborhoodGroup": "Ballard",
    "units": "E18"
  },
  {
    "id_str": "F220023638",
    "created_at": "2/25/2022 10:46:00 PM",
    "timestamp": 1645857960000,
    "description": "Aid Response",
    "address": "10507 Aurora Ave N",
    "active": false,
    "unitCount": 1,
    "severity": 0,
    "lat": 47.705096,
    "long": -122.344695,
    "neighborhood": "Licton Springs",
    "neighborhoodGroup": "Northwest",
    "units": "L5"
  },
  {
    "id_str": "F220023637",
    "created_at": "2/25/2022 10:44:32 PM",
    "timestamp": 1645857872000,
    "description": "Aid Response",
    "address": "2757 36th Ave Sw",
    "active": false,
    "unitCount": 1,
    "severity": 0,
    "lat": 47.57892,
    "long": -122.37701,
    "neighborhood": "West Seattle Junction/Genesee Hill",
    "neighborhoodGroup": "Southwest",
    "units": "E29"
  },
  {
    "id_str": "F220023636",
    "created_at": "2/25/2022 10:39:57 PM",
    "timestamp": 1645857597000,
    "description": "Encampment Fire",
    "address": "7TH AVE NE / NE 45TH ST",
    "active": false,
    "unitCount": 1,
    "severity": 0,
    "lat": 47.661319,
    "long": -122.320728,
    "neighborhood": "Wallingford",
    "neighborhoodGroup": "Lake Union",
    "units": "E22"
  },
  {
    "id_str": "F220023635",
    "created_at": "2/25/2022 10:36:32 PM",
    "timestamp": 1645857392000,
    "description": "Aid Response",
    "address": "6th Ave S / S Royal Brougham Way",
    "active": false,
    "unitCount": 1,
    "severity": 0,
    "lat": 47.592393,
    "long": -122.325968,
    "neighborhood": "Duwamish/SODO",
    "neighborhoodGroup": "Greater Duwamish",
    "units": "A5"
  },
  {
    "id_str": "F220023634",
    "created_at": "2/25/2022 10:26:30 PM",
    "timestamp": 1645856790000,
    "description": "Aid Response",
    "address": "17th Ave Nw / Nw 51st St",
    "active": false,
    "unitCount": 1,
    "severity": 0,
    "lat": 47.665709,
    "long": -122.378888,
    "neighborhood": "Ballard",
    "neighborhoodGroup": "Ballard",
    "units": "L8"
  },
  {
    "id_str": "F220023632",
    "created_at": "2/25/2022 10:23:55 PM",
    "timestamp": 1645856635000,
    "description": "MVI - Motor Vehicle Incident",
    "address": "Aurora Ave N / N 95th St",
    "active": false,
    "unitCount": 1,
    "severity": 0,
    "lat": 47.697809,
    "long": -122.344608,
    "neighborhood": "Licton Springs",
    "neighborhoodGroup": "Northwest",
    "units": "L5"
  },
  {
    "id_str": "F220023631",
    "created_at": "2/25/2022 10:13:59 PM",
    "timestamp": 1645856039000,
    "description": "Medic Response",
    "address": "7923 M L King Jr Way S",
    "active": false,
    "unitCount": 2,
    "severity": 0,
    "lat": 47.530795,
    "long": -122.280778,
    "neighborhood": "South Beacon Hill/NewHolly",
    "neighborhoodGroup": "Greater Duwamish",
    "units": "E28 M28"
  },
  {
    "id_str": "F220023630",
    "created_at": "2/25/2022 10:04:21 PM",
    "timestamp": 1645855461000,
    "description": "Aid Response",
    "address": "6th Ave S / S Jackson St",
    "active": false,
    "unitCount": 1,
    "severity": 0,
    "lat": 47.599193,
    "long": -122.326361,
    "neighborhood": "Pioneer Square/International District",
    "neighborhoodGroup": "Downtown",
    "units": "A5"
  },
  {
    "id_str": "F220023629",
    "created_at": "2/25/2022 9:59:39 PM",
    "timestamp": 1645855179000,
    "description": "Aid Response",
    "address": "5th Ave Sw / Sw Roxbury St",
    "active": false,
    "unitCount": 1,
    "severity": 0,
    "lat": 47.517281,
    "long": -122.341601,
    "units": "E11"
  },
  {
    "id_str": "F220023628",
    "created_at": "2/25/2022 9:58:39 PM",
    "timestamp": 1645855119000,
    "description": "Aid Response",
    "address": "1414 1st Ave W",
    "active": false,
    "unitCount": 1,
    "severity": 0,
    "lat": 47.631444,
    "long": -122.357896,
    "neighborhood": "Queen Anne",
    "neighborhoodGroup": "Magnolia/Queen Anne",
    "units": "E8"
  },
  {
    "id_str": "F220023627",
    "created_at": "2/25/2022 9:55:13 PM",
    "timestamp": 1645854913000,
    "description": "Medic Response",
    "address": "11050 8th Ave Ne",
    "active": false,
    "unitCount": 2,
    "severity": 0,
    "lat": 47.708936,
    "long": -122.320569,
    "neighborhood": "Northgate/Maple Leaf",
    "neighborhoodGroup": "North",
    "units": "E31 M31"
  },
  {
    "id_str": "F220023624",
    "created_at": "2/25/2022 9:41:48 PM",
    "timestamp": 1645854108000,
    "description": "Low Acuity Response",
    "address": "9811 California Ave Sw",
    "active": false,
    "unitCount": 1,
    "severity": 0,
    "lat": 47.515534,
    "long": -122.387511,
    "neighborhood": "Arbor Heights",
    "neighborhoodGroup": "Southwest",
    "units": "E37"
  },
  {
    "id_str": "F220023621",
    "created_at": "2/25/2022 9:39:45 PM",
    "timestamp": 1645853985000,
    "description": "Rescue Extrication",
    "address": "5th Ave / Pike St",
    "active": false,
    "unitCount": 10,
    "severity": 2,
    "lat": 47.610678,
    "long": -122.335574,
    "neighborhood": "Downtown Commercial Core",
    "neighborhoodGroup": "Downtown",
    "units": "A14 B2 B5 E2 E5 L4 M10 M44 R1 SAFT2"
  },
  {
    "id_str": "F220023620",
    "created_at": "2/25/2022 9:36:54 PM",
    "timestamp": 1645853814000,
    "description": "Aid Response",
    "address": "4710 9th Ave Ne",
    "active": false,
    "unitCount": 1,
    "severity": 0,
    "lat": 47.663206,
    "long": -122.318397,
    "neighborhood": "Wallingford",
    "neighborhoodGroup": "Lake Union",
    "units": "E17"
  },
  {
    "id_str": "F220023619",
    "created_at": "2/25/2022 9:29:31 PM",
    "timestamp": 1645853371000,
    "description": "Aid Response",
    "address": "1526 3rd Ave",
    "active": false,
    "unitCount": 1,
    "severity": 0,
    "lat": 47.610003,
    "long": -122.338025,
    "neighborhood": "Downtown Commercial Core",
    "neighborhoodGroup": "Downtown",
    "units": "A10"
  },
  {
    "id_str": "F220023618",
    "created_at": "2/25/2022 9:26:28 PM",
    "timestamp": 1645853188000,
    "description": "Aid Response",
    "address": "225 Cedar St",
    "active": false,
    "unitCount": 1,
    "severity": 0,
    "lat": 47.616636,
    "long": -122.349538,
    "neighborhood": "Belltown",
    "neighborhoodGroup": "Downtown",
    "units": "A2"
  },
  {
    "id_str": "F220023617",
    "created_at": "2/25/2022 9:21:04 PM",
    "timestamp": 1645852864000,
    "description": "Illegal Burn",
    "address": "4201 37th Ave S",
    "active": false,
    "unitCount": 1,
    "severity": 0,
    "lat": 47.565402,
    "long": -122.286081,
    "neighborhood": "Columbia City",
    "neighborhoodGroup": "Southeast",
    "units": "E28"
  },
  {
    "id_str": "F220023616",
    "created_at": "2/25/2022 9:15:48 PM",
    "timestamp": 1645852548000,
    "description": "1RED 1 Unit",
    "address": "7821 Rainier Ave S",
    "active": false,
    "unitCount": 3,
    "severity": 0,
    "lat": 47.532401,
    "long": -122.269988,
    "neighborhood": "Seward Park",
    "neighborhoodGroup": "Southeast",
    "units": "E33 L12 MAR5"
  },
  {
    "id_str": "F220023615",
    "created_at": "2/25/2022 9:13:33 PM",
    "timestamp": 1645852413000,
    "description": "Illegal Burn",
    "address": "Rainier Ave S / 33rd Ave S",
    "active": false,
    "unitCount": 1,
    "severity": 0,
    "lat": 47.569938,
    "long": -122.291023,
    "neighborhood": "Columbia City",
    "neighborhoodGroup": "Southeast",
    "units": "E30"
  },
  {
    "id_str": "F220023614",
    "created_at": "2/25/2022 9:09:57 PM",
    "timestamp": 1645852197000,
    "description": "Aid Response",
    "address": "2836 Nw 67th St",
    "active": false,
    "unitCount": 1,
    "severity": 0,
    "lat": 47.677329,
    "long": -122.393445,
    "neighborhood": "Sunset Hill/Loyal Heights",
    "neighborhoodGroup": "Ballard",
    "units": "E18"
  },
  {
    "id_str": "F220023611",
    "created_at": "2/25/2022 8:59:54 PM",
    "timestamp": 1645851594000,
    "description": "Automatic Fire Alarm Resd",
    "address": "924 30th Ave S",
    "active": false,
    "unitCount": 1,
    "severity": 0,
    "lat": 47.594309,
    "long": -122.293326,
    "neighborhood": "Madrona/Leschi",
    "neighborhoodGroup": "Central",
    "units": "E6"
  },
  {
    "id_str": "F220023609",
    "created_at": "2/25/2022 8:58:26 PM",
    "timestamp": 1645851506000,
    "description": "Aid Response",
    "address": "4th Ave / Pine St",
    "active": false,
    "unitCount": 1,
    "severity": 0,
    "lat": 47.611207,
    "long": -122.337592,
    "neighborhood": "Downtown Commercial Core",
    "neighborhoodGroup": "Downtown",
    "units": "E2"
  },
  {
    "id_str": "F220023608",
    "created_at": "2/25/2022 8:54:56 PM",
    "timestamp": 1645851296000,
    "description": "Auto Fire Alarm",
    "address": "147 N 132nd St",
    "active": false,
    "unitCount": 2,
    "severity": 0,
    "lat": 47.725059,
    "long": -122.357384,
    "neighborhood": "Broadview/Bitter Lake",
    "neighborhoodGroup": "Northwest",
    "units": "E24 L5"
  },
  {
    "id_str": "F220023607",
    "created_at": "2/25/2022 8:46:14 PM",
    "timestamp": 1645850774000,
    "description": "Illegal Burn",
    "address": "3rd Ave / Pine St",
    "active": false,
    "unitCount": 1,
    "severity": 0,
    "lat": 47.610743,
    "long": -122.338702,
    "neighborhood": "Downtown Commercial Core",
    "neighborhoodGroup": "Downtown",
    "units": "E2"
  },
  {
    "id_str": "F220023606",
    "created_at": "2/25/2022 8:44:22 PM",
    "timestamp": 1645850662000,
    "description": "Aid Response",
    "address": "607 3rd Ave",
    "active": false,
    "unitCount": 1,
    "severity": 0,
    "lat": 47.602813,
    "long": -122.331449,
    "neighborhood": "Downtown Commercial Core",
    "neighborhoodGroup": "Downtown",
    "units": "A5"
  },
  {
    "id_str": "F220023604",
    "created_at": "2/25/2022 8:31:00 PM",
    "timestamp": 1645849860000,
    "description": "Aid Response",
    "address": "412 W Mercer St",
    "active": false,
    "unitCount": 1,
    "severity": 0,
    "lat": 47.624603,
    "long": -122.362081,
    "neighborhood": "Queen Anne",
    "neighborhoodGroup": "Magnolia/Queen Anne",
    "units": "A2"
  },
  {
    "id_str": "F220023603",
    "created_at": "2/25/2022 8:19:03 PM",
    "timestamp": 1645849143000,
    "description": "Aid Response",
    "address": "5014 39th Ave S",
    "active": false,
    "unitCount": 1,
    "severity": 0,
    "lat": 47.556919,
    "long": -122.283468,
    "neighborhood": "Columbia City",
    "neighborhoodGroup": "Southeast",
    "units": "E28"
  },
  {
    "id_str": "F220023602",
    "created_at": "2/25/2022 8:16:56 PM",
    "timestamp": 1645849016000,
    "description": "Medic Response",
    "address": "2800 Sw Barton St",
    "active": false,
    "unitCount": 2,
    "severity": 0,
    "lat": 47.521033,
    "long": -122.36873,
    "neighborhood": "Roxhill/Westwood",
    "neighborhoodGroup": "Delridge Neighborhoods",
    "units": "E37 M32"
  },
  {
    "id_str": "F220023601",
    "created_at": "2/25/2022 8:10:35 PM",
    "timestamp": 1645848635000,
    "description": "Aid Response",
    "address": "431 Boylston Ave E",
    "active": false,
    "unitCount": 1,
    "severity": 0,
    "lat": 47.622348,
    "long": -122.32307,
    "neighborhood": "Capitol Hill",
    "neighborhoodGroup": "East",
    "units": "A25"
  },
  {
    "id_str": "F220023599",
    "created_at": "2/25/2022 7:57:48 PM",
    "timestamp": 1645847868000,
    "description": "Aid Response",
    "address": "213 Pike St",
    "active": false,
    "unitCount": 3,
    "severity": 0,
    "lat": 47.609347,
    "long": -122.338757,
    "neighborhood": "Downtown Commercial Core",
    "neighborhoodGroup": "Downtown",
    "units": "A2 E5 M1"
  },
  {
    "id_str": "F220023598",
    "created_at": "2/25/2022 7:57:34 PM",
    "timestamp": 1645847854000,
    "description": "Aid Response",
    "address": "Aurora Ave N / N 75th St",
    "active": false,
    "unitCount": 1,
    "severity": 0,
    "lat": 47.683301,
    "long": -122.344484,
    "neighborhood": "Greenwood/Phinney Ridge",
    "neighborhoodGroup": "Northwest",
    "units": "E21"
  },
  {
    "id_str": "F220023597",
    "created_at": "2/25/2022 7:55:10 PM",
    "timestamp": 1645847710000,
    "description": "Medic Response",
    "address": "13030 Linden Ave N",
    "active": false,
    "unitCount": 2,
    "severity": 0,
    "lat": 47.723429,
    "long": -122.348165,
    "neighborhood": "Broadview/Bitter Lake",
    "neighborhoodGroup": "Northwest",
    "units": "E24 M31"
  },
  {
    "id_str": "F220023596",
    "created_at": "2/25/2022 7:53:31 PM",
    "timestamp": 1645847611000,
    "description": "Aid Response",
    "address": "3rd Ave / Bell St",
    "active": false,
    "unitCount": 1,
    "severity": 0,
    "lat": 47.614705,
    "long": -122.344794,
    "neighborhood": "Cascade/Eastlake",
    "neighborhoodGroup": "Lake Union",
    "units": "E2"
  },
  {
    "id_str": "F220023594",
    "created_at": "2/25/2022 7:42:56 PM",
    "timestamp": 1645846976000,
    "description": "Aid Response",
    "address": "3621 33rd Ave S",
    "active": false,
    "unitCount": 1,
    "severity": 0,
    "lat": 47.571408,
    "long": -122.291001,
    "neighborhood": "Columbia City",
    "neighborhoodGroup": "Southeast",
    "units": "E30"
  },
  {
    "id_str": "F220023592",
    "created_at": "2/25/2022 7:28:52 PM",
    "timestamp": 1645846132000,
    "description": "Aid Response",
    "address": "1410 E John St",
    "active": false,
    "unitCount": 1,
    "severity": 0,
    "lat": 47.61996,
    "long": -122.313736,
    "neighborhood": "Capitol Hill",
    "neighborhoodGroup": "East",
    "units": "A25"
  },
  {
    "id_str": "F220023591",
    "created_at": "2/25/2022 7:26:42 PM",
    "timestamp": 1645846002000,
    "description": "Aid Response",
    "address": "801 Alaskan Way",
    "active": false,
    "unitCount": 1,
    "severity": 0,
    "lat": 47.602348,
    "long": -122.337148,
    "neighborhood": "Downtown Commercial Core",
    "neighborhoodGroup": "Downtown",
    "units": "A10"
  },
  {
    "id_str": "F220023589",
    "created_at": "2/25/2022 7:20:01 PM",
    "timestamp": 1645845601000,
    "description": "Aid Response",
    "address": "10507 Aurora Ave N",
    "active": false,
    "unitCount": 1,
    "severity": 0,
    "lat": 47.705096,
    "long": -122.344695,
    "neighborhood": "Licton Springs",
    "neighborhoodGroup": "Northwest",
    "units": "E31"
  },
  {
    "id_str": "F220023586",
    "created_at": "2/25/2022 7:11:23 PM",
    "timestamp": 1645845083000,
    "description": "Auto Fire Alarm",
    "address": "2201 1st Ave",
    "active": false,
    "unitCount": 2,
    "severity": 0,
    "lat": 47.612606,
    "long": -122.345213,
    "neighborhood": "Belltown",
    "neighborhoodGroup": "Downtown",
    "units": "E5 L4"
  },
  {
    "id_str": "F220023585",
    "created_at": "2/25/2022 7:10:39 PM",
    "timestamp": 1645845039000,
    "description": "Rubbish Fire",
    "address": "211 Pine St",
    "active": false,
    "unitCount": 1,
    "severity": 0,
    "lat": 47.61033,
    "long": -122.339687,
    "neighborhood": "Downtown Commercial Core",
    "neighborhoodGroup": "Downtown",
    "units": "E2"
  },
  {
    "id_str": "F220023584",
    "created_at": "2/25/2022 7:08:39 PM",
    "timestamp": 1645844919000,
    "description": "Encampment Fire",
    "address": "1111 S Atlantic St",
    "active": false,
    "unitCount": 1,
    "severity": 0,
    "lat": 47.589986,
    "long": -122.317946,
    "neighborhood": "Duwamish/SODO",
    "neighborhoodGroup": "Greater Duwamish",
    "units": "E13"
  },
  {
    "id_str": "F220023582",
    "created_at": "2/25/2022 6:52:06 PM",
    "timestamp": 1645843926000,
    "description": "Aid Response Yellow",
    "address": "9701 Myers Way S",
    "active": false,
    "unitCount": 1,
    "severity": 0,
    "lat": 47.515953,
    "long": -122.331862,
    "units": "E11"
  },
  {
    "id_str": "F220023581",
    "created_at": "2/25/2022 6:50:42 PM",
    "timestamp": 1645843842000,
    "description": "Medic Response",
    "address": "111 33rd Ave E",
    "active": false,
    "unitCount": 3,
    "severity": 0,
    "lat": 47.618469,
    "long": -122.290114,
    "neighborhood": "Madrona/Leschi",
    "neighborhoodGroup": "Central",
    "units": "E34 M10 M17"
  },
  {
    "id_str": "F220023579",
    "created_at": "2/25/2022 6:47:51 PM",
    "timestamp": 1645843671000,
    "description": "MVI - Motor Vehicle Incident",
    "address": "West Marginal Way S / S Holden St",
    "active": false,
    "unitCount": 2,
    "severity": 0,
    "lat": 47.534148,
    "long": -122.332133,
    "neighborhood": "South Park",
    "neighborhoodGroup": "Greater Duwamish",
    "units": "E26 E27"
  },
  {
    "id_str": "F220023578",
    "created_at": "2/25/2022 6:46:02 PM",
    "timestamp": 1645843562000,
    "description": "Aid Response",
    "address": "2412 E Pine St",
    "active": false,
    "unitCount": 1,
    "severity": 0,
    "lat": 47.615311,
    "long": -122.301232,
    "neighborhood": "Central Area/Squire Park",
    "neighborhoodGroup": "Central",
    "units": "A25"
  },
  {
    "id_str": "F220023577",
    "created_at": "2/25/2022 6:37:05 PM",
    "timestamp": 1645843025000,
    "description": "Rubbish Fire",
    "address": "Dexter Ave N / Denny Way",
    "active": false,
    "unitCount": 1,
    "severity": 0,
    "lat": 47.61855,
    "long": -122.342402,
    "neighborhood": "Cascade/Eastlake",
    "neighborhoodGroup": "Lake Union",
    "units": "E2"
  },
  {
    "id_str": "F220023576",
    "created_at": "2/25/2022 6:37:02 PM",
    "timestamp": 1645843022000,
    "description": "Natural Gas Leak",
    "address": "2425 2nd Ave W",
    "active": false,
    "unitCount": 3,
    "severity": 0,
    "lat": 47.640046,
    "long": -122.359588,
    "neighborhood": "Queen Anne",
    "neighborhoodGroup": "Magnolia/Queen Anne",
    "units": "B4 E8 L4"
  },
  {
    "id_str": "F220023575",
    "created_at": "2/25/2022 6:29:55 PM",
    "timestamp": 1645842595000,
    "description": "Aid Response",
    "address": "S Henderson St / Rainier Ave S",
    "active": false,
    "unitCount": 1,
    "severity": 0,
    "lat": 47.523307,
    "long": -122.269986,
    "neighborhood": "Rainier Beach",
    "neighborhoodGroup": "Southeast",
    "units": "E33"
  },
  {
    "id_str": "F220023574",
    "created_at": "2/25/2022 6:28:41 PM",
    "timestamp": 1645842521000,
    "description": "Aid Response",
    "address": "3rd Ave / Yesler Way",
    "active": false,
    "unitCount": 1,
    "severity": 0,
    "lat": 47.601716,
    "long": -122.330265,
    "neighborhood": "Downtown Commercial Core",
    "neighborhoodGroup": "Downtown",
    "units": "A5"
  },
  {
    "id_str": "F220023571",
    "created_at": "2/25/2022 6:18:48 PM",
    "timestamp": 1645841928000,
    "description": "Aid Response",
    "address": "6TH AVE S / S ROYAL BROUGHAM WAY",
    "active": false,
    "unitCount": 1,
    "severity": 0,
    "lat": 47.593751,
    "long": -122.325968,
    "neighborhood": "Duwamish/SODO",
    "neighborhoodGroup": "Greater Duwamish",
    "units": "A10"
  },
  {
    "id_str": "F220023570",
    "created_at": "2/25/2022 6:15:58 PM",
    "timestamp": 1645841758000,
    "description": "Low Acuity Response",
    "address": "1110 8th Ave",
    "active": false,
    "unitCount": 1,
    "severity": 0,
    "lat": 47.608724,
    "long": -122.329184,
    "neighborhood": "First Hill",
    "neighborhoodGroup": "East",
    "units": "A5"
  },
  {
    "id_str": "F220023567",
    "created_at": "2/25/2022 6:09:17 PM",
    "timestamp": 1645841357000,
    "description": "Automatic Fire Alarm Resd",
    "address": "4524 Ne 92nd St",
    "active": false,
    "unitCount": 1,
    "severity": 0,
    "lat": 47.694875,
    "long": -122.279633,
    "neighborhood": "Wedgwood/View Ridge",
    "neighborhoodGroup": "Northeast",
    "units": "E40"
  },
  {
    "id_str": "F220023568",
    "created_at": "2/25/2022 6:08:58 PM",
    "timestamp": 1645841338000,
    "description": "Natural Gas Odor",
    "address": "6909 Weedin Pl Ne",
    "active": false,
    "unitCount": 1,
    "severity": 0,
    "lat": 47.678848,
    "long": -122.322117,
    "neighborhood": "Green Lake",
    "neighborhoodGroup": "Northwest",
    "units": "L9"
  },
  {
    "id_str": "F220023566",
    "created_at": "2/25/2022 6:06:27 PM",
    "timestamp": 1645841187000,
    "description": "Medic Response",
    "address": "950 E Madison St",
    "active": false,
    "unitCount": 2,
    "severity": 0,
    "lat": 47.611542,
    "long": -122.319866,
    "neighborhood": "Capitol Hill",
    "neighborhoodGroup": "East",
    "units": "E25 M1"
  },
  {
    "id_str": "F220023565",
    "created_at": "2/25/2022 6:05:30 PM",
    "timestamp": 1645841130000,
    "description": "Aid Response",
    "address": "1701 18th Ave S",
    "active": false,
    "unitCount": 1,
    "severity": 0,
    "lat": 47.588414,
    "long": -122.309467,
    "neighborhood": "North Beacon Hill/Jefferson Park",
    "neighborhoodGroup": "Greater Duwamish",
    "units": "E6"
  },
  {
    "id_str": "F220023562",
    "created_at": "2/25/2022 6:03:19 PM",
    "timestamp": 1645840999000,
    "description": "MVI - Motor Vehicle Incident",
    "address": "N 88th St / Nesbit Ave N",
    "active": false,
    "unitCount": 1,
    "severity": 0,
    "lat": 47.692373,
    "long": -122.343468,
    "neighborhood": "Licton Springs",
    "neighborhoodGroup": "Northwest",
    "units": "E31"
  },
  {
    "id_str": "F220023561",
    "created_at": "2/25/2022 6:00:23 PM",
    "timestamp": 1645840823000,
    "description": "Aid Response",
    "address": "3rd Ave / Blanchard St",
    "active": false,
    "unitCount": 1,
    "severity": 0,
    "lat": 47.613936,
    "long": -122.343494,
    "neighborhood": "Cascade/Eastlake",
    "neighborhoodGroup": "Lake Union",
    "units": "A2"
  },
  {
    "id_str": "F220023560",
    "created_at": "2/25/2022 5:50:37 PM",
    "timestamp": 1645840237000,
    "description": "Aid Response",
    "address": "1401 2nd Ave",
    "active": false,
    "unitCount": 1,
    "severity": 0,
    "lat": 47.608292,
    "long": -122.337995,
    "neighborhood": "Downtown Commercial Core",
    "neighborhoodGroup": "Downtown",
    "units": "A5"
  },
  {
    "id_str": "F220023559",
    "created_at": "2/25/2022 5:46:50 PM",
    "timestamp": 1645840010000,
    "description": "Auto Fire Alarm",
    "address": "5444 Delridge Way Sw",
    "active": false,
    "unitCount": 2,
    "severity": 0,
    "lat": 47.553321,
    "long": -122.362969,
    "neighborhood": "High Point",
    "neighborhoodGroup": "Delridge Neighborhoods",
    "units": "E36 L13"
  },
  {
    "id_str": "F220023558",
    "created_at": "2/25/2022 5:44:49 PM",
    "timestamp": 1645839889000,
    "description": "Aid Response",
    "address": "2622 42nd Ave Sw",
    "active": false,
    "unitCount": 1,
    "severity": 0,
    "lat": 47.580772,
    "long": -122.385189,
    "neighborhood": "West Seattle Junction/Genesee Hill",
    "neighborhoodGroup": "Southwest",
    "units": "E29"
  },
  {
    "id_str": "F220023555",
    "created_at": "2/25/2022 5:37:54 PM",
    "timestamp": 1645839474000,
    "description": "Aid Response",
    "address": "621 S King St",
    "active": false,
    "unitCount": 1,
    "severity": 0,
    "lat": 47.598353,
    "long": -122.325793,
    "neighborhood": "Pioneer Square/International District",
    "neighborhoodGroup": "Downtown",
    "units": "E10"
  },
  {
    "id_str": "F220023553",
    "created_at": "2/25/2022 5:35:32 PM",
    "timestamp": 1645839332000,
    "description": "Aid Response",
    "address": "10345 Meridian Ave N",
    "active": false,
    "unitCount": 1,
    "severity": 0,
    "lat": 47.703624,
    "long": -122.333909,
    "neighborhood": "Northgate/Maple Leaf",
    "neighborhoodGroup": "North",
    "units": "L5"
  },
  {
    "id_str": "F220023552",
    "created_at": "2/25/2022 5:33:40 PM",
    "timestamp": 1645839220000,
    "description": "Medic Response",
    "address": "1039 6th Ave S",
    "active": false,
    "unitCount": 2,
    "severity": 0,
    "lat": 47.593751,
    "long": -122.325968,
    "neighborhood": "Duwamish/SODO",
    "neighborhoodGroup": "Greater Duwamish",
    "units": "A10 M10"
  },
  {
    "id_str": "F220023551",
    "created_at": "2/25/2022 5:31:10 PM",
    "timestamp": 1645839070000,
    "description": "AFA4 - Auto Alarm 2 + 1 + 1",
    "address": "1521 Nw 54th St",
    "active": false,
    "unitCount": 2,
    "severity": 0,
    "lat": 47.667891,
    "long": -122.376486,
    "neighborhood": "Ballard",
    "neighborhoodGroup": "Ballard",
    "units": "E20 L9"
  },
  {
    "id_str": "F220023549",
    "created_at": "2/25/2022 5:23:33 PM",
    "timestamp": 1645838613000,
    "description": "Medic Response, 7 per Rule",
    "address": "6719 17th Ave Nw",
    "active": false,
    "unitCount": 3,
    "severity": 0,
    "lat": 47.677823,
    "long": -122.378908,
    "neighborhood": "Whittier Heights",
    "neighborhoodGroup": "Ballard",
    "units": "E18 L8 M18"
  },
  {
    "id_str": "F220023548",
    "created_at": "2/25/2022 5:22:58 PM",
    "timestamp": 1645838578000,
    "description": "Aid Response",
    "address": "3905 W Bertona St",
    "active": false,
    "unitCount": 1,
    "severity": 0,
    "lat": 47.650448,
    "long": -122.407269,
    "neighborhood": "Magnolia",
    "neighborhoodGroup": "Magnolia/Queen Anne",
    "units": "E41"
  },
  {
    "id_str": "F220023547",
    "created_at": "2/25/2022 5:22:13 PM",
    "timestamp": 1645838533000,
    "description": "Aid Response",
    "address": "5827 16th Ave Ne",
    "active": false,
    "unitCount": 1,
    "severity": 0,
    "lat": 47.671764,
    "long": -122.310769,
    "neighborhood": "University District",
    "neighborhoodGroup": "Northeast",
    "units": "E17"
  },
  {
    "id_str": "F220023546",
    "created_at": "2/25/2022 5:20:58 PM",
    "timestamp": 1645838458000,
    "description": "Auto Fire Alarm",
    "address": "2113 N 107th St",
    "active": false,
    "unitCount": 2,
    "severity": 0,
    "lat": 47.706842,
    "long": -122.332778,
    "neighborhood": "Northgate/Maple Leaf",
    "neighborhoodGroup": "North",
    "units": "E31 L5"
  },
  {
    "id_str": "F220023543",
    "created_at": "2/25/2022 5:13:54 PM",
    "timestamp": 1645838034000,
    "description": "Aid Response",
    "address": "3rd Ave / Union St",
    "active": false,
    "unitCount": 1,
    "severity": 0,
    "lat": 47.608756,
    "long": -122.336885,
    "neighborhood": "Downtown Commercial Core",
    "neighborhoodGroup": "Downtown",
    "units": "A5"
  },
  {
    "id_str": "F220023544",
    "created_at": "2/25/2022 5:13:37 PM",
    "timestamp": 1645838017000,
    "description": "Aid Response",
    "address": "1811 20th Ave",
    "active": false,
    "unitCount": 1,
    "severity": 0,
    "lat": 47.617954,
    "long": -122.306091,
    "neighborhood": "Central Area/Squire Park",
    "neighborhoodGroup": "Central",
    "units": "A25"
  },
  {
    "id_str": "F220023540",
    "created_at": "2/25/2022 5:10:04 PM",
    "timestamp": 1645837804000,
    "description": "Aid Response",
    "address": "2342 20th Ave S",
    "active": false,
    "unitCount": 1,
    "severity": 0,
    "lat": 47.582545,
    "long": -122.30687,
    "neighborhood": "North Beacon Hill/Jefferson Park",
    "neighborhoodGroup": "Greater Duwamish",
    "units": "E30"
  },
  {
    "id_str": "F220023539",
    "created_at": "2/25/2022 5:05:46 PM",
    "timestamp": 1645837546000,
    "description": "Automatic Fire Alarm Resd",
    "address": "5652 26th Ave Sw",
    "active": false,
    "unitCount": 1,
    "severity": 0,
    "lat": 47.551616,
    "long": -122.365565,
    "neighborhood": "High Point",
    "neighborhoodGroup": "Delridge Neighborhoods",
    "units": "E11"
  },
  {
    "id_str": "F220023538",
    "created_at": "2/25/2022 5:05:16 PM",
    "timestamp": 1645837516000,
    "description": "Automatic Fire Alarm Resd",
    "address": "2717 11th Ave E",
    "active": false,
    "unitCount": 1,
    "severity": 0,
    "lat": 47.644671,
    "long": -122.318335,
    "neighborhood": "Montlake/Portage Bay",
    "neighborhoodGroup": "Northeast",
    "units": "E22"
  },
  {
    "id_str": "F220023537",
    "created_at": "2/25/2022 4:45:39 PM",
    "timestamp": 1645836339000,
    "description": "Illegal Burn",
    "address": "19th Ave E / E Interlaken Blvd",
    "active": false,
    "unitCount": 1,
    "severity": 0,
    "lat": 47.637106,
    "long": -122.308868,
    "neighborhood": "Montlake/Portage Bay",
    "neighborhoodGroup": "Northeast",
    "units": "E22"
  },
  {
    "id_str": "F220023536",
    "created_at": "2/25/2022 4:39:59 PM",
    "timestamp": 1645835999000,
    "description": "Aid Response",
    "address": "334 1st Ave N",
    "active": false,
    "unitCount": 2,
    "severity": 0,
    "lat": 47.621329,
    "long": -122.355431,
    "neighborhood": "Queen Anne",
    "neighborhoodGroup": "Magnolia/Queen Anne",
    "units": "A2 E2"
  },
  {
    "id_str": "F220023535",
    "created_at": "2/25/2022 4:36:34 PM",
    "timestamp": 1645835794000,
    "description": "Aid Response",
    "address": "8005 Sand Point Way Ne",
    "active": false,
    "unitCount": 1,
    "severity": 0,
    "lat": 47.687429,
    "long": -122.265462,
    "neighborhood": "Laurelhurst/Sand Point",
    "neighborhoodGroup": "Northeast",
    "units": "E40"
  },
  {
    "id_str": "F220023534",
    "created_at": "2/25/2022 4:36:06 PM",
    "timestamp": 1645835766000,
    "description": "Rubbish Fire",
    "address": "Rainier Ave S / S Henderson St",
    "active": false,
    "unitCount": 1,
    "severity": 0,
    "lat": 47.523307,
    "long": -122.269986,
    "neighborhood": "Rainier Beach",
    "neighborhoodGroup": "Southeast",
    "units": "E33"
  },
  {
    "id_str": "F220023530",
    "created_at": "2/25/2022 4:32:42 PM",
    "timestamp": 1645835562000,
    "description": "Illegal Burn",
    "address": "W Mercer Pl / W Roy St",
    "active": false,
    "unitCount": 1,
    "severity": 0,
    "lat": 47.626585,
    "long": -122.368357,
    "neighborhood": "Queen Anne",
    "neighborhoodGroup": "Magnolia/Queen Anne",
    "units": "E8"
  },
  {
    "id_str": "F220023529",
    "created_at": "2/25/2022 4:29:18 PM",
    "timestamp": 1645835358000,
    "description": "Rescue Elevator",
    "address": "600 Pine St",
    "active": false,
    "unitCount": 1,
    "severity": 0,
    "lat": 47.612136,
    "long": -122.335373,
    "neighborhood": "First Hill",
    "neighborhoodGroup": "East",
    "units": "L10"
  },
  {
    "id_str": "F220023528",
    "created_at": "2/25/2022 4:24:47 PM",
    "timestamp": 1645835087000,
    "description": "Aid Response",
    "address": "2312 3rd Ave",
    "active": false,
    "unitCount": 1,
    "severity": 0,
    "lat": 47.614791,
    "long": -122.34494,
    "neighborhood": "Cascade/Eastlake",
    "neighborhoodGroup": "Lake Union",
    "units": "A2"
  },
  {
    "id_str": "F220023525",
    "created_at": "2/25/2022 4:19:53 PM",
    "timestamp": 1645834793000,
    "description": "Aid Response",
    "address": "500 5th Ave",
    "active": false,
    "unitCount": 1,
    "severity": 0,
    "lat": 47.602985,
    "long": -122.328535,
    "neighborhood": "First Hill",
    "neighborhoodGroup": "East",
    "units": "A5"
  },
  {
    "id_str": "F220023526",
    "created_at": "2/25/2022 4:19:32 PM",
    "timestamp": 1645834772000,
    "description": "Rescue Elevator",
    "address": "600 Pine St",
    "active": false,
    "unitCount": 1,
    "severity": 0,
    "lat": 47.612136,
    "long": -122.335373,
    "neighborhood": "First Hill",
    "neighborhoodGroup": "East",
    "units": "L4"
  },
  {
    "id_str": "F220023524",
    "created_at": "2/25/2022 4:19:05 PM",
    "timestamp": 1645834745000,
    "description": "Medic Response",
    "address": "6956 57th Ave Ne",
    "active": false,
    "unitCount": 2,
    "severity": 0,
    "lat": 47.679059,
    "long": -122.266835,
    "neighborhood": "Laurelhurst/Sand Point",
    "neighborhoodGroup": "Northeast",
    "units": "E38 M17"
  },
  {
    "id_str": "F220023523",
    "created_at": "2/25/2022 4:13:53 PM",
    "timestamp": 1645834433000,
    "description": "Low Acuity Response",
    "address": "4402 Woodlawn Ave N",
    "active": false,
    "unitCount": 1,
    "severity": 0,
    "lat": 47.660335,
    "long": -122.338579,
    "neighborhood": "Wallingford",
    "neighborhoodGroup": "Lake Union",
    "units": "E9"
  },
  {
    "id_str": "F220023522",
    "created_at": "2/25/2022 4:13:18 PM",
    "timestamp": 1645834398000,
    "description": "Aid Response",
    "address": "9044 21st Ave Sw",
    "active": false,
    "unitCount": 1,
    "severity": 0,
    "lat": 47.522454,
    "long": -122.360497,
    "neighborhood": "Roxhill/Westwood",
    "neighborhoodGroup": "Delridge Neighborhoods",
    "units": "E11"
  },
  {
    "id_str": "F220023521",
    "created_at": "2/25/2022 4:11:51 PM",
    "timestamp": 1645834311000,
    "description": "Aid Response",
    "address": "411 3rd Ave",
    "active": false,
    "unitCount": 1,
    "severity": 0,
    "lat": 47.601751,
    "long": -122.330315,
    "neighborhood": "Downtown Commercial Core",
    "neighborhoodGroup": "Downtown",
    "units": "A10"
  },
  {
    "id_str": "F220023519",
    "created_at": "2/25/2022 4:08:49 PM",
    "timestamp": 1645834129000,
    "description": "Rescue Elevator",
    "address": "2600 Sw Holden St",
    "active": false,
    "unitCount": 1,
    "severity": 0,
    "lat": 47.533703,
    "long": -122.365816,
    "neighborhood": "Roxhill/Westwood",
    "neighborhoodGroup": "Delridge Neighborhoods",
    "units": "L13"
  },
  {
    "id_str": "F220023518",
    "created_at": "2/25/2022 4:08:08 PM",
    "timestamp": 1645834088000,
    "description": "Water Job Minor",
    "address": "2441 Nw 63rd St",
    "active": false,
    "unitCount": 1,
    "severity": 0,
    "lat": 47.674556,
    "long": -122.3881,
    "neighborhood": "Sunset Hill/Loyal Heights",
    "neighborhoodGroup": "Ballard",
    "units": "L8"
  },
  {
    "id_str": "F220023517",
    "created_at": "2/25/2022 4:04:29 PM",
    "timestamp": 1645833869000,
    "description": "Automatic Fire Alarm False",
    "address": "200 Pike St",
    "active": false,
    "unitCount": 1,
    "severity": 0,
    "lat": 47.609285,
    "long": -122.338904,
    "neighborhood": "Downtown Commercial Core",
    "neighborhoodGroup": "Downtown",
    "units": "E2"
  }
]