[
  {
    "id_str": "F220031036",
    "created_at": "3/16/2022 4:51:58 PM",
    "timestamp": 1647474718000,
    "description": "Medic Response",
    "address": "7930 Occidental Ave S",
    "active": false,
    "unitCount": 2,
    "severity": 0,
    "lat": 47.53182,
    "long": -122.334313,
    "neighborhood": "South Park",
    "neighborhoodGroup": "Greater Duwamish",
    "units": "E26 M26"
  },
  {
    "id_str": "F220031035",
    "created_at": "3/16/2022 4:49:50 PM",
    "timestamp": 1647474590000,
    "description": "Aid Response",
    "address": "715 27th Ave",
    "active": false,
    "unitCount": 1,
    "severity": 0,
    "lat": 47.608143,
    "long": -122.29756,
    "neighborhood": "Central Area/Squire Park",
    "neighborhoodGroup": "Central",
    "units": "E6"
  },
  {
    "id_str": "F220031034",
    "created_at": "3/16/2022 4:48:50 PM",
    "timestamp": 1647474530000,
    "description": "Advised Incident",
    "address": "2nd Ave / Stewart St",
    "active": false,
    "unitCount": 1,
    "severity": 0,
    "lat": 47.610964,
    "long": -122.340452,
    "neighborhood": "Belltown",
    "neighborhoodGroup": "Downtown",
    "units": "A4"
  },
  {
    "id_str": "B220031033",
    "created_at": "3/16/2022 4:46:12 PM",
    "timestamp": 1647474372000,
    "description": "Fuel Spill",
    "address": "120 NE 103RD ST",
    "active": false,
    "unitCount": 1,
    "severity": 0,
    "lat": 47.703178,
    "long": -122.328266,
    "neighborhood": "Northgate/Maple Leaf",
    "neighborhoodGroup": "North",
    "units": "E31"
  },
  {
    "id_str": "F220031031",
    "created_at": "3/16/2022 4:30:56 PM",
    "timestamp": 1647473456000,
    "description": "Aid Response",
    "address": "1710 S JACKSON ST",
    "active": false,
    "unitCount": 2,
    "severity": 0,
    "lat": 47.599233,
    "long": -122.310139,
    "neighborhood": "Judkins Park",
    "neighborhoodGroup": "Central",
    "units": "E6 L3"
  },
  {
    "id_str": "F220031029",
    "created_at": "3/16/2022 4:27:05 PM",
    "timestamp": 1647473225000,
    "description": "Aid Response",
    "address": "6900 37TH AVE S",
    "active": false,
    "unitCount": 1,
    "severity": 0,
    "lat": 47.540654,
    "long": -122.286239,
    "neighborhood": "South Beacon Hill/NewHolly",
    "neighborhoodGroup": "Greater Duwamish",
    "units": "E28"
  },
  {
    "id_str": "F220031028",
    "created_at": "3/16/2022 4:25:51 PM",
    "timestamp": 1647473151000,
    "description": "Aid Response",
    "address": "2614 4th Ave",
    "active": false,
    "unitCount": 1,
    "severity": 0,
    "lat": 47.617316,
    "long": -122.347229,
    "neighborhood": "Cascade/Eastlake",
    "neighborhoodGroup": "Lake Union",
    "units": "A2"
  },
  {
    "id_str": "F220031026",
    "created_at": "3/16/2022 4:19:09 PM",
    "timestamp": 1647472749000,
    "description": "Aid Response",
    "address": "1530 Nw 57th St",
    "active": false,
    "unitCount": 1,
    "severity": 0,
    "lat": 47.670172,
    "long": -122.376604,
    "neighborhood": "Ballard",
    "neighborhoodGroup": "Ballard",
    "units": "E18"
  },
  {
    "id_str": "F220031025",
    "created_at": "3/16/2022 4:14:24 PM",
    "timestamp": 1647472464000,
    "description": "Medic Response",
    "address": "3224 4th Ave S",
    "active": false,
    "unitCount": 2,
    "severity": 0,
    "lat": 47.575283,
    "long": -122.329059,
    "neighborhood": "Duwamish/SODO",
    "neighborhoodGroup": "Greater Duwamish",
    "units": "A14 M10"
  },
  {
    "id_str": "F220031024",
    "created_at": "3/16/2022 4:11:18 PM",
    "timestamp": 1647472278000,
    "description": "Rescue Lock In/Out",
    "address": "Meridian Ave N / N 49th St",
    "active": false,
    "unitCount": 1,
    "severity": 0,
    "lat": 47.664292,
    "long": -122.333725,
    "neighborhood": "Wallingford",
    "neighborhoodGroup": "Lake Union",
    "units": "E17"
  },
  {
    "id_str": "F220031021",
    "created_at": "3/16/2022 4:06:46 PM",
    "timestamp": 1647472006000,
    "description": "Aid Response",
    "address": "7300 Roosevelt Way Ne",
    "active": false,
    "unitCount": 1,
    "severity": 0,
    "lat": 47.681554,
    "long": -122.317457,
    "neighborhood": "Ravenna/Bryant",
    "neighborhoodGroup": "Northeast",
    "units": "E16"
  },
  {
    "id_str": "F220031020",
    "created_at": "3/16/2022 4:05:33 PM",
    "timestamp": 1647471933000,
    "description": "Low Acuity Response",
    "address": "132 N 132nd St",
    "active": false,
    "unitCount": 1,
    "severity": 0,
    "lat": 47.725062,
    "long": -122.358037,
    "neighborhood": "Broadview/Bitter Lake",
    "neighborhoodGroup": "Northwest",
    "units": "E24"
  },
  {
    "id_str": "F220031019",
    "created_at": "3/16/2022 3:57:13 PM",
    "timestamp": 1647471433000,
    "description": "MVI - Motor Vehicle Incident",
    "address": "1200 Mercer St",
    "active": false,
    "unitCount": 1,
    "severity": 0,
    "lat": 47.624269,
    "long": -122.333007,
    "neighborhood": "Cascade/Eastlake",
    "neighborhoodGroup": "Lake Union",
    "units": "E2"
  },
  {
    "id_str": "F220031018",
    "created_at": "3/16/2022 3:54:41 PM",
    "timestamp": 1647471281000,
    "description": "Low Acuity Response",
    "address": "2nd Ave S / S Spokane St",
    "active": false,
    "unitCount": 1,
    "severity": 0,
    "lat": 47.571406,
    "long": -122.332007,
    "neighborhood": "Duwamish/SODO",
    "neighborhoodGroup": "Greater Duwamish",
    "units": "H1"
  },
  {
    "id_str": "F220031017",
    "created_at": "3/16/2022 3:48:50 PM",
    "timestamp": 1647470930000,
    "description": "Medic Response",
    "address": "15th Ave W Nb On Rp / W Dravus St",
    "active": false,
    "unitCount": 2,
    "severity": 0,
    "lat": 47.648468,
    "long": -122.376109,
    "neighborhood": "Interbay",
    "neighborhoodGroup": "Magnolia/Queen Anne",
    "units": "E20 M18"
  },
  {
    "id_str": "F220031016",
    "created_at": "3/16/2022 3:46:34 PM",
    "timestamp": 1647470794000,
    "description": "Low Acuity Response",
    "address": "2814 Nw 94th St",
    "active": false,
    "unitCount": 1,
    "severity": 0,
    "lat": 47.697514,
    "long": -122.393169,
    "neighborhood": "North Beach/Blue Ridge",
    "neighborhoodGroup": "Ballard",
    "units": "E35"
  },
  {
    "id_str": "F220031015",
    "created_at": "3/16/2022 3:40:22 PM",
    "timestamp": 1647470422000,
    "description": "Medic Response",
    "address": "1118 5th Ave",
    "active": false,
    "unitCount": 2,
    "severity": 0,
    "lat": 47.60739,
    "long": -122.332564,
    "neighborhood": "Downtown Commercial Core",
    "neighborhoodGroup": "Downtown",
    "units": "A5 M1"
  },
  {
    "id_str": "F220031014",
    "created_at": "3/16/2022 3:38:32 PM",
    "timestamp": 1647470312000,
    "description": "MVI - Motor Vehicle Incident",
    "address": "4628 S Chicago St",
    "active": false,
    "unitCount": 1,
    "severity": 0,
    "lat": 47.532628,
    "long": -122.274938,
    "neighborhood": "Columbia City",
    "neighborhoodGroup": "Southeast",
    "units": "E28"
  },
  {
    "id_str": "F220031013",
    "created_at": "3/16/2022 3:36:45 PM",
    "timestamp": 1647470205000,
    "description": "Aid Response",
    "address": "4602 Sw Cloverdale St",
    "active": false,
    "unitCount": 1,
    "severity": 0,
    "lat": 47.526777,
    "long": -122.391572,
    "neighborhood": "Fauntleroy/Seaview",
    "neighborhoodGroup": "Southwest",
    "units": "L13"
  },
  {
    "id_str": "F220031011",
    "created_at": "3/16/2022 3:28:34 PM",
    "timestamp": 1647469714000,
    "description": "Auto Fire Alarm",
    "address": "308 14th Ave E",
    "active": false,
    "unitCount": 2,
    "severity": 0,
    "lat": 47.62118,
    "long": -122.314685,
    "neighborhood": "Capitol Hill",
    "neighborhoodGroup": "East",
    "units": "E25 L10"
  },
  {
    "id_str": "F220031010",
    "created_at": "3/16/2022 3:25:31 PM",
    "timestamp": 1647469531000,
    "description": "Aid Response",
    "address": "5924 35th Ave Sw",
    "active": false,
    "unitCount": 2,
    "severity": 0,
    "lat": 47.549697,
    "long": -122.376346,
    "neighborhood": "High Point",
    "neighborhoodGroup": "Delridge Neighborhoods",
    "units": "E37 L13"
  },
  {
    "id_str": "F220031009",
    "created_at": "3/16/2022 3:21:09 PM",
    "timestamp": 1647469269000,
    "description": "Aid Response",
    "address": "6940 62nd Ave Ne",
    "active": false,
    "unitCount": 1,
    "severity": 0,
    "lat": 47.678821,
    "long": -122.262227,
    "neighborhood": "Laurelhurst/Sand Point",
    "neighborhoodGroup": "Northeast",
    "units": "E38"
  },
  {
    "id_str": "F220031006",
    "created_at": "3/16/2022 3:14:32 PM",
    "timestamp": 1647468872000,
    "description": "Aid Response",
    "address": "3731 Sw Southern St",
    "active": false,
    "unitCount": 1,
    "severity": 0,
    "lat": 47.529823,
    "long": -122.37973,
    "neighborhood": "Roxhill/Westwood",
    "neighborhoodGroup": "Delridge Neighborhoods",
    "units": "E37"
  },
  {
    "id_str": "F220031005",
    "created_at": "3/16/2022 3:12:46 PM",
    "timestamp": 1647468766000,
    "description": "Low Acuity Response",
    "address": "2215 1st Ave",
    "active": false,
    "unitCount": 2,
    "severity": 0,
    "lat": 47.612716,
    "long": -122.345399,
    "neighborhood": "Belltown",
    "neighborhoodGroup": "Downtown",
    "units": "H1 H2"
  },
  {
    "id_str": "F220031004",
    "created_at": "3/16/2022 3:12:03 PM",
    "timestamp": 1647468723000,
    "description": "Aid Response",
    "address": "2100 3rd Ave",
    "active": false,
    "unitCount": 1,
    "severity": 0,
    "lat": 47.613167,
    "long": -122.342193,
    "neighborhood": "Cascade/Eastlake",
    "neighborhoodGroup": "Lake Union",
    "units": "A2"
  },
  {
    "id_str": "F220031003",
    "created_at": "3/16/2022 3:01:23 PM",
    "timestamp": 1647468083000,
    "description": "Aid Response",
    "address": "9061 Seward Park Ave S",
    "active": false,
    "unitCount": 1,
    "severity": 0,
    "lat": 47.521679,
    "long": -122.264284,
    "neighborhood": "Rainier Beach",
    "neighborhoodGroup": "Southeast",
    "units": "E33"
  },
  {
    "id_str": "F220031001",
    "created_at": "3/16/2022 3:00:44 PM",
    "timestamp": 1647468044000,
    "description": "Aid Response",
    "address": "2401 Elliott Ave",
    "active": false,
    "unitCount": 2,
    "severity": 0,
    "lat": 47.612815,
    "long": -122.349533,
    "neighborhood": "Belltown",
    "neighborhoodGroup": "Downtown",
    "units": "A2 A4"
  },
  {
    "id_str": "F220030999",
    "created_at": "3/16/2022 2:57:14 PM",
    "timestamp": 1647467834000,
    "description": "Medic Response",
    "address": "417 Broadway E",
    "active": false,
    "unitCount": 3,
    "severity": 0,
    "lat": 47.622174,
    "long": -122.320909,
    "neighborhood": "Capitol Hill",
    "neighborhoodGroup": "East",
    "units": "E25 L10 M10"
  },
  {
    "id_str": "F220031000",
    "created_at": "3/16/2022 2:56:42 PM",
    "timestamp": 1647467802000,
    "description": "Aid Response",
    "address": "417 Broadway E",
    "active": false,
    "unitCount": 1,
    "severity": 0,
    "lat": 47.622174,
    "long": -122.320909,
    "neighborhood": "Capitol Hill",
    "neighborhoodGroup": "East",
    "units": "E25"
  },
  {
    "id_str": "F220030997",
    "created_at": "3/16/2022 2:51:35 PM",
    "timestamp": 1647467495000,
    "description": "Advised Incident",
    "address": "BROADWAY E / E JOHN ST",
    "active": true,
    "unitCount": 1,
    "severity": 0,
    "lat": 47.614076,
    "long": -122.32078,
    "neighborhood": "Capitol Hill",
    "neighborhoodGroup": "East",
    "units": "E25"
  },
  {
    "id_str": "F220030996",
    "created_at": "3/16/2022 2:50:51 PM",
    "timestamp": 1647467451000,
    "description": "Aid Response",
    "address": "Westlake Ave N / Thomas St",
    "active": false,
    "unitCount": 1,
    "severity": 0,
    "lat": 47.620874,
    "long": -122.338465,
    "neighborhood": "Cascade/Eastlake",
    "neighborhoodGroup": "Lake Union",
    "units": "E2"
  },
  {
    "id_str": "F220030994",
    "created_at": "3/16/2022 2:46:44 PM",
    "timestamp": 1647467204000,
    "description": "Aid Response",
    "address": "505 5th Ave S",
    "active": false,
    "unitCount": 1,
    "severity": 0,
    "lat": 47.598313,
    "long": -122.327671,
    "neighborhood": "Pioneer Square/International District",
    "neighborhoodGroup": "Downtown",
    "units": "A5"
  },
  {
    "id_str": "F220030993",
    "created_at": "3/16/2022 2:45:53 PM",
    "timestamp": 1647467153000,
    "description": "Aid Response",
    "address": "1114 E Shelby St",
    "active": false,
    "unitCount": 1,
    "severity": 0,
    "lat": 47.646918,
    "long": -122.318149,
    "neighborhood": "Montlake/Portage Bay",
    "neighborhoodGroup": "Northeast",
    "units": "A86"
  },
  {
    "id_str": "F220030990",
    "created_at": "3/16/2022 2:42:29 PM",
    "timestamp": 1647466949000,
    "description": "Aid Response",
    "address": "2209 1ST AVE",
    "active": false,
    "unitCount": 1,
    "severity": 0,
    "lat": 47.611978,
    "long": -122.344151,
    "neighborhood": "Belltown",
    "neighborhoodGroup": "Downtown",
    "units": "A4"
  },
  {
    "id_str": "F220030988",
    "created_at": "3/16/2022 2:40:08 PM",
    "timestamp": 1647466808000,
    "description": "Aid Response",
    "address": "2326 California Ave Sw",
    "active": false,
    "unitCount": 1,
    "severity": 0,
    "lat": 47.582838,
    "long": -122.386485,
    "neighborhood": "Alki/Admiral",
    "neighborhoodGroup": "Southwest",
    "units": "E29"
  },
  {
    "id_str": "F220030987",
    "created_at": "3/16/2022 2:29:07 PM",
    "timestamp": 1647466147000,
    "description": "Aid Response",
    "address": "7707 Earl Ave Nw",
    "active": false,
    "unitCount": 1,
    "severity": 0,
    "lat": 47.684979,
    "long": -122.39192,
    "neighborhood": "Sunset Hill/Loyal Heights",
    "neighborhoodGroup": "Ballard",
    "units": "E35"
  },
  {
    "id_str": "F220030986",
    "created_at": "3/16/2022 2:24:14 PM",
    "timestamp": 1647465854000,
    "description": "Rescue Elevator",
    "address": "1000 2nd Ave",
    "active": false,
    "unitCount": 1,
    "severity": 0,
    "lat": 47.605159,
    "long": -122.335129,
    "neighborhood": "Downtown Commercial Core",
    "neighborhoodGroup": "Downtown",
    "units": "L4"
  },
  {
    "id_str": "F220030985",
    "created_at": "3/16/2022 2:21:20 PM",
    "timestamp": 1647465680000,
    "description": "Aid Response",
    "address": "1431 Minor Ave",
    "active": false,
    "unitCount": 1,
    "severity": 0,
    "lat": 47.613247,
    "long": -122.327187,
    "neighborhood": "Capitol Hill",
    "neighborhoodGroup": "East",
    "units": "A2"
  },
  {
    "id_str": "F220030984",
    "created_at": "3/16/2022 2:19:50 PM",
    "timestamp": 1647465590000,
    "description": "Auto Fire Alarm",
    "address": "325 9th Ave",
    "active": false,
    "unitCount": 2,
    "severity": 0,
    "lat": 47.603588,
    "long": -122.322949,
    "neighborhood": "First Hill",
    "neighborhoodGroup": "East",
    "units": "E2 L10"
  },
  {
    "id_str": "F220030983",
    "created_at": "3/16/2022 2:17:24 PM",
    "timestamp": 1647465444000,
    "description": "Aid Response",
    "address": "3008 E Spring St",
    "active": false,
    "unitCount": 1,
    "severity": 0,
    "lat": 47.611666,
    "long": -122.293675,
    "neighborhood": "Central Area/Squire Park",
    "neighborhoodGroup": "Central",
    "units": "E6"
  },
  {
    "id_str": "F220030982",
    "created_at": "3/16/2022 2:14:27 PM",
    "timestamp": 1647465267000,
    "description": "Aid Response",
    "address": "819 E Pike St",
    "active": false,
    "unitCount": 1,
    "severity": 0,
    "lat": 47.614068,
    "long": -122.321853,
    "neighborhood": "Capitol Hill",
    "neighborhoodGroup": "East",
    "units": "E25"
  },
  {
    "id_str": "F220030979",
    "created_at": "3/16/2022 2:05:22 PM",
    "timestamp": 1647464722000,
    "description": "Aid Response",
    "address": "Lake City Way Ne / Ne 125th St",
    "active": false,
    "unitCount": 2,
    "severity": 0,
    "lat": 47.719279,
    "long": -122.295233,
    "neighborhood": "Cedar Park/Meadowbrook",
    "neighborhoodGroup": "North",
    "units": "E39 E40"
  },
  {
    "id_str": "F220030977",
    "created_at": "3/16/2022 2:02:51 PM",
    "timestamp": 1647464571000,
    "description": "Aid Response",
    "address": "500 5th Ave",
    "active": false,
    "unitCount": 1,
    "severity": 0,
    "lat": 47.602985,
    "long": -122.328535,
    "neighborhood": "First Hill",
    "neighborhoodGroup": "East",
    "units": "E5"
  },
  {
    "id_str": "F220030975",
    "created_at": "3/16/2022 1:59:26 PM",
    "timestamp": 1647464366000,
    "description": "MVI - Motor Vehicle Incident",
    "address": "Nb I5 At Spokane",
    "active": false,
    "unitCount": 3,
    "severity": 0,
    "lat": 47.552107,
    "long": -122.316869,
    "neighborhood": "Beacon Hill",
    "neighborhoodGroup": "Greater Duwamish",
    "units": "A14 E27 E28"
  },
  {
    "id_str": "F220030969",
    "created_at": "3/16/2022 1:53:11 PM",
    "timestamp": 1647463991000,
    "description": "Aid Response",
    "address": "2212 S Jackson St",
    "active": false,
    "unitCount": 1,
    "severity": 0,
    "lat": 47.599276,
    "long": -122.303156,
    "neighborhood": "Judkins Park",
    "neighborhoodGroup": "Central",
    "units": "E6"
  },
  {
    "id_str": "F220030967",
    "created_at": "3/16/2022 1:52:33 PM",
    "timestamp": 1647463953000,
    "description": "Aid Response",
    "address": "2000 4th Ave",
    "active": false,
    "unitCount": 1,
    "severity": 0,
    "lat": 47.613063,
    "long": -122.340033,
    "neighborhood": "Cascade/Eastlake",
    "neighborhoodGroup": "Lake Union",
    "units": "A2"
  },
  {
    "id_str": "F220030966",
    "created_at": "3/16/2022 1:50:56 PM",
    "timestamp": 1647463856000,
    "description": "Aid Response",
    "address": "3814 4th Ave Ne",
    "active": false,
    "unitCount": 1,
    "severity": 0,
    "lat": 47.654253,
    "long": -122.324582,
    "neighborhood": "Wallingford",
    "neighborhoodGroup": "Lake Union",
    "units": "E17"
  },
  {
    "id_str": "F220030963",
    "created_at": "3/16/2022 1:44:13 PM",
    "timestamp": 1647463453000,
    "description": "Aid Response",
    "address": "900 9th Ave",
    "active": false,
    "unitCount": 1,
    "severity": 0,
    "lat": 47.607695,
    "long": -122.326708,
    "neighborhood": "First Hill",
    "neighborhoodGroup": "East",
    "units": "L10"
  },
  {
    "id_str": "F220030961",
    "created_at": "3/16/2022 1:41:35 PM",
    "timestamp": 1647463295000,
    "description": "Aid Response",
    "address": "318 2nd Ave Et S",
    "active": false,
    "unitCount": 1,
    "severity": 0,
    "lat": 47.600194,
    "long": -122.330541,
    "neighborhood": "Pioneer Square/International District",
    "neighborhoodGroup": "Downtown",
    "units": "A5"
  },
  {
    "id_str": "F220030958",
    "created_at": "3/16/2022 1:30:09 PM",
    "timestamp": 1647462609000,
    "description": "Aid Response",
    "address": "14300 32nd Ave Ne",
    "active": false,
    "unitCount": 1,
    "severity": 0,
    "lat": 47.731955,
    "long": -122.293832,
    "neighborhood": "Cedar Park/Meadowbrook",
    "neighborhoodGroup": "North",
    "units": "E39"
  },
  {
    "id_str": "F220030956",
    "created_at": "3/16/2022 1:27:50 PM",
    "timestamp": 1647462470000,
    "description": "Automatic Fire Alarm Resd",
    "address": "5652 26th Ave Sw",
    "active": false,
    "unitCount": 1,
    "severity": 0,
    "lat": 47.551616,
    "long": -122.365565,
    "neighborhood": "High Point",
    "neighborhoodGroup": "Delridge Neighborhoods",
    "units": "E11"
  },
  {
    "id_str": "F220030955",
    "created_at": "3/16/2022 1:25:15 PM",
    "timestamp": 1647462315000,
    "description": "Aid Response",
    "address": "1815 Terry Ave",
    "active": false,
    "unitCount": 1,
    "severity": 0,
    "lat": 47.615602,
    "long": -122.332488,
    "neighborhood": "Cascade/Eastlake",
    "neighborhoodGroup": "Lake Union",
    "units": "E25"
  },
  {
    "id_str": "F220030954",
    "created_at": "3/16/2022 1:23:11 PM",
    "timestamp": 1647462191000,
    "description": "Aid Response",
    "address": "810 Virginia St",
    "active": false,
    "unitCount": 1,
    "severity": 0,
    "lat": 47.615789,
    "long": -122.336507,
    "neighborhood": "Cascade/Eastlake",
    "neighborhoodGroup": "Lake Union",
    "units": "A2"
  },
  {
    "id_str": "F220030953",
    "created_at": "3/16/2022 1:20:19 PM",
    "timestamp": 1647462019000,
    "description": "Aid Response",
    "address": "1005 Terrace St",
    "active": false,
    "unitCount": 1,
    "severity": 0,
    "lat": 47.604615,
    "long": -122.32228,
    "neighborhood": "First Hill",
    "neighborhoodGroup": "East",
    "units": "A10"
  },
  {
    "id_str": "F220030952",
    "created_at": "3/16/2022 1:17:34 PM",
    "timestamp": 1647461854000,
    "description": "Aid Response",
    "address": "2461 4th Ave S",
    "active": false,
    "unitCount": 1,
    "severity": 0,
    "lat": 47.581469,
    "long": -122.329055,
    "neighborhood": "Duwamish/SODO",
    "neighborhoodGroup": "Greater Duwamish",
    "units": "A14"
  },
  {
    "id_str": "F220030949",
    "created_at": "3/16/2022 1:10:24 PM",
    "timestamp": 1647461424000,
    "description": "Aid Response",
    "address": "4148 Hillcrest Ave Sw",
    "active": false,
    "unitCount": 1,
    "severity": 0,
    "lat": 47.565789,
    "long": -122.403879,
    "neighborhood": "Alki/Admiral",
    "neighborhoodGroup": "Southwest",
    "units": "L11"
  },
  {
    "id_str": "F220030948",
    "created_at": "3/16/2022 1:05:46 PM",
    "timestamp": 1647461146000,
    "description": "Aid Response",
    "address": "1923 3rd Ave",
    "active": false,
    "unitCount": 2,
    "severity": 0,
    "lat": 47.611802,
    "long": -122.339884,
    "neighborhood": "Cascade/Eastlake",
    "neighborhoodGroup": "Lake Union",
    "units": "A4 H2"
  },
  {
    "id_str": "F220030944",
    "created_at": "3/16/2022 12:48:51 PM",
    "timestamp": 1647460131000,
    "description": "Medic Response, 7 per Rule",
    "address": "4th Ave / Pike St",
    "active": false,
    "unitCount": 4,
    "severity": 0,
    "lat": 47.610214,
    "long": -122.336683,
    "neighborhood": "Downtown Commercial Core",
    "neighborhoodGroup": "Downtown",
    "units": "A5 E2 H2 M1"
  },
  {
    "id_str": "F220030943",
    "created_at": "3/16/2022 12:47:36 PM",
    "timestamp": 1647460056000,
    "description": "Auto Fire Alarm",
    "address": "7301 5th Ave Ne",
    "active": false,
    "unitCount": 2,
    "severity": 0,
    "lat": 47.681625,
    "long": -122.322883,
    "neighborhood": "Green Lake",
    "neighborhoodGroup": "Northwest",
    "units": "E16 L9"
  },
  {
    "id_str": "F220030942",
    "created_at": "3/16/2022 12:45:24 PM",
    "timestamp": 1647459924000,
    "description": "Alarm Bell",
    "address": "801 Nw 54th St",
    "active": false,
    "unitCount": 1,
    "severity": 0,
    "lat": 47.667912,
    "long": -122.36618,
    "neighborhood": "Fremont",
    "neighborhoodGroup": "Lake Union",
    "units": "E18"
  },
  {
    "id_str": "F220030941",
    "created_at": "3/16/2022 12:45:13 PM",
    "timestamp": 1647459913000,
    "description": "Scenes Of Violence 7",
    "address": "37th Ave S / S Findlay St",
    "active": false,
    "unitCount": 5,
    "severity": 1,
    "lat": 47.551968,
    "long": -122.286261,
    "neighborhood": "Columbia City",
    "neighborhoodGroup": "Southeast",
    "units": "B5 E28 L12 M28 M44"
  },
  {
    "id_str": "F220030940",
    "created_at": "3/16/2022 12:42:46 PM",
    "timestamp": 1647459766000,
    "description": "Low Acuity Response",
    "address": "1531 1st Ave",
    "active": false,
    "unitCount": 1,
    "severity": 0,
    "lat": 47.609125,
    "long": -122.340291,
    "neighborhood": "Downtown Commercial Core",
    "neighborhoodGroup": "Downtown",
    "units": "E5"
  },
  {
    "id_str": "F220030939",
    "created_at": "3/16/2022 12:29:34 PM",
    "timestamp": 1647458974000,
    "description": "Aid Response",
    "address": "302 Ne Northgate Way",
    "active": false,
    "unitCount": 2,
    "severity": 0,
    "lat": 47.708611,
    "long": -122.325928,
    "neighborhood": "Northgate/Maple Leaf",
    "neighborhoodGroup": "North",
    "units": "A31 E31"
  },
  {
    "id_str": "F220030938",
    "created_at": "3/16/2022 12:29:23 PM",
    "timestamp": 1647458963000,
    "description": "Aid Response",
    "address": "28 S Brandon St",
    "active": false,
    "unitCount": 1,
    "severity": 0,
    "lat": 47.55418,
    "long": -122.336692,
    "neighborhood": "Georgetown",
    "neighborhoodGroup": "Greater Duwamish",
    "units": "E27"
  },
  {
    "id_str": "F220030937",
    "created_at": "3/16/2022 12:28:59 PM",
    "timestamp": 1647458939000,
    "description": "Aid Response",
    "address": "1421 Minor Ave",
    "active": false,
    "unitCount": 1,
    "severity": 0,
    "lat": 47.613146,
    "long": -122.327096,
    "neighborhood": "Capitol Hill",
    "neighborhoodGroup": "East",
    "units": "L10"
  },
  {
    "id_str": "F220030936",
    "created_at": "3/16/2022 12:26:40 PM",
    "timestamp": 1647458800000,
    "description": "Aid Response",
    "address": "712 23rd Ave S",
    "active": false,
    "unitCount": 1,
    "severity": 0,
    "lat": 47.596366,
    "long": -122.302226,
    "neighborhood": "Madrona/Leschi",
    "neighborhoodGroup": "Central",
    "units": "E6"
  },
  {
    "id_str": "F220030935",
    "created_at": "3/16/2022 12:24:36 PM",
    "timestamp": 1647458676000,
    "description": "Aid Response",
    "address": "1102 8th Ave",
    "active": false,
    "unitCount": 1,
    "severity": 0,
    "lat": 47.608665,
    "long": -122.329131,
    "neighborhood": "First Hill",
    "neighborhoodGroup": "East",
    "units": "A10"
  },
  {
    "id_str": "F220030934",
    "created_at": "3/16/2022 12:19:40 PM",
    "timestamp": 1647458380000,
    "description": "Aid Response",
    "address": "810 Virginia St",
    "active": false,
    "unitCount": 1,
    "severity": 0,
    "lat": 47.615789,
    "long": -122.336507,
    "neighborhood": "Cascade/Eastlake",
    "neighborhoodGroup": "Lake Union",
    "units": "A2"
  },
  {
    "id_str": "F220030933",
    "created_at": "3/16/2022 12:17:19 PM",
    "timestamp": 1647458239000,
    "description": "Aid Response",
    "address": "118 Bell St",
    "active": false,
    "unitCount": 1,
    "severity": 0,
    "lat": 47.613497,
    "long": -122.346355,
    "neighborhood": "Belltown",
    "neighborhoodGroup": "Downtown",
    "units": "A4"
  },
  {
    "id_str": "F220030932",
    "created_at": "3/16/2022 12:16:22 PM",
    "timestamp": 1647458182000,
    "description": "Aid Response",
    "address": "937 N 96th St",
    "active": false,
    "unitCount": 1,
    "severity": 0,
    "lat": 47.698721,
    "long": -122.34681,
    "neighborhood": "Licton Springs",
    "neighborhoodGroup": "Northwest",
    "units": "L5"
  },
  {
    "id_str": "F220030929",
    "created_at": "3/16/2022 12:06:21 PM",
    "timestamp": 1647457581000,
    "description": "Rubbish Fire",
    "address": "4th Ave / Union St",
    "active": false,
    "unitCount": 1,
    "severity": 0,
    "lat": 47.609221,
    "long": -122.335775,
    "neighborhood": "Downtown Commercial Core",
    "neighborhoodGroup": "Downtown",
    "units": "E2"
  },
  {
    "id_str": "F220030926",
    "created_at": "3/16/2022 12:02:24 PM",
    "timestamp": 1647457344000,
    "description": "Medic Response",
    "address": "1220 4th Ave S",
    "active": false,
    "unitCount": 3,
    "severity": 0,
    "lat": 47.592326,
    "long": -122.329048,
    "neighborhood": "Duwamish/SODO",
    "neighborhoodGroup": "Greater Duwamish",
    "units": "A5 L10 M10"
  },
  {
    "id_str": "F220030925",
    "created_at": "3/16/2022 11:54:34 AM",
    "timestamp": 1647456874000,
    "description": "Aid Response",
    "address": "11030 15th Ave Ne",
    "active": false,
    "unitCount": 3,
    "severity": 0,
    "lat": 47.708706,
    "long": -122.31243,
    "neighborhood": "Northgate/Maple Leaf",
    "neighborhoodGroup": "North",
    "units": "A31 E40 M17"
  },
  {
    "id_str": "F220030924",
    "created_at": "3/16/2022 11:49:47 AM",
    "timestamp": 1647456587000,
    "description": "Aid Response",
    "address": "5300 24th Ave Ne",
    "active": false,
    "unitCount": 1,
    "severity": 0,
    "lat": 47.66707,
    "long": -122.301946,
    "neighborhood": "Ravenna/Bryant",
    "neighborhoodGroup": "Northeast",
    "units": "E38"
  },
  {
    "id_str": "F220030921",
    "created_at": "3/16/2022 11:45:34 AM",
    "timestamp": 1647456334000,
    "description": "Aid Response",
    "address": "13411 Roosevelt Way N",
    "active": false,
    "unitCount": 1,
    "severity": 0,
    "lat": 47.726188,
    "long": -122.329029,
    "neighborhood": "Haller Lake",
    "neighborhoodGroup": "Northwest",
    "units": "E39"
  },
  {
    "id_str": "F220030919",
    "created_at": "3/16/2022 11:44:28 AM",
    "timestamp": 1647456268000,
    "description": "Auto Fire Alarm",
    "address": "610 Harvard Ave E",
    "active": false,
    "unitCount": 2,
    "severity": 0,
    "lat": 47.624349,
    "long": -122.321989,
    "neighborhood": "Capitol Hill",
    "neighborhoodGroup": "East",
    "units": "E34 L10"
  },
  {
    "id_str": "F220030918",
    "created_at": "3/16/2022 11:44:17 AM",
    "timestamp": 1647456257000,
    "description": "Rescue Lock In/Out",
    "address": "2645 California Ave Sw",
    "active": false,
    "unitCount": 1,
    "severity": 0,
    "lat": 47.580312,
    "long": -122.386581,
    "neighborhood": "West Seattle Junction/Genesee Hill",
    "neighborhoodGroup": "Southwest",
    "units": "L11"
  },
  {
    "id_str": "F220030917",
    "created_at": "3/16/2022 11:41:37 AM",
    "timestamp": 1647456097000,
    "description": "Medic Response",
    "address": "9600 College Way N",
    "active": false,
    "unitCount": 3,
    "severity": 0,
    "lat": 47.698678,
    "long": -122.33505,
    "neighborhood": "Licton Springs",
    "neighborhoodGroup": "Northwest",
    "units": "E31 M17 M31"
  },
  {
    "id_str": "F220030915",
    "created_at": "3/16/2022 11:38:12 AM",
    "timestamp": 1647455892000,
    "description": "Illegal Burn",
    "address": "Rainier Ave S / S Dearborn St",
    "active": false,
    "unitCount": 1,
    "severity": 0,
    "lat": 47.595874,
    "long": -122.31153,
    "neighborhood": "Judkins Park",
    "neighborhoodGroup": "Central",
    "units": "E6"
  },
  {
    "id_str": "F220030914",
    "created_at": "3/16/2022 11:29:08 AM",
    "timestamp": 1647455348000,
    "description": "Low Acuity Response",
    "address": "1700 E Madison St",
    "active": false,
    "unitCount": 1,
    "severity": 0,
    "lat": 47.61559,
    "long": -122.310151,
    "neighborhood": "Central Area/Squire Park",
    "neighborhoodGroup": "Central",
    "units": "H2"
  },
  {
    "id_str": "F220030913",
    "created_at": "3/16/2022 11:28:50 AM",
    "timestamp": 1647455330000,
    "description": "Aid Response",
    "address": "8741 14th Ave Nw",
    "active": false,
    "unitCount": 2,
    "severity": 0,
    "lat": 47.692364,
    "long": -122.374104,
    "neighborhood": "Greenwood/Phinney Ridge",
    "neighborhoodGroup": "Northwest",
    "units": "CHAP5 E35"
  },
  {
    "id_str": "F220030911",
    "created_at": "3/16/2022 11:21:05 AM",
    "timestamp": 1647454865000,
    "description": "Rescue Elevator",
    "address": "2870 S Hanford St",
    "active": false,
    "unitCount": 1,
    "severity": 0,
    "lat": 47.574853,
    "long": -122.295888,
    "neighborhood": "Mt. Baker/North Rainier",
    "neighborhoodGroup": "Southeast",
    "units": "R1"
  },
  {
    "id_str": "F220030910",
    "created_at": "3/16/2022 11:14:48 AM",
    "timestamp": 1647454488000,
    "description": "Aid Response",
    "address": "10341 12th Ave Nw",
    "active": false,
    "unitCount": 1,
    "severity": 0,
    "lat": 47.703719,
    "long": -122.371413,
    "neighborhood": "North Beach/Blue Ridge",
    "neighborhoodGroup": "Ballard",
    "units": "E21"
  },
  {
    "id_str": "F220030908",
    "created_at": "3/16/2022 11:12:31 AM",
    "timestamp": 1647454351000,
    "description": "Medic Response",
    "address": "10119 Renton Ave S",
    "active": false,
    "unitCount": 2,
    "severity": 0,
    "lat": 47.510539,
    "long": -122.260028,
    "neighborhood": "Rainier Beach",
    "neighborhoodGroup": "Southeast",
    "units": "E33 M26"
  },
  {
    "id_str": "F220030907",
    "created_at": "3/16/2022 11:10:29 AM",
    "timestamp": 1647454229000,
    "description": "Auto Fire Alarm",
    "address": "610 Harvard Ave E",
    "active": false,
    "unitCount": 2,
    "severity": 0,
    "lat": 47.624349,
    "long": -122.321989,
    "neighborhood": "Capitol Hill",
    "neighborhoodGroup": "East",
    "units": "E5 L4"
  },
  {
    "id_str": "F220030906",
    "created_at": "3/16/2022 11:04:48 AM",
    "timestamp": 1647453888000,
    "description": "Aid Response",
    "address": "2030 Western Ave",
    "active": false,
    "unitCount": 1,
    "severity": 0,
    "lat": 47.610633,
    "long": -122.343884,
    "neighborhood": "Downtown Commercial Core",
    "neighborhoodGroup": "Downtown",
    "units": "A2"
  },
  {
    "id_str": "F220030905",
    "created_at": "3/16/2022 11:01:23 AM",
    "timestamp": 1647453683000,
    "description": "Aid Response Yellow",
    "address": "2026 Yale Ave E",
    "active": false,
    "unitCount": 1,
    "severity": 0,
    "lat": 47.636953,
    "long": -122.327116,
    "neighborhood": "Cascade/Eastlake",
    "neighborhoodGroup": "Lake Union",
    "units": "A86"
  },
  {
    "id_str": "F220030904",
    "created_at": "3/16/2022 11:00:36 AM",
    "timestamp": 1647453636000,
    "description": "Medic Response",
    "address": "11045 8th Ave Ne",
    "active": false,
    "unitCount": 2,
    "severity": 0,
    "lat": 47.7089,
    "long": -122.320568,
    "neighborhood": "Northgate/Maple Leaf",
    "neighborhoodGroup": "North",
    "units": "E31 M31"
  },
  {
    "id_str": "F220030903",
    "created_at": "3/16/2022 10:59:33 AM",
    "timestamp": 1647453573000,
    "description": "Aid Response",
    "address": "5248 S Morgan St",
    "active": false,
    "unitCount": 1,
    "severity": 0,
    "lat": 47.544272,
    "long": -122.266662,
    "neighborhood": "Seward Park",
    "neighborhoodGroup": "Southeast",
    "units": "E28"
  },
  {
    "id_str": "F220030901",
    "created_at": "3/16/2022 10:53:06 AM",
    "timestamp": 1647453186000,
    "description": "Aid Response",
    "address": "2150 N 107th St",
    "active": false,
    "unitCount": 2,
    "severity": 0,
    "lat": 47.70684,
    "long": -122.332461,
    "neighborhood": "Northgate/Maple Leaf",
    "neighborhoodGroup": "North",
    "units": "A31 E31"
  },
  {
    "id_str": "F220030899",
    "created_at": "3/16/2022 10:50:31 AM",
    "timestamp": 1647453031000,
    "description": "Auto Fire Alarm",
    "address": "809 Olive Way",
    "active": false,
    "unitCount": 2,
    "severity": 0,
    "lat": 47.6141,
    "long": -122.333959,
    "neighborhood": "Cascade/Eastlake",
    "neighborhoodGroup": "Lake Union",
    "units": "E6 L4"
  },
  {
    "id_str": "F220030898",
    "created_at": "3/16/2022 10:48:03 AM",
    "timestamp": 1647452883000,
    "description": "Auto Fire Alarm",
    "address": "3301 W Dravus St",
    "active": false,
    "unitCount": 3,
    "severity": 0,
    "lat": 47.648634,
    "long": -122.399543,
    "neighborhood": "Magnolia",
    "neighborhoodGroup": "Magnolia/Queen Anne",
    "units": "E41 L6 L8"
  },
  {
    "id_str": "F220030897",
    "created_at": "3/16/2022 10:46:34 AM",
    "timestamp": 1647452794000,
    "description": "Aid Response",
    "address": "2200 E Madison St",
    "active": false,
    "unitCount": 1,
    "severity": 0,
    "lat": 47.61842,
    "long": -122.30365,
    "neighborhood": "Central Area/Squire Park",
    "neighborhoodGroup": "Central",
    "units": "L3"
  },
  {
    "id_str": "F220030895",
    "created_at": "3/16/2022 10:40:03 AM",
    "timestamp": 1647452403000,
    "description": "Aid Response",
    "address": "9455 27th Ave Sw",
    "active": false,
    "unitCount": 1,
    "severity": 0,
    "lat": 47.518178,
    "long": -122.367277,
    "neighborhood": "Roxhill/Westwood",
    "neighborhoodGroup": "Delridge Neighborhoods",
    "units": "E11"
  },
  {
    "id_str": "F220030894",
    "created_at": "3/16/2022 10:39:26 AM",
    "timestamp": 1647452366000,
    "description": "Aid Response",
    "address": "9709 3rd Ave Ne",
    "active": false,
    "unitCount": 1,
    "severity": 0,
    "lat": 47.69922,
    "long": -122.325766,
    "neighborhood": "Northgate/Maple Leaf",
    "neighborhoodGroup": "North",
    "units": "A31"
  },
  {
    "id_str": "F220030893",
    "created_at": "3/16/2022 10:38:27 AM",
    "timestamp": 1647452307000,
    "description": "Aid Response",
    "address": "Wb I90 To Rainier Sb",
    "active": false,
    "unitCount": 1,
    "severity": 0,
    "lat": 47.590802,
    "long": -122.309163,
    "neighborhood": "North Beacon Hill/Jefferson Park",
    "neighborhoodGroup": "Greater Duwamish",
    "units": "A10"
  },
  {
    "id_str": "F220030891",
    "created_at": "3/16/2022 10:33:55 AM",
    "timestamp": 1647452035000,
    "description": "Aid Response",
    "address": "1406 Western Ave",
    "active": false,
    "unitCount": 1,
    "severity": 0,
    "lat": 47.607415,
    "long": -122.340262,
    "neighborhood": "Downtown Commercial Core",
    "neighborhoodGroup": "Downtown",
    "units": "A5"
  },
  {
    "id_str": "F220030892",
    "created_at": "3/16/2022 10:33:37 AM",
    "timestamp": 1647452017000,
    "description": "Natural Gas Leak",
    "address": "541 19th Ave",
    "active": false,
    "unitCount": 3,
    "severity": 0,
    "lat": 47.606539,
    "long": -122.307633,
    "neighborhood": "Central Area/Squire Park",
    "neighborhoodGroup": "Central",
    "units": "B2 E25 L10"
  },
  {
    "id_str": "F220030889",
    "created_at": "3/16/2022 10:28:16 AM",
    "timestamp": 1647451696000,
    "description": "Rubbish Fire",
    "address": "10th Ave S / S Dearborn St",
    "active": false,
    "unitCount": 1,
    "severity": 0,
    "lat": 47.595825,
    "long": -122.319215,
    "neighborhood": "Pioneer Square/International District",
    "neighborhoodGroup": "Downtown",
    "units": "E13"
  },
  {
    "id_str": "F220030888",
    "created_at": "3/16/2022 10:26:49 AM",
    "timestamp": 1647451609000,
    "description": "Medic Response",
    "address": "509 Olive Way",
    "active": false,
    "unitCount": 3,
    "severity": 0,
    "lat": 47.612708,
    "long": -122.337292,
    "neighborhood": "First Hill",
    "neighborhoodGroup": "East",
    "units": "A4 E2 M1"
  },
  {
    "id_str": "F220030885",
    "created_at": "3/16/2022 10:17:41 AM",
    "timestamp": 1647451061000,
    "description": "Aid Response",
    "address": "2501 N Northlake Way",
    "active": false,
    "unitCount": 1,
    "severity": 0,
    "lat": 47.651994,
    "long": -122.329083,
    "neighborhood": "Fremont",
    "neighborhoodGroup": "Lake Union",
    "units": "A86"
  },
  {
    "id_str": "F220030882",
    "created_at": "3/16/2022 10:13:16 AM",
    "timestamp": 1647450796000,
    "description": "Shed Fire",
    "address": "25th Ave Sw / Sw Thistle St",
    "active": false,
    "unitCount": 2,
    "severity": 0,
    "lat": 47.528281,
    "long": -122.364508,
    "neighborhood": "Roxhill/Westwood",
    "neighborhoodGroup": "Delridge Neighborhoods",
    "units": "E11 MAR5"
  },
  {
    "id_str": "F220030881",
    "created_at": "3/16/2022 10:12:49 AM",
    "timestamp": 1647450769000,
    "description": "Medic Response",
    "address": "805 4th Ave N",
    "active": false,
    "unitCount": 2,
    "severity": 0,
    "lat": 47.626322,
    "long": -122.348863,
    "neighborhood": "Queen Anne",
    "neighborhoodGroup": "Magnolia/Queen Anne",
    "units": "A2 M17"
  },
  {
    "id_str": "F220030880",
    "created_at": "3/16/2022 10:01:22 AM",
    "timestamp": 1647450082000,
    "description": "Medic Response",
    "address": "1253 S Jackson St",
    "active": false,
    "unitCount": 2,
    "severity": 0,
    "lat": 47.599193,
    "long": -122.316407,
    "neighborhood": "Judkins Park",
    "neighborhoodGroup": "Central",
    "units": "E6 M28"
  },
  {
    "id_str": "F220030879",
    "created_at": "3/16/2022 10:01:15 AM",
    "timestamp": 1647450075000,
    "description": "Medic Response",
    "address": "515 Minor Ave",
    "active": false,
    "unitCount": 2,
    "severity": 0,
    "lat": 47.606467,
    "long": -122.32091,
    "neighborhood": "First Hill",
    "neighborhoodGroup": "East",
    "units": "L10 M10"
  },
  {
    "id_str": "F220030877",
    "created_at": "3/16/2022 9:56:23 AM",
    "timestamp": 1647449783000,
    "description": "Aid Response",
    "address": "1039 6th Ave S",
    "active": false,
    "unitCount": 2,
    "severity": 0,
    "lat": 47.593751,
    "long": -122.325968,
    "neighborhood": "Duwamish/SODO",
    "neighborhoodGroup": "Greater Duwamish",
    "units": "A10 M10"
  },
  {
    "id_str": "F220030876",
    "created_at": "3/16/2022 9:55:40 AM",
    "timestamp": 1647449740000,
    "description": "Auto Fire Alarm",
    "address": "3501 Rainier Ave S",
    "active": false,
    "unitCount": 2,
    "severity": 0,
    "lat": 47.571853,
    "long": -122.293193,
    "neighborhood": "Columbia City",
    "neighborhoodGroup": "Southeast",
    "units": "E30 L12"
  },
  {
    "id_str": "F220030873",
    "created_at": "3/16/2022 9:46:57 AM",
    "timestamp": 1647449217000,
    "description": "MVI - Motor Vehicle Incident",
    "address": "3rd Ave Nw / Nw 67th St",
    "active": false,
    "unitCount": 1,
    "severity": 0,
    "lat": 47.677778,
    "long": -122.360476,
    "neighborhood": "Greenwood/Phinney Ridge",
    "neighborhoodGroup": "Northwest",
    "units": "E21"
  },
  {
    "id_str": "F220030872",
    "created_at": "3/16/2022 9:43:25 AM",
    "timestamp": 1647449005000,
    "description": "Medic Response",
    "address": "113 23rd Ave S",
    "active": false,
    "unitCount": 2,
    "severity": 0,
    "lat": 47.601601,
    "long": -122.302284,
    "neighborhood": "Madrona/Leschi",
    "neighborhoodGroup": "Central",
    "units": "E25 M10"
  },
  {
    "id_str": "F220030871",
    "created_at": "3/16/2022 9:40:05 AM",
    "timestamp": 1647448805000,
    "description": "Aid Response",
    "address": "9709 3rd Ave Ne",
    "active": false,
    "unitCount": 1,
    "severity": 0,
    "lat": 47.69922,
    "long": -122.325766,
    "neighborhood": "Northgate/Maple Leaf",
    "neighborhoodGroup": "North",
    "units": "E31"
  },
  {
    "id_str": "F220030870",
    "created_at": "3/16/2022 9:36:00 AM",
    "timestamp": 1647448560000,
    "description": "Medic Response",
    "address": "500 5th Ave",
    "active": false,
    "unitCount": 2,
    "severity": 0,
    "lat": 47.602985,
    "long": -122.328535,
    "neighborhood": "First Hill",
    "neighborhoodGroup": "East",
    "units": "A5 M1"
  },
  {
    "id_str": "F220030869",
    "created_at": "3/16/2022 9:33:44 AM",
    "timestamp": 1647448424000,
    "description": "Aid Response",
    "address": "6400 8th Ave Nw",
    "active": false,
    "unitCount": 1,
    "severity": 0,
    "lat": 47.675265,
    "long": -122.366053,
    "neighborhood": "Greenwood/Phinney Ridge",
    "neighborhoodGroup": "Northwest",
    "units": "E21"
  },
  {
    "id_str": "F220030868",
    "created_at": "3/16/2022 9:32:49 AM",
    "timestamp": 1647448369000,
    "description": "Auto Fire Alarm",
    "address": "501 Rainier Ave S",
    "active": false,
    "unitCount": 2,
    "severity": 0,
    "lat": 47.598322,
    "long": -122.3134,
    "neighborhood": "Judkins Park",
    "neighborhoodGroup": "Central",
    "units": "E25 L3"
  },
  {
    "id_str": "F220030867",
    "created_at": "3/16/2022 9:24:55 AM",
    "timestamp": 1647447895000,
    "description": "Aid Response",
    "address": "3737 Ne 135th St",
    "active": false,
    "unitCount": 1,
    "severity": 0,
    "lat": 47.726437,
    "long": -122.288412,
    "neighborhood": "Cedar Park/Meadowbrook",
    "neighborhoodGroup": "North",
    "units": "A31"
  },
  {
    "id_str": "F220030866",
    "created_at": "3/16/2022 9:15:03 AM",
    "timestamp": 1647447303000,
    "description": "Low Acuity Response",
    "address": "14002 Linden Ave N",
    "active": false,
    "unitCount": 3,
    "severity": 0,
    "lat": 47.730569,
    "long": -122.347758,
    "neighborhood": "Broadview/Bitter Lake",
    "neighborhoodGroup": "Northwest",
    "units": "E24 H2 MIH"
  },
  {
    "id_str": "F220030864",
    "created_at": "3/16/2022 9:08:37 AM",
    "timestamp": 1647446917000,
    "description": "Auto Fire Alarm",
    "address": "3621 33rd Ave S",
    "active": false,
    "unitCount": 3,
    "severity": 0,
    "lat": 47.571408,
    "long": -122.291001,
    "neighborhood": "Columbia City",
    "neighborhoodGroup": "Southeast",
    "units": "E13 E30 L12"
  },
  {
    "id_str": "F220030862",
    "created_at": "3/16/2022 9:00:27 AM",
    "timestamp": 1647446427000,
    "description": "Medic Response",
    "address": "3600 23rd Ave Sw",
    "active": false,
    "unitCount": 2,
    "severity": 0,
    "lat": 47.57142,
    "long": -122.362034,
    "neighborhood": "North Delridge",
    "neighborhoodGroup": "Delridge Neighborhoods",
    "units": "E36 M32"
  },
  {
    "id_str": "F220030861",
    "created_at": "3/16/2022 8:59:55 AM",
    "timestamp": 1647446395000,
    "description": "Low Acuity Response",
    "address": "9001 Lake City Way Ne",
    "active": false,
    "unitCount": 1,
    "severity": 0,
    "lat": 47.693931,
    "long": -122.30552,
    "neighborhood": "Wedgwood/View Ridge",
    "neighborhoodGroup": "Northeast",
    "units": "E40"
  },
  {
    "id_str": "F220030860",
    "created_at": "3/16/2022 8:54:28 AM",
    "timestamp": 1647446068000,
    "description": "Medic Response",
    "address": "5th Ave / James St",
    "active": false,
    "unitCount": 2,
    "severity": 0,
    "lat": 47.603698,
    "long": -122.329187,
    "neighborhood": "First Hill",
    "neighborhoodGroup": "East",
    "units": "A5 M10"
  },
  {
    "id_str": "F220030855",
    "created_at": "3/16/2022 8:48:11 AM",
    "timestamp": 1647445691000,
    "description": "Auto Fire Alarm",
    "address": "221 Minor Ave N",
    "active": false,
    "unitCount": 2,
    "severity": 0,
    "lat": 47.619897,
    "long": -122.332981,
    "neighborhood": "Cascade/Eastlake",
    "neighborhoodGroup": "Lake Union",
    "units": "E2 L4"
  },
  {
    "id_str": "F220030856",
    "created_at": "3/16/2022 8:47:22 AM",
    "timestamp": 1647445642000,
    "description": "Rubbish Fire",
    "address": "1801 Westlake Ave",
    "active": false,
    "unitCount": 1,
    "severity": 0,
    "lat": 47.612665,
    "long": -122.337394,
    "neighborhood": "Downtown Commercial Core",
    "neighborhoodGroup": "Downtown",
    "units": "E5"
  },
  {
    "id_str": "F220030854",
    "created_at": "3/16/2022 8:40:38 AM",
    "timestamp": 1647445238000,
    "description": "Aid Response",
    "address": "6900 37th Ave S",
    "active": false,
    "unitCount": 1,
    "severity": 0,
    "lat": 47.540654,
    "long": -122.286239,
    "neighborhood": "South Beacon Hill/NewHolly",
    "neighborhoodGroup": "Greater Duwamish",
    "units": "E28"
  },
  {
    "id_str": "F220030852",
    "created_at": "3/16/2022 8:26:51 AM",
    "timestamp": 1647444411000,
    "description": "Aid Response",
    "address": "10245 39th Ave Sw",
    "active": false,
    "unitCount": 2,
    "severity": 0,
    "lat": 47.51157,
    "long": -122.381654,
    "neighborhood": "Arbor Heights",
    "neighborhoodGroup": "Southwest",
    "units": "E37 M32"
  },
  {
    "id_str": "F220030850",
    "created_at": "3/16/2022 8:16:23 AM",
    "timestamp": 1647443783000,
    "description": "Aid Response",
    "address": "12505 Greenwood Ave N",
    "active": false,
    "unitCount": 1,
    "severity": 0,
    "lat": 47.719638,
    "long": -122.355539,
    "neighborhood": "Broadview/Bitter Lake",
    "neighborhoodGroup": "Northwest",
    "units": "E31"
  },
  {
    "id_str": "F220030848",
    "created_at": "3/16/2022 8:06:18 AM",
    "timestamp": 1647443178000,
    "description": "Low Acuity Response",
    "address": "720 N 143rd St",
    "active": false,
    "unitCount": 1,
    "severity": 0,
    "lat": 47.732314,
    "long": -122.350209,
    "neighborhood": "Broadview/Bitter Lake",
    "neighborhoodGroup": "Northwest",
    "units": "H2"
  },
  {
    "id_str": "F220030847",
    "created_at": "3/16/2022 8:05:28 AM",
    "timestamp": 1647443128000,
    "description": "Aid Response",
    "address": "12th Ave S / Boren Ave S",
    "active": false,
    "unitCount": 1,
    "severity": 0,
    "lat": 47.600853,
    "long": -122.316965,
    "neighborhood": "Pioneer Square/International District",
    "neighborhoodGroup": "Downtown",
    "units": "A10"
  },
  {
    "id_str": "F220030844",
    "created_at": "3/16/2022 7:45:42 AM",
    "timestamp": 1647441942000,
    "description": "Aid Response",
    "address": "1431 Minor Ave",
    "active": false,
    "unitCount": 1,
    "severity": 0,
    "lat": 47.613247,
    "long": -122.327187,
    "neighborhood": "Capitol Hill",
    "neighborhoodGroup": "East",
    "units": "E25"
  },
  {
    "id_str": "F220030842",
    "created_at": "3/16/2022 7:41:31 AM",
    "timestamp": 1647441691000,
    "description": "Brush Fire",
    "address": "3015 S Edmunds St",
    "active": false,
    "unitCount": 1,
    "severity": 0,
    "lat": 47.558675,
    "long": -122.293242,
    "neighborhood": "Beacon Hill",
    "neighborhoodGroup": "Greater Duwamish",
    "units": "E28"
  },
  {
    "id_str": "F220030841",
    "created_at": "3/16/2022 7:40:47 AM",
    "timestamp": 1647441647000,
    "description": "Rescue Elevator",
    "address": "2821 S Walden St",
    "active": false,
    "unitCount": 1,
    "severity": 0,
    "lat": 47.572163,
    "long": -122.296173,
    "neighborhood": "Columbia City",
    "neighborhoodGroup": "Southeast",
    "units": "L3"
  },
  {
    "id_str": "F220030840",
    "created_at": "3/16/2022 7:39:05 AM",
    "timestamp": 1647441545000,
    "description": "Aid Response",
    "address": "418 E Loretta Pl",
    "active": false,
    "unitCount": 1,
    "severity": 0,
    "lat": 47.619219,
    "long": -122.326346,
    "neighborhood": "Capitol Hill",
    "neighborhoodGroup": "East",
    "units": "A25"
  },
  {
    "id_str": "F220030838",
    "created_at": "3/16/2022 7:26:18 AM",
    "timestamp": 1647440778000,
    "description": "Aid Response",
    "address": "6188 4th Ave S",
    "active": false,
    "unitCount": 1,
    "severity": 0,
    "lat": 47.547461,
    "long": -122.329585,
    "neighborhood": "Georgetown",
    "neighborhoodGroup": "Greater Duwamish",
    "units": "E27"
  },
  {
    "id_str": "F220030836",
    "created_at": "3/16/2022 7:14:44 AM",
    "timestamp": 1647440084000,
    "description": "Aid Response",
    "address": "8511 15th Ave Ne",
    "active": false,
    "unitCount": 2,
    "severity": 0,
    "lat": 47.690434,
    "long": -122.31223,
    "neighborhood": "Northgate/Maple Leaf",
    "neighborhoodGroup": "North",
    "units": "A86 E16"
  },
  {
    "id_str": "F220030837",
    "created_at": "3/16/2022 7:11:11 AM",
    "timestamp": 1647439871000,
    "description": "1RED 1 Unit",
    "address": "2504 Western Ave",
    "active": false,
    "unitCount": 1,
    "severity": 0,
    "lat": 47.614048,
    "long": -122.349635,
    "neighborhood": "Belltown",
    "neighborhoodGroup": "Downtown",
    "units": "E2"
  },
  {
    "id_str": "F220030834",
    "created_at": "3/16/2022 6:56:48 AM",
    "timestamp": 1647439008000,
    "description": "Aid Response",
    "address": "747 N 135th St",
    "active": false,
    "unitCount": 1,
    "severity": 0,
    "lat": 47.726803,
    "long": -122.347793,
    "neighborhood": "Broadview/Bitter Lake",
    "neighborhoodGroup": "Northwest",
    "units": "E24"
  },
  {
    "id_str": "F220030832",
    "created_at": "3/16/2022 6:39:50 AM",
    "timestamp": 1647437990000,
    "description": "Aid Response",
    "address": "1901 Western Ave",
    "active": false,
    "unitCount": 1,
    "severity": 0,
    "lat": 47.610056,
    "long": -122.34329,
    "neighborhood": "Downtown Commercial Core",
    "neighborhoodGroup": "Downtown",
    "units": "A2"
  },
  {
    "id_str": "F220030831",
    "created_at": "3/16/2022 6:39:06 AM",
    "timestamp": 1647437946000,
    "description": "Aid Response",
    "address": "820 33rd Ave E",
    "active": false,
    "unitCount": 1,
    "severity": 0,
    "lat": 47.626292,
    "long": -122.289533,
    "neighborhood": "Madison Park",
    "neighborhoodGroup": "East",
    "units": "E34"
  },
  {
    "id_str": "F220030830",
    "created_at": "3/16/2022 6:38:23 AM",
    "timestamp": 1647437903000,
    "description": "Low Acuity Response",
    "address": "2017 31st Ave S",
    "active": false,
    "unitCount": 1,
    "severity": 0,
    "lat": 47.585034,
    "long": -122.292998,
    "neighborhood": "Mt. Baker/North Rainier",
    "neighborhoodGroup": "Southeast",
    "units": "E30"
  },
  {
    "id_str": "F220030829",
    "created_at": "3/16/2022 6:24:24 AM",
    "timestamp": 1647437064000,
    "description": "Aid Response",
    "address": "4026 ASHWORTH AVE N",
    "active": false,
    "unitCount": 1,
    "severity": 0,
    "lat": 47.655904,
    "long": -122.339834,
    "neighborhood": "Fremont",
    "neighborhoodGroup": "Lake Union",
    "units": "E17"
  },
  {
    "id_str": "F220030827",
    "created_at": "3/16/2022 6:19:07 AM",
    "timestamp": 1647436747000,
    "description": "Rubbish Fire",
    "address": "MIDVALE AVE N / GREEN LAKE WAY N",
    "active": false,
    "unitCount": 1,
    "severity": 0,
    "lat": 47.663302,
    "long": -122.343756,
    "neighborhood": "Wallingford",
    "neighborhoodGroup": "Lake Union",
    "units": "E9"
  },
  {
    "id_str": "F220030824",
    "created_at": "3/16/2022 6:15:54 AM",
    "timestamp": 1647436554000,
    "description": "Aid Response",
    "address": "420 4th Ave",
    "active": false,
    "unitCount": 1,
    "severity": 0,
    "lat": 47.601986,
    "long": -122.32914,
    "neighborhood": "Downtown Commercial Core",
    "neighborhoodGroup": "Downtown",
    "units": "A5"
  },
  {
    "id_str": "F220030823",
    "created_at": "3/16/2022 6:09:45 AM",
    "timestamp": 1647436185000,
    "description": "Aid Response",
    "address": "116 Stewart St",
    "active": false,
    "unitCount": 1,
    "severity": 0,
    "lat": 47.610387,
    "long": -122.341198,
    "neighborhood": "Belltown",
    "neighborhoodGroup": "Downtown",
    "units": "A2"
  },
  {
    "id_str": "F220030822",
    "created_at": "3/16/2022 6:01:52 AM",
    "timestamp": 1647435712000,
    "description": "Aid Response",
    "address": "4240 34th Ave W",
    "active": false,
    "unitCount": 1,
    "severity": 0,
    "lat": 47.658329,
    "long": -122.400891,
    "neighborhood": "Magnolia",
    "neighborhoodGroup": "Magnolia/Queen Anne",
    "units": "E41"
  },
  {
    "id_str": "F220030821",
    "created_at": "3/16/2022 5:51:49 AM",
    "timestamp": 1647435109000,
    "description": "Aid Response",
    "address": "4700 Sw Admiral Way",
    "active": false,
    "unitCount": 1,
    "severity": 0,
    "lat": 47.581214,
    "long": -122.391903,
    "neighborhood": "West Seattle Junction/Genesee Hill",
    "neighborhoodGroup": "Southwest",
    "units": "E29"
  },
  {
    "id_str": "F220030820",
    "created_at": "3/16/2022 5:37:12 AM",
    "timestamp": 1647434232000,
    "description": "Encampment Fire",
    "address": "M L King Jr Way S / S Angeline St",
    "active": false,
    "unitCount": 1,
    "severity": 0,
    "lat": 47.559344,
    "long": -122.292325,
    "neighborhood": "Columbia City",
    "neighborhoodGroup": "Southeast",
    "units": "E28"
  },
  {
    "id_str": "F220030819",
    "created_at": "3/16/2022 5:32:03 AM",
    "timestamp": 1647433923000,
    "description": "Aid Response",
    "address": "1431 Minor Ave",
    "active": false,
    "unitCount": 1,
    "severity": 0,
    "lat": 47.613247,
    "long": -122.327187,
    "neighborhood": "Capitol Hill",
    "neighborhoodGroup": "East",
    "units": "A25"
  },
  {
    "id_str": "F220030817",
    "created_at": "3/16/2022 5:26:10 AM",
    "timestamp": 1647433570000,
    "description": "Auto Fire Alarm",
    "address": "5019 Roosevelt Way Ne",
    "active": false,
    "unitCount": 2,
    "severity": 0,
    "lat": 47.665073,
    "long": -122.317402,
    "neighborhood": "University District",
    "neighborhoodGroup": "Northeast",
    "units": "E17 L9"
  },
  {
    "id_str": "F220030816",
    "created_at": "3/16/2022 5:08:59 AM",
    "timestamp": 1647432539000,
    "description": "Aid Response",
    "address": "6188 4th Ave S",
    "active": false,
    "unitCount": 1,
    "severity": 0,
    "lat": 47.547461,
    "long": -122.329585,
    "neighborhood": "Georgetown",
    "neighborhoodGroup": "Greater Duwamish",
    "units": "E27"
  },
  {
    "id_str": "F220030814",
    "created_at": "3/16/2022 5:08:13 AM",
    "timestamp": 1647432493000,
    "description": "Auto Fire Alarm",
    "address": "107 Cherry St",
    "active": false,
    "unitCount": 2,
    "severity": 0,
    "lat": 47.602588,
    "long": -122.334202,
    "neighborhood": "Downtown Commercial Core",
    "neighborhoodGroup": "Downtown",
    "units": "E5 L1"
  },
  {
    "id_str": "F220030815",
    "created_at": "3/16/2022 5:08:12 AM",
    "timestamp": 1647432492000,
    "description": "Aid Response",
    "address": "204 3rd Ave S",
    "active": false,
    "unitCount": 1,
    "severity": 0,
    "lat": 47.600843,
    "long": -122.330271,
    "neighborhood": "Pioneer Square/International District",
    "neighborhoodGroup": "Downtown",
    "units": "A10"
  },
  {
    "id_str": "F220030813",
    "created_at": "3/16/2022 4:57:49 AM",
    "timestamp": 1647431869000,
    "description": "Aid Response",
    "address": "4243 S Kenny St",
    "active": false,
    "unitCount": 1,
    "severity": 0,
    "lat": 47.54894,
    "long": -122.280223,
    "neighborhood": "Columbia City",
    "neighborhoodGroup": "Southeast",
    "units": "E28"
  },
  {
    "id_str": "F220030810",
    "created_at": "3/16/2022 4:17:54 AM",
    "timestamp": 1647429474000,
    "description": "Hang-Up, Aid",
    "address": "204 3rd Ave S",
    "active": false,
    "unitCount": 1,
    "severity": 0,
    "lat": 47.600843,
    "long": -122.330271,
    "neighborhood": "Pioneer Square/International District",
    "neighborhoodGroup": "Downtown",
    "units": "A10"
  },
  {
    "id_str": "F220030809",
    "created_at": "3/16/2022 4:14:09 AM",
    "timestamp": 1647429249000,
    "description": "Rubbish Fire",
    "address": "Rainier Ave S / S Henderson St",
    "active": false,
    "unitCount": 1,
    "severity": 0,
    "lat": 47.523307,
    "long": -122.269986,
    "neighborhood": "Rainier Beach",
    "neighborhoodGroup": "Southeast",
    "units": "E33"
  },
  {
    "id_str": "F220030808",
    "created_at": "3/16/2022 4:04:03 AM",
    "timestamp": 1647428643000,
    "description": "Medic Response",
    "address": "2424 Sw Andover St",
    "active": false,
    "unitCount": 3,
    "severity": 0,
    "lat": 47.568347,
    "long": -122.363532,
    "neighborhood": "North Delridge",
    "neighborhoodGroup": "Delridge Neighborhoods",
    "units": "E36 M26 M32"
  },
  {
    "id_str": "F220030807",
    "created_at": "3/16/2022 4:00:11 AM",
    "timestamp": 1647428411000,
    "description": "Activated CO Detector",
    "address": "4557 Latona Ave Ne",
    "active": false,
    "unitCount": 1,
    "severity": 0,
    "lat": 47.661858,
    "long": -122.3251,
    "neighborhood": "Wallingford",
    "neighborhoodGroup": "Lake Union",
    "units": "L8"
  },
  {
    "id_str": "F220030806",
    "created_at": "3/16/2022 3:56:58 AM",
    "timestamp": 1647428218000,
    "description": "Aid Response",
    "address": "5311 33rd Ave S",
    "active": false,
    "unitCount": 1,
    "severity": 0,
    "lat": 47.554267,
    "long": -122.290487,
    "neighborhood": "Beacon Hill",
    "neighborhoodGroup": "Greater Duwamish",
    "units": "E28"
  },
  {
    "id_str": "F220030805",
    "created_at": "3/16/2022 3:53:26 AM",
    "timestamp": 1647428006000,
    "description": "Medic Response",
    "address": "1600 S Lane St",
    "active": false,
    "unitCount": 2,
    "severity": 0,
    "lat": 47.59665,
    "long": -122.311586,
    "neighborhood": "Judkins Park",
    "neighborhoodGroup": "Central",
    "units": "A5 M1"
  },
  {
    "id_str": "F220030804",
    "created_at": "3/16/2022 3:30:26 AM",
    "timestamp": 1647426626000,
    "description": "Medic Response",
    "address": "4710 40th Ave Sw",
    "active": false,
    "unitCount": 2,
    "severity": 0,
    "lat": 47.560907,
    "long": -122.38282,
    "neighborhood": "West Seattle Junction/Genesee Hill",
    "neighborhoodGroup": "Southwest",
    "units": "E32 M32"
  },
  {
    "id_str": "F220030801",
    "created_at": "3/16/2022 3:27:20 AM",
    "timestamp": 1647426440000,
    "description": "Aid Response",
    "address": "509 3rd Ave",
    "active": false,
    "unitCount": 1,
    "severity": 0,
    "lat": 47.602114,
    "long": -122.330809,
    "neighborhood": "Downtown Commercial Core",
    "neighborhoodGroup": "Downtown",
    "units": "A10"
  },
  {
    "id_str": "F220030803",
    "created_at": "3/16/2022 3:21:33 AM",
    "timestamp": 1647426093000,
    "description": "Water Job Minor",
    "address": "9274 44th Ave Sw",
    "active": false,
    "unitCount": 1,
    "severity": 0,
    "lat": 47.519494,
    "long": -122.389718,
    "neighborhood": "Fauntleroy/Seaview",
    "neighborhoodGroup": "Southwest",
    "units": "L13"
  },
  {
    "id_str": "F220030800",
    "created_at": "3/16/2022 3:21:20 AM",
    "timestamp": 1647426080000,
    "description": "4RED - 2 + 1 + 1",
    "address": "2408 NE 125TH ST",
    "active": false,
    "unitCount": 6,
    "severity": 1,
    "lat": 47.719316,
    "long": -122.301865,
    "neighborhood": "Olympic Hills/Victory Heights",
    "neighborhoodGroup": "North",
    "units": "B6 E39 E40 L5 L9 MAR5"
  },
  {
    "id_str": "F220030798",
    "created_at": "3/16/2022 2:56:18 AM",
    "timestamp": 1647424578000,
    "description": "Aid Response",
    "address": "2506 2nd Ave",
    "active": false,
    "unitCount": 1,
    "severity": 0,
    "lat": 47.615389,
    "long": -122.347935,
    "neighborhood": "Belltown",
    "neighborhoodGroup": "Downtown",
    "units": "A2"
  },
  {
    "id_str": "F220030797",
    "created_at": "3/16/2022 2:54:19 AM",
    "timestamp": 1647424459000,
    "description": "Auto Fire Alarm",
    "address": "1128 Ne 41st St",
    "active": false,
    "unitCount": 2,
    "severity": 0,
    "lat": 47.656872,
    "long": -122.31637,
    "neighborhood": "University District",
    "neighborhoodGroup": "Northeast",
    "units": "E9 L9"
  },
  {
    "id_str": "F220030796",
    "created_at": "3/16/2022 2:53:12 AM",
    "timestamp": 1647424392000,
    "description": "Aid Response",
    "address": "6726 31st Ave Sw",
    "active": false,
    "unitCount": 1,
    "severity": 0,
    "lat": 47.54259,
    "long": -122.372277,
    "neighborhood": "High Point",
    "neighborhoodGroup": "Delridge Neighborhoods",
    "units": "E37"
  },
  {
    "id_str": "F220030794",
    "created_at": "3/16/2022 2:44:54 AM",
    "timestamp": 1647423894000,
    "description": "Aid Response",
    "address": "715 Spring St",
    "active": false,
    "unitCount": 1,
    "severity": 0,
    "lat": 47.608268,
    "long": -122.330056,
    "neighborhood": "First Hill",
    "neighborhoodGroup": "East",
    "units": "A5"
  },
  {
    "id_str": "F220030792",
    "created_at": "3/16/2022 2:30:24 AM",
    "timestamp": 1647423024000,
    "description": "Aid Response",
    "address": "1626 E Lynn St",
    "active": false,
    "unitCount": 1,
    "severity": 0,
    "lat": 47.639561,
    "long": -122.310535,
    "neighborhood": "Montlake/Portage Bay",
    "neighborhoodGroup": "Northeast",
    "units": "E22"
  },
  {
    "id_str": "F220030790",
    "created_at": "3/16/2022 2:20:23 AM",
    "timestamp": 1647422423000,
    "description": "Scenes Of Violence 7",
    "address": "4700-block East Marginal Way S",
    "active": false,
    "unitCount": 5,
    "severity": 1,
    "lat": 47.560319,
    "long": -122.33944,
    "neighborhood": "Duwamish/SODO",
    "neighborhoodGroup": "Greater Duwamish",
    "units": "A14 B5 M26 M44 R1"
  },
  {
    "id_str": "F220030789",
    "created_at": "3/16/2022 2:14:53 AM",
    "timestamp": 1647422093000,
    "description": "Aid Response",
    "address": "5020 22nd Ave Ne",
    "active": false,
    "unitCount": 1,
    "severity": 0,
    "lat": 47.665051,
    "long": -122.304449,
    "neighborhood": "Ravenna/Bryant",
    "neighborhoodGroup": "Northeast",
    "units": "E17"
  },
  {
    "id_str": "F220030788",
    "created_at": "3/16/2022 2:04:52 AM",
    "timestamp": 1647421492000,
    "description": "Low Acuity Response",
    "address": "5311 33rd Ave S",
    "active": false,
    "unitCount": 1,
    "severity": 0,
    "lat": 47.554267,
    "long": -122.290487,
    "neighborhood": "Beacon Hill",
    "neighborhoodGroup": "Greater Duwamish",
    "units": "E28"
  },
  {
    "id_str": "F220030787",
    "created_at": "3/16/2022 1:58:28 AM",
    "timestamp": 1647421108000,
    "description": "Aid Response",
    "address": "1010 E Pike St",
    "active": false,
    "unitCount": 1,
    "severity": 0,
    "lat": 47.614086,
    "long": -122.319314,
    "neighborhood": "Capitol Hill",
    "neighborhoodGroup": "East",
    "units": "A25"
  },
  {
    "id_str": "F220030786",
    "created_at": "3/16/2022 1:50:49 AM",
    "timestamp": 1647420649000,
    "description": "Medic Response",
    "address": "Ne Northgate Way / Roosevelt Way Ne",
    "active": false,
    "unitCount": 2,
    "severity": 0,
    "lat": 47.708561,
    "long": -122.317852,
    "neighborhood": "Northgate/Maple Leaf",
    "neighborhoodGroup": "North",
    "units": "E31 M31"
  },
  {
    "id_str": "F220030785",
    "created_at": "3/16/2022 1:49:28 AM",
    "timestamp": 1647420568000,
    "description": "Aid Response",
    "address": "7th Ave N / Thomas St",
    "active": false,
    "unitCount": 1,
    "severity": 0,
    "lat": 47.620893,
    "long": -122.343685,
    "neighborhood": "Cascade/Eastlake",
    "neighborhoodGroup": "Lake Union",
    "units": "A2"
  },
  {
    "id_str": "F220030784",
    "created_at": "3/16/2022 1:47:01 AM",
    "timestamp": 1647420421000,
    "description": "Aid Response",
    "address": "4831 35th Ave Sw",
    "active": false,
    "unitCount": 1,
    "severity": 0,
    "lat": 47.558988,
    "long": -122.376234,
    "neighborhood": "West Seattle Junction/Genesee Hill",
    "neighborhoodGroup": "Southwest",
    "units": "E32"
  },
  {
    "id_str": "F220030782",
    "created_at": "3/16/2022 1:39:34 AM",
    "timestamp": 1647419974000,
    "description": "Low Acuity Response",
    "address": "3625 Albion Pl N",
    "active": false,
    "unitCount": 1,
    "severity": 0,
    "lat": 47.650828,
    "long": -122.344743,
    "neighborhood": "Fremont",
    "neighborhoodGroup": "Lake Union",
    "units": "E9"
  },
  {
    "id_str": "F220030781",
    "created_at": "3/16/2022 1:31:17 AM",
    "timestamp": 1647419477000,
    "description": "Medic Response",
    "address": "500 S King St",
    "active": false,
    "unitCount": 2,
    "severity": 0,
    "lat": 47.598356,
    "long": -122.327671,
    "neighborhood": "Pioneer Square/International District",
    "neighborhoodGroup": "Downtown",
    "units": "A10 M10"
  },
  {
    "id_str": "F220030780",
    "created_at": "3/16/2022 1:31:12 AM",
    "timestamp": 1647419472000,
    "description": "Aid Response",
    "address": "3103 Mount Rainier Dr S",
    "active": false,
    "unitCount": 1,
    "severity": 0,
    "lat": 47.576247,
    "long": -122.285758,
    "neighborhood": "Mt. Baker/North Rainier",
    "neighborhoodGroup": "Southeast",
    "units": "E30"
  },
  {
    "id_str": "F220030779",
    "created_at": "3/16/2022 1:17:12 AM",
    "timestamp": 1647418632000,
    "description": "Aid Response",
    "address": "710 Cherry St",
    "active": false,
    "unitCount": 1,
    "severity": 0,
    "lat": 47.605387,
    "long": -122.327511,
    "neighborhood": "First Hill",
    "neighborhoodGroup": "East",
    "units": "A5"
  },
  {
    "id_str": "F220030778",
    "created_at": "3/16/2022 1:01:02 AM",
    "timestamp": 1647417662000,
    "description": "Aid Response",
    "address": "910 John St",
    "active": false,
    "unitCount": 1,
    "severity": 0,
    "lat": 47.619709,
    "long": -122.339507,
    "neighborhood": "Cascade/Eastlake",
    "neighborhoodGroup": "Lake Union",
    "units": "E2"
  },
  {
    "id_str": "F220030777",
    "created_at": "3/16/2022 12:59:03 AM",
    "timestamp": 1647417543000,
    "description": "Aid Response",
    "address": "4616 M L King Jr Way S",
    "active": false,
    "unitCount": 1,
    "severity": 0,
    "lat": 47.561674,
    "long": -122.293783,
    "neighborhood": "Columbia City",
    "neighborhoodGroup": "Southeast",
    "units": "E30"
  },
  {
    "id_str": "F220030776",
    "created_at": "3/16/2022 12:55:29 AM",
    "timestamp": 1647417329000,
    "description": "Low Acuity Response",
    "address": "501 S ROYAL BROUGHAM WAY",
    "active": false,
    "unitCount": 1,
    "severity": 0,
    "lat": 47.592393,
    "long": -122.325968,
    "neighborhood": "Duwamish/SODO",
    "neighborhoodGroup": "Greater Duwamish",
    "units": "E10"
  },
  {
    "id_str": "F220030775",
    "created_at": "3/16/2022 12:54:33 AM",
    "timestamp": 1647417273000,
    "description": "Medic Response",
    "address": "2209 1st Ave",
    "active": false,
    "unitCount": 2,
    "severity": 0,
    "lat": 47.612669,
    "long": -122.345319,
    "neighborhood": "Belltown",
    "neighborhoodGroup": "Downtown",
    "units": "A2 M10"
  },
  {
    "id_str": "F220030774",
    "created_at": "3/16/2022 12:53:20 AM",
    "timestamp": 1647417200000,
    "description": "Aid Response",
    "address": "607 3rd Ave",
    "active": false,
    "unitCount": 1,
    "severity": 0,
    "lat": 47.602813,
    "long": -122.331449,
    "neighborhood": "Downtown Commercial Core",
    "neighborhoodGroup": "Downtown",
    "units": "A10"
  },
  {
    "id_str": "F220030773",
    "created_at": "3/16/2022 12:45:37 AM",
    "timestamp": 1647416737000,
    "description": "Aid Response",
    "address": "425 Pike St",
    "active": false,
    "unitCount": 1,
    "severity": 0,
    "lat": 47.610332,
    "long": -122.3364,
    "neighborhood": "Downtown Commercial Core",
    "neighborhoodGroup": "Downtown",
    "units": "A5"
  },
  {
    "id_str": "F220030772",
    "created_at": "3/16/2022 12:44:34 AM",
    "timestamp": 1647416674000,
    "description": "Low Acuity Response",
    "address": "1110 W Howe St",
    "active": false,
    "unitCount": 1,
    "severity": 0,
    "lat": 47.635955,
    "long": -122.371758,
    "neighborhood": "Interbay",
    "neighborhoodGroup": "Magnolia/Queen Anne",
    "units": "E20"
  },
  {
    "id_str": "F220030770",
    "created_at": "3/16/2022 12:38:33 AM",
    "timestamp": 1647416313000,
    "description": "Medic Response",
    "address": "3409 23rd Ave S",
    "active": false,
    "unitCount": 2,
    "severity": 0,
    "lat": 47.573035,
    "long": -122.303381,
    "neighborhood": "North Beacon Hill/Jefferson Park",
    "neighborhoodGroup": "Greater Duwamish",
    "units": "E13 M1"
  },
  {
    "id_str": "F220030768",
    "created_at": "3/16/2022 12:35:42 AM",
    "timestamp": 1647416142000,
    "description": "Aid Response",
    "address": "1863 E Yesler Way",
    "active": false,
    "unitCount": 1,
    "severity": 0,
    "lat": 47.601677,
    "long": -122.308122,
    "neighborhood": "Central Area/Squire Park",
    "neighborhoodGroup": "Central",
    "units": "E6"
  },
  {
    "id_str": "F220030766",
    "created_at": "3/16/2022 12:19:30 AM",
    "timestamp": 1647415170000,
    "description": "MVI - Motor Vehicle Incident",
    "address": "1740 Aurora Ave N",
    "active": false,
    "unitCount": 1,
    "severity": 0,
    "lat": 47.634582,
    "long": -122.34335,
    "neighborhood": "Queen Anne",
    "neighborhoodGroup": "Magnolia/Queen Anne",
    "units": "E2"
  },
  {
    "id_str": "F220030765",
    "created_at": "3/16/2022 12:19:23 AM",
    "timestamp": 1647415163000,
    "description": "Medic Response",
    "address": "4416 S Brandon St",
    "active": false,
    "unitCount": 2,
    "severity": 0,
    "lat": 47.553402,
    "long": -122.279146,
    "neighborhood": "Columbia City",
    "neighborhoodGroup": "Southeast",
    "units": "E28 M28"
  },
  {
    "id_str": "F220030764",
    "created_at": "3/16/2022 12:17:42 AM",
    "timestamp": 1647415062000,
    "description": "MVI - Motor Vehicle Incident",
    "address": "2nd Ave / Pike St",
    "active": false,
    "unitCount": 1,
    "severity": 0,
    "lat": 47.609285,
    "long": -122.338904,
    "neighborhood": "Downtown Commercial Core",
    "neighborhoodGroup": "Downtown",
    "units": "E5"
  },
  {
    "id_str": "F220030763",
    "created_at": "3/16/2022 12:06:55 AM",
    "timestamp": 1647414415000,
    "description": "Low Acuity Response",
    "address": "8724 Mary Ave Nw",
    "active": false,
    "unitCount": 1,
    "severity": 0,
    "lat": 47.692573,
    "long": -122.375453,
    "neighborhood": "North Beach/Blue Ridge",
    "neighborhoodGroup": "Ballard",
    "units": "E35"
  },
  {
    "id_str": "F220030762",
    "created_at": "3/15/2022 11:56:19 PM",
    "timestamp": 1647413779000,
    "description": "Aid Response",
    "address": "298 Yesler Way",
    "active": false,
    "unitCount": 1,
    "severity": 0,
    "lat": 47.601716,
    "long": -122.330265,
    "neighborhood": "Downtown Commercial Core",
    "neighborhoodGroup": "Downtown",
    "units": "A10"
  },
  {
    "id_str": "F220030760",
    "created_at": "3/15/2022 11:54:34 PM",
    "timestamp": 1647413674000,
    "description": "Rubbish Fire",
    "address": "29th Ave Sw / Sw Barton St",
    "active": false,
    "unitCount": 1,
    "severity": 0,
    "lat": 47.52104,
    "long": -122.369969,
    "neighborhood": "Roxhill/Westwood",
    "neighborhoodGroup": "Delridge Neighborhoods",
    "units": "E37"
  },
  {
    "id_str": "F220030759",
    "created_at": "3/15/2022 11:54:27 PM",
    "timestamp": 1647413667000,
    "description": "Encampment Fire",
    "address": "3802 S Othello St",
    "active": false,
    "unitCount": 1,
    "severity": 0,
    "lat": 47.537035,
    "long": -122.28468,
    "neighborhood": "South Beacon Hill/NewHolly",
    "neighborhoodGroup": "Greater Duwamish",
    "units": "E28"
  },
  {
    "id_str": "F220030758",
    "created_at": "3/15/2022 11:52:41 PM",
    "timestamp": 1647413561000,
    "description": "Aid Response",
    "address": "10507 Aurora Ave N",
    "active": false,
    "unitCount": 1,
    "severity": 0,
    "lat": 47.705096,
    "long": -122.344695,
    "neighborhood": "Licton Springs",
    "neighborhoodGroup": "Northwest",
    "units": "E31"
  },
  {
    "id_str": "F220030757",
    "created_at": "3/15/2022 11:51:05 PM",
    "timestamp": 1647413465000,
    "description": "Aid Response",
    "address": "110 W Olympic Pl",
    "active": false,
    "unitCount": 1,
    "severity": 0,
    "lat": 47.626721,
    "long": -122.35812,
    "neighborhood": "Queen Anne",
    "neighborhoodGroup": "Magnolia/Queen Anne",
    "units": "E8"
  },
  {
    "id_str": "F220030756",
    "created_at": "3/15/2022 11:50:27 PM",
    "timestamp": 1647413427000,
    "description": "Aid Response",
    "address": "4008 Sw Prince St",
    "active": false,
    "unitCount": 1,
    "severity": 0,
    "lat": 47.582439,
    "long": -122.382538,
    "neighborhood": "Alki/Admiral",
    "neighborhoodGroup": "Southwest",
    "units": "E29"
  },
  {
    "id_str": "F220030755",
    "created_at": "3/15/2022 11:49:53 PM",
    "timestamp": 1647413393000,
    "description": "MVI - Motor Vehicle Incident",
    "address": "3228 14TH AVE W",
    "active": false,
    "unitCount": 2,
    "severity": 0,
    "lat": 47.648725,
    "long": -122.374887,
    "neighborhood": "Queen Anne",
    "neighborhoodGroup": "Magnolia/Queen Anne",
    "units": "E20 E25"
  },
  {
    "id_str": "F220030754",
    "created_at": "3/15/2022 11:48:44 PM",
    "timestamp": 1647413324000,
    "description": "Low Acuity Response",
    "address": "118 Bell St",
    "active": false,
    "unitCount": 1,
    "severity": 0,
    "lat": 47.613497,
    "long": -122.346355,
    "neighborhood": "Belltown",
    "neighborhoodGroup": "Downtown",
    "units": "A2"
  },
  {
    "id_str": "F220030753",
    "created_at": "3/15/2022 11:43:22 PM",
    "timestamp": 1647413002000,
    "description": "Aid Response",
    "address": "1001 E James Way",
    "active": false,
    "unitCount": 1,
    "severity": 0,
    "lat": 47.607834,
    "long": -122.319302,
    "neighborhood": "First Hill",
    "neighborhoodGroup": "East",
    "units": "A25"
  },
  {
    "id_str": "F220030752",
    "created_at": "3/15/2022 11:42:14 PM",
    "timestamp": 1647412934000,
    "description": "2RED - 1 + 1",
    "address": "1728 E Olive St",
    "active": false,
    "unitCount": 2,
    "severity": 0,
    "lat": 47.616442,
    "long": -122.309778,
    "neighborhood": "Central Area/Squire Park",
    "neighborhoodGroup": "Central",
    "units": "E25 L10"
  },
  {
    "id_str": "F220030749",
    "created_at": "3/15/2022 11:31:24 PM",
    "timestamp": 1647412284000,
    "description": "Aid Response",
    "address": "810 Virginia St",
    "active": false,
    "unitCount": 1,
    "severity": 0,
    "lat": 47.615789,
    "long": -122.336507,
    "neighborhood": "Cascade/Eastlake",
    "neighborhoodGroup": "Lake Union",
    "units": "A2"
  },
  {
    "id_str": "F220030748",
    "created_at": "3/15/2022 11:27:05 PM",
    "timestamp": 1647412025000,
    "description": "Aid Response",
    "address": "725 9th Ave",
    "active": false,
    "unitCount": 1,
    "severity": 0,
    "lat": 47.606444,
    "long": -122.325563,
    "neighborhood": "First Hill",
    "neighborhoodGroup": "East",
    "units": "A5"
  },
  {
    "id_str": "F220030747",
    "created_at": "3/15/2022 11:25:09 PM",
    "timestamp": 1647411909000,
    "description": "Aid Response",
    "address": "715 Spring St",
    "active": false,
    "unitCount": 1,
    "severity": 0,
    "lat": 47.608268,
    "long": -122.330056,
    "neighborhood": "First Hill",
    "neighborhoodGroup": "East",
    "units": "A10"
  },
  {
    "id_str": "F220030744",
    "created_at": "3/15/2022 11:19:03 PM",
    "timestamp": 1647411543000,
    "description": "Medic Response",
    "address": "1403 N 95th St",
    "active": false,
    "unitCount": 2,
    "severity": 0,
    "lat": 47.697795,
    "long": -122.340774,
    "neighborhood": "Licton Springs",
    "neighborhoodGroup": "Northwest",
    "units": "E31 M31"
  },
  {
    "id_str": "F220030741",
    "created_at": "3/15/2022 11:10:03 PM",
    "timestamp": 1647411003000,
    "description": "Alarm Bell",
    "address": "1520 Melrose Ave",
    "active": false,
    "unitCount": 1,
    "severity": 0,
    "lat": 47.614174,
    "long": -122.327923,
    "neighborhood": "Capitol Hill",
    "neighborhoodGroup": "East",
    "units": "E25"
  },
  {
    "id_str": "F220030740",
    "created_at": "3/15/2022 11:07:44 PM",
    "timestamp": 1647410864000,
    "description": "Aid Response",
    "address": "4420 S Kenyon St",
    "active": false,
    "unitCount": 1,
    "severity": 0,
    "lat": 47.531547,
    "long": -122.27738,
    "neighborhood": "Columbia City",
    "neighborhoodGroup": "Southeast",
    "units": "E33"
  },
  {
    "id_str": "F220030739",
    "created_at": "3/15/2022 11:00:02 PM",
    "timestamp": 1647410402000,
    "description": "Aid Response",
    "address": "1431 Minor Ave",
    "active": false,
    "unitCount": 1,
    "severity": 0,
    "lat": 47.613247,
    "long": -122.327187,
    "neighborhood": "Capitol Hill",
    "neighborhoodGroup": "East",
    "units": "A25"
  },
  {
    "id_str": "F220030738",
    "created_at": "3/15/2022 10:53:01 PM",
    "timestamp": 1647409981000,
    "description": "MVI - Motor Vehicle Incident",
    "address": "9403 16th Ave Sw",
    "active": false,
    "unitCount": 1,
    "severity": 0,
    "lat": 47.519168,
    "long": -122.355145,
    "neighborhood": "Highland Park",
    "neighborhoodGroup": "Delridge Neighborhoods",
    "units": "E11"
  },
  {
    "id_str": "F220030737",
    "created_at": "3/15/2022 10:31:27 PM",
    "timestamp": 1647408687000,
    "description": "Auto Fire Alarm",
    "address": "2519 1st Ave",
    "active": false,
    "unitCount": 2,
    "severity": 0,
    "lat": 47.614798,
    "long": -122.348918,
    "neighborhood": "Belltown",
    "neighborhoodGroup": "Downtown",
    "units": "E2 L4"
  },
  {
    "id_str": "F220030736",
    "created_at": "3/15/2022 10:28:58 PM",
    "timestamp": 1647408538000,
    "description": "Aid Response",
    "address": "1st Ave S / S Lander St",
    "active": false,
    "unitCount": 1,
    "severity": 0,
    "lat": 47.579811,
    "long": -122.334201,
    "neighborhood": "Duwamish/SODO",
    "neighborhoodGroup": "Greater Duwamish",
    "units": "A14"
  },
  {
    "id_str": "F220030735",
    "created_at": "3/15/2022 10:19:09 PM",
    "timestamp": 1647407949000,
    "description": "Aid Response",
    "address": "77 S Washington St",
    "active": false,
    "unitCount": 1,
    "severity": 0,
    "lat": 47.600885,
    "long": -122.334925,
    "neighborhood": "Pioneer Square/International District",
    "neighborhoodGroup": "Downtown",
    "units": "A5"
  },
  {
    "id_str": "F220030734",
    "created_at": "3/15/2022 10:16:48 PM",
    "timestamp": 1647407808000,
    "description": "Illegal Burn",
    "address": "2nd Ave / James St",
    "active": false,
    "unitCount": 1,
    "severity": 0,
    "lat": 47.602306,
    "long": -122.332519,
    "neighborhood": "Downtown Commercial Core",
    "neighborhoodGroup": "Downtown",
    "units": "E10"
  },
  {
    "id_str": "F220030733",
    "created_at": "3/15/2022 9:59:10 PM",
    "timestamp": 1647406750000,
    "description": "Rescue Elevator",
    "address": "900 S Jackson St",
    "active": false,
    "unitCount": 1,
    "severity": 0,
    "lat": 47.599191,
    "long": -122.321025,
    "neighborhood": "Pioneer Square/International District",
    "neighborhoodGroup": "Downtown",
    "units": "L1"
  },
  {
    "id_str": "F220030732",
    "created_at": "3/15/2022 9:57:41 PM",
    "timestamp": 1647406661000,
    "description": "Auto Fire Alarm",
    "address": "1253 S Jackson St",
    "active": false,
    "unitCount": 2,
    "severity": 0,
    "lat": 47.599193,
    "long": -122.316407,
    "neighborhood": "Judkins Park",
    "neighborhoodGroup": "Central",
    "units": "E6 L3"
  },
  {
    "id_str": "F220030731",
    "created_at": "3/15/2022 9:50:08 PM",
    "timestamp": 1647406208000,
    "description": "Medic Response",
    "address": "415 10th Ave",
    "active": false,
    "unitCount": 2,
    "severity": 0,
    "lat": 47.605346,
    "long": -122.319413,
    "neighborhood": "First Hill",
    "neighborhoodGroup": "East",
    "units": "A25 M10"
  },
  {
    "id_str": "F220030730",
    "created_at": "3/15/2022 9:49:46 PM",
    "timestamp": 1647406186000,
    "description": "Aid Response",
    "address": "8440 18th Ave Sw",
    "active": false,
    "unitCount": 1,
    "severity": 0,
    "lat": 47.527923,
    "long": -122.357761,
    "neighborhood": "Roxhill/Westwood",
    "neighborhoodGroup": "Delridge Neighborhoods",
    "units": "E11"
  },
  {
    "id_str": "F220030729",
    "created_at": "3/15/2022 9:48:46 PM",
    "timestamp": 1647406126000,
    "description": "Aid Response",
    "address": "12740 33rd Ave Ne",
    "active": false,
    "unitCount": 1,
    "severity": 0,
    "lat": 47.720938,
    "long": -122.292513,
    "neighborhood": "Cedar Park/Meadowbrook",
    "neighborhoodGroup": "North",
    "units": "E39"
  },
  {
    "id_str": "F220030728",
    "created_at": "3/15/2022 9:42:43 PM",
    "timestamp": 1647405763000,
    "description": "Alarm Bell",
    "address": "2018 Franklin Ave E",
    "active": false,
    "unitCount": 1,
    "severity": 0,
    "lat": 47.636894,
    "long": -122.324682,
    "neighborhood": "Cascade/Eastlake",
    "neighborhoodGroup": "Lake Union",
    "units": "E22"
  },
  {
    "id_str": "F220030727",
    "created_at": "3/15/2022 9:40:25 PM",
    "timestamp": 1647405625000,
    "description": "Auto Fire Alarm",
    "address": "4225 Roosevelt Way Ne",
    "active": false,
    "unitCount": 2,
    "severity": 0,
    "lat": 47.657942,
    "long": -122.317791,
    "neighborhood": "Wallingford",
    "neighborhoodGroup": "Lake Union",
    "units": "E17 L9"
  },
  {
    "id_str": "F220030724",
    "created_at": "3/15/2022 9:35:55 PM",
    "timestamp": 1647405355000,
    "description": "Medic Response",
    "address": "6341 4th Ave Ne",
    "active": false,
    "unitCount": 2,
    "severity": 0,
    "lat": 47.674671,
    "long": -122.324421,
    "neighborhood": "Green Lake",
    "neighborhoodGroup": "Northwest",
    "units": "E16 M17"
  },
  {
    "id_str": "F220030723",
    "created_at": "3/15/2022 9:28:40 PM",
    "timestamp": 1647404920000,
    "description": "Low Acuity Response",
    "address": "5311 33rd Ave S",
    "active": false,
    "unitCount": 1,
    "severity": 0,
    "lat": 47.554267,
    "long": -122.290487,
    "neighborhood": "Beacon Hill",
    "neighborhoodGroup": "Greater Duwamish",
    "units": "E28"
  },
  {
    "id_str": "F220030722",
    "created_at": "3/15/2022 9:28:11 PM",
    "timestamp": 1647404891000,
    "description": "Aid Response",
    "address": "9230 2nd Ave Sw",
    "active": false,
    "unitCount": 1,
    "severity": 0,
    "lat": 47.520679,
    "long": -122.335803,
    "units": "E26"
  },
  {
    "id_str": "F220030721",
    "created_at": "3/15/2022 9:27:36 PM",
    "timestamp": 1647404856000,
    "description": "Illegal Burn",
    "address": "Blanchard St / Western Ave",
    "active": false,
    "unitCount": 1,
    "severity": 0,
    "lat": 47.611942,
    "long": -122.346072,
    "neighborhood": "Belltown",
    "neighborhoodGroup": "Downtown",
    "units": "E2"
  },
  {
    "id_str": "F220030720",
    "created_at": "3/15/2022 9:24:51 PM",
    "timestamp": 1647404691000,
    "description": "Aid Response",
    "address": "111 Cedar St",
    "active": false,
    "unitCount": 1,
    "severity": 0,
    "lat": 47.615877,
    "long": -122.35052,
    "neighborhood": "Belltown",
    "neighborhoodGroup": "Downtown",
    "units": "A2"
  },
  {
    "id_str": "F220030718",
    "created_at": "3/15/2022 9:21:52 PM",
    "timestamp": 1647404512000,
    "description": "Illegal Burn",
    "address": "2665 Alki Ave Sw",
    "active": false,
    "unitCount": 1,
    "severity": 0,
    "lat": 47.579883,
    "long": -122.408419,
    "neighborhood": "Alki/Admiral",
    "neighborhoodGroup": "Southwest",
    "units": "E29"
  },
  {
    "id_str": "F220030717",
    "created_at": "3/15/2022 9:20:18 PM",
    "timestamp": 1647404418000,
    "description": "Aid Response",
    "address": "M L KING JR WAY S / S HENDERSON ST",
    "active": false,
    "unitCount": 1,
    "severity": 0,
    "lat": 47.523246,
    "long": -122.279209,
    "neighborhood": "South Beacon Hill/NewHolly",
    "neighborhoodGroup": "Greater Duwamish",
    "units": "E33"
  },
  {
    "id_str": "F220030715",
    "created_at": "3/15/2022 9:04:46 PM",
    "timestamp": 1647403486000,
    "description": "Aid Response",
    "address": "3512 Albion Pl N",
    "active": false,
    "unitCount": 1,
    "severity": 0,
    "lat": 47.649847,
    "long": -122.344754,
    "neighborhood": "Fremont",
    "neighborhoodGroup": "Lake Union",
    "units": "E9"
  },
  {
    "id_str": "F220030714",
    "created_at": "3/15/2022 9:04:41 PM",
    "timestamp": 1647403481000,
    "description": "Aid Response",
    "address": "4831 35th Ave Sw",
    "active": false,
    "unitCount": 1,
    "severity": 0,
    "lat": 47.558988,
    "long": -122.376234,
    "neighborhood": "West Seattle Junction/Genesee Hill",
    "neighborhoodGroup": "Southwest",
    "units": "E32"
  },
  {
    "id_str": "F220030716",
    "created_at": "3/15/2022 9:04:34 PM",
    "timestamp": 1647403474000,
    "description": "Investigate Out Of Service",
    "address": "9000 Rainier Ave S",
    "active": false,
    "unitCount": 1,
    "severity": 0,
    "lat": 47.523307,
    "long": -122.269986,
    "neighborhood": "Rainier Beach",
    "neighborhoodGroup": "Southeast",
    "units": "E33"
  },
  {
    "id_str": "F220030713",
    "created_at": "3/15/2022 9:01:33 PM",
    "timestamp": 1647403293000,
    "description": "Auto Fire Alarm",
    "address": "2121 26th Ave S",
    "active": false,
    "unitCount": 2,
    "severity": 0,
    "lat": 47.584234,
    "long": -122.299024,
    "neighborhood": "Mt. Baker/North Rainier",
    "neighborhoodGroup": "Southeast",
    "units": "E30 L3"
  },
  {
    "id_str": "F220030712",
    "created_at": "3/15/2022 8:56:45 PM",
    "timestamp": 1647403005000,
    "description": "Auto Fire Alarm",
    "address": "1712 Summit Ave",
    "active": false,
    "unitCount": 2,
    "severity": 0,
    "lat": 47.616499,
    "long": -122.325545,
    "neighborhood": "Capitol Hill",
    "neighborhoodGroup": "East",
    "units": "E25 L10"
  },
  {
    "id_str": "F220030711",
    "created_at": "3/15/2022 8:45:36 PM",
    "timestamp": 1647402336000,
    "description": "Aid Response",
    "address": "10507 Aurora Ave N",
    "active": false,
    "unitCount": 1,
    "severity": 0,
    "lat": 47.705096,
    "long": -122.344695,
    "neighborhood": "Licton Springs",
    "neighborhoodGroup": "Northwest",
    "units": "E31"
  },
  {
    "id_str": "V220030710",
    "created_at": "3/15/2022 8:38:42 PM",
    "timestamp": 1647401922000,
    "description": "Mutual Aid, Medic",
    "address": "6501 Perimeter Rd S",
    "active": false,
    "unitCount": 1,
    "severity": 0,
    "lat": 47.544504,
    "long": -122.311233,
    "neighborhood": "Georgetown",
    "neighborhoodGroup": "Greater Duwamish",
    "units": "M26"
  },
  {
    "id_str": "F220030709",
    "created_at": "3/15/2022 8:33:40 PM",
    "timestamp": 1647401620000,
    "description": "Aid Response",
    "address": "1100 S Atlantic St",
    "active": false,
    "unitCount": 1,
    "severity": 0,
    "lat": 47.589986,
    "long": -122.318209,
    "neighborhood": "Duwamish/SODO",
    "neighborhoodGroup": "Greater Duwamish",
    "units": "E13"
  },
  {
    "id_str": "F220030707",
    "created_at": "3/15/2022 8:29:05 PM",
    "timestamp": 1647401345000,
    "description": "Aid Response",
    "address": "8511 15th Ave Ne",
    "active": false,
    "unitCount": 1,
    "severity": 0,
    "lat": 47.690434,
    "long": -122.31223,
    "neighborhood": "Northgate/Maple Leaf",
    "neighborhoodGroup": "North",
    "units": "E16"
  },
  {
    "id_str": "F220030705",
    "created_at": "3/15/2022 8:24:58 PM",
    "timestamp": 1647401098000,
    "description": "Aid Response",
    "address": "4735 21st Ave Ne",
    "active": false,
    "unitCount": 1,
    "severity": 0,
    "lat": 47.663284,
    "long": -122.305458,
    "neighborhood": "Ravenna/Bryant",
    "neighborhoodGroup": "Northeast",
    "units": "E17"
  },
  {
    "id_str": "F220030704",
    "created_at": "3/15/2022 8:23:18 PM",
    "timestamp": 1647400998000,
    "description": "Auto Fire Alarm",
    "address": "1959 Ne Pacific St",
    "active": false,
    "unitCount": 2,
    "severity": 0,
    "lat": 47.650694,
    "long": -122.307916,
    "neighborhood": "University District",
    "neighborhoodGroup": "Northeast",
    "units": "E17 L9"
  },
  {
    "id_str": "F220030703",
    "created_at": "3/15/2022 8:19:38 PM",
    "timestamp": 1647400778000,
    "description": "Aid Response",
    "address": "13717 Linden Ave N",
    "active": false,
    "unitCount": 1,
    "severity": 0,
    "lat": 47.728255,
    "long": -122.347731,
    "neighborhood": "Broadview/Bitter Lake",
    "neighborhoodGroup": "Northwest",
    "units": "E24"
  },
  {
    "id_str": "F220030702",
    "created_at": "3/15/2022 8:13:19 PM",
    "timestamp": 1647400399000,
    "description": "Aid Response Freeway",
    "address": "Nb I5 At Mid Boeing Field",
    "active": false,
    "unitCount": 3,
    "severity": 0,
    "lat": 47.509956,
    "long": -122.282966,
    "neighborhood": "South Beacon Hill/NewHolly",
    "neighborhoodGroup": "Greater Duwamish",
    "units": "A14 E27 E33"
  },
  {
    "id_str": "F220030701",
    "created_at": "3/15/2022 8:08:29 PM",
    "timestamp": 1647400109000,
    "description": "Water Job Minor",
    "address": "815 E Pine St",
    "active": false,
    "unitCount": 1,
    "severity": 0,
    "lat": 47.615227,
    "long": -122.321926,
    "neighborhood": "Capitol Hill",
    "neighborhoodGroup": "East",
    "units": "L10"
  },
  {
    "id_str": "F220030700",
    "created_at": "3/15/2022 8:06:52 PM",
    "timestamp": 1647400012000,
    "description": "Aid Response",
    "address": "1330 N 90th St",
    "active": false,
    "unitCount": 2,
    "severity": 0,
    "lat": 47.694165,
    "long": -122.341008,
    "neighborhood": "Licton Springs",
    "neighborhoodGroup": "Northwest",
    "units": "E31 L5"
  },
  {
    "id_str": "F220030699",
    "created_at": "3/15/2022 8:05:46 PM",
    "timestamp": 1647399946000,
    "description": "Low Acuity Response",
    "address": "8724 Mary Ave Nw",
    "active": false,
    "unitCount": 1,
    "severity": 0,
    "lat": 47.692573,
    "long": -122.375453,
    "neighborhood": "North Beach/Blue Ridge",
    "neighborhoodGroup": "Ballard",
    "units": "E35"
  },
  {
    "id_str": "F220030697",
    "created_at": "3/15/2022 8:01:42 PM",
    "timestamp": 1647399702000,
    "description": "Auto Fire Alarm",
    "address": "1959 Ne Pacific St",
    "active": false,
    "unitCount": 2,
    "severity": 0,
    "lat": 47.650694,
    "long": -122.307916,
    "neighborhood": "University District",
    "neighborhoodGroup": "Northeast",
    "units": "E17 L9"
  },
  {
    "id_str": "F220030696",
    "created_at": "3/15/2022 8:00:01 PM",
    "timestamp": 1647399601000,
    "description": "Hang-Up, Aid",
    "address": "3266 Sw Avalon Way",
    "active": false,
    "unitCount": 1,
    "severity": 0,
    "lat": 47.56422,
    "long": -122.373106,
    "neighborhood": "North Delridge",
    "neighborhoodGroup": "Delridge Neighborhoods",
    "units": "E32"
  },
  {
    "id_str": "F220030691",
    "created_at": "3/15/2022 7:40:09 PM",
    "timestamp": 1647398409000,
    "description": "Aid Response",
    "address": "3723 Sw Sullivan St",
    "active": false,
    "unitCount": 1,
    "severity": 0,
    "lat": 47.527632,
    "long": -122.379629,
    "neighborhood": "Roxhill/Westwood",
    "neighborhoodGroup": "Delridge Neighborhoods",
    "units": "E37"
  },
  {
    "id_str": "F220030692",
    "created_at": "3/15/2022 7:40:06 PM",
    "timestamp": 1647398406000,
    "description": "MVI Freeway",
    "address": "Sb I5 At Michigan",
    "active": false,
    "unitCount": 4,
    "severity": 0,
    "lat": 47.559045,
    "long": -122.321742,
    "neighborhood": "Duwamish/SODO",
    "neighborhoodGroup": "Greater Duwamish",
    "units": "A14 E10 E13 E36"
  },
  {
    "id_str": "F220030690",
    "created_at": "3/15/2022 7:32:58 PM",
    "timestamp": 1647397978000,
    "description": "Medic Response",
    "address": "1105 6th Ave",
    "active": false,
    "unitCount": 2,
    "severity": 0,
    "lat": 47.607759,
    "long": -122.33137,
    "neighborhood": "First Hill",
    "neighborhoodGroup": "East",
    "units": "A10 M10"
  },
  {
    "id_str": "F220030689",
    "created_at": "3/15/2022 7:31:27 PM",
    "timestamp": 1647397887000,
    "description": "Medic Response",
    "address": "1300 E Pine St",
    "active": false,
    "unitCount": 2,
    "severity": 0,
    "lat": 47.615273,
    "long": -122.315549,
    "neighborhood": "Capitol Hill",
    "neighborhoodGroup": "East",
    "units": "L10 M1"
  },
  {
    "id_str": "F220030688",
    "created_at": "3/15/2022 7:28:10 PM",
    "timestamp": 1647397690000,
    "description": "Auto Fire Alarm",
    "address": "167 11th Ave",
    "active": false,
    "unitCount": 3,
    "severity": 0,
    "lat": 47.603246,
    "long": -122.318102,
    "neighborhood": "First Hill",
    "neighborhoodGroup": "East",
    "units": "E6 L10 L3"
  },
  {
    "id_str": "F220030687",
    "created_at": "3/15/2022 7:26:19 PM",
    "timestamp": 1647397579000,
    "description": "Aid Response",
    "address": "10601 5th Ave Ne",
    "active": false,
    "unitCount": 1,
    "severity": 0,
    "lat": 47.706291,
    "long": -122.323209,
    "neighborhood": "Northgate/Maple Leaf",
    "neighborhoodGroup": "North",
    "units": "E31"
  },
  {
    "id_str": "F220030686",
    "created_at": "3/15/2022 7:24:03 PM",
    "timestamp": 1647397443000,
    "description": "Medic Response, 6 per Rule",
    "address": "N 125th St / Aurora Ave N",
    "active": false,
    "unitCount": 3,
    "severity": 0,
    "lat": 47.719572,
    "long": -122.344937,
    "neighborhood": "Broadview/Bitter Lake",
    "neighborhoodGroup": "Northwest",
    "units": "A31 E24 M31"
  },
  {
    "id_str": "F220030685",
    "created_at": "3/15/2022 7:22:17 PM",
    "timestamp": 1647397337000,
    "description": "Aid Response",
    "address": "1500 Broadway",
    "active": false,
    "unitCount": 1,
    "severity": 0,
    "lat": 47.614076,
    "long": -122.32078,
    "neighborhood": "Capitol Hill",
    "neighborhoodGroup": "East",
    "units": "E25"
  },
  {
    "id_str": "F220030684",
    "created_at": "3/15/2022 7:19:40 PM",
    "timestamp": 1647397180000,
    "description": "Aid Response",
    "address": "206 Sw Michigan St",
    "active": false,
    "unitCount": 1,
    "severity": 0,
    "lat": 47.540719,
    "long": -122.337155,
    "neighborhood": "South Park",
    "neighborhoodGroup": "Greater Duwamish",
    "units": "E11"
  },
  {
    "id_str": "F220030683",
    "created_at": "3/15/2022 7:01:45 PM",
    "timestamp": 1647396105000,
    "description": "Aid Response",
    "address": "6940 62nd Ave Ne",
    "active": false,
    "unitCount": 1,
    "severity": 0,
    "lat": 47.678821,
    "long": -122.262227,
    "neighborhood": "Laurelhurst/Sand Point",
    "neighborhoodGroup": "Northeast",
    "units": "E38"
  },
  {
    "id_str": "F220030682",
    "created_at": "3/15/2022 7:01:34 PM",
    "timestamp": 1647396094000,
    "description": "Aid Response",
    "address": "2418 Nw 56th St",
    "active": false,
    "unitCount": 1,
    "severity": 0,
    "lat": 47.669458,
    "long": -122.387807,
    "neighborhood": "Sunset Hill/Loyal Heights",
    "neighborhoodGroup": "Ballard",
    "units": "L8"
  },
  {
    "id_str": "F220030681",
    "created_at": "3/15/2022 7:01:22 PM",
    "timestamp": 1647396082000,
    "description": "Aid Response",
    "address": "105 W Mercer St",
    "active": false,
    "unitCount": 1,
    "severity": 0,
    "lat": 47.624588,
    "long": -122.358069,
    "neighborhood": "Queen Anne",
    "neighborhoodGroup": "Magnolia/Queen Anne",
    "units": "A5"
  },
  {
    "id_str": "F220030680",
    "created_at": "3/15/2022 7:00:32 PM",
    "timestamp": 1647396032000,
    "description": "Aid Response",
    "address": "1602 18th Ave",
    "active": false,
    "unitCount": 1,
    "severity": 0,
    "lat": 47.615294,
    "long": -122.308847,
    "neighborhood": "Central Area/Squire Park",
    "neighborhoodGroup": "Central",
    "units": "A25"
  },