[
  {
    "id_str": "F220056026",
    "created_at": "5/16/2022 4:58:16 PM",
    "timestamp": 1652745496000,
    "description": "Aid Response",
    "address": "4556 UNIVERSITY WAY NE",
    "active": false,
    "unitCount": 1,
    "severity": 0,
    "lat": 47.661803,
    "long": -122.313122,
    "neighborhood": "University District",
    "neighborhoodGroup": "Northeast",
    "units": "E17"
  },
  {
    "id_str": "F220056025",
    "created_at": "5/16/2022 4:55:33 PM",
    "timestamp": 1652745333000,
    "description": "Aid Response",
    "address": "2001 S Alaska St",
    "active": false,
    "unitCount": 2,
    "severity": 0,
    "lat": 47.561142,
    "long": -122.306953,
    "neighborhood": "North Beacon Hill/Jefferson Park",
    "neighborhoodGroup": "Greater Duwamish",
    "units": "E13 M1"
  },
  {
    "id_str": "F220056024",
    "created_at": "5/16/2022 4:54:06 PM",
    "timestamp": 1652745246000,
    "description": "Medic Response",
    "address": "3039 Nw 58th St",
    "active": false,
    "unitCount": 3,
    "severity": 0,
    "lat": 47.670927,
    "long": -122.396168,
    "neighborhood": "Sunset Hill/Loyal Heights",
    "neighborhoodGroup": "Ballard",
    "units": "E18 M10 M17"
  },
  {
    "id_str": "F220056022",
    "created_at": "5/16/2022 4:52:29 PM",
    "timestamp": 1652745149000,
    "description": "Medic Response",
    "address": "Greenwood Ave N / N 125th St",
    "active": false,
    "unitCount": 2,
    "severity": 0,
    "lat": 47.719601,
    "long": -122.355539,
    "neighborhood": "Broadview/Bitter Lake",
    "neighborhoodGroup": "Northwest",
    "units": "E16 M17"
  },
  {
    "id_str": "F220056023",
    "created_at": "5/16/2022 4:52:26 PM",
    "timestamp": 1652745146000,
    "description": "Aid Response",
    "address": "2900 3rd Ave W",
    "active": false,
    "unitCount": 1,
    "severity": 0,
    "lat": 47.645803,
    "long": -122.360896,
    "neighborhood": "Queen Anne",
    "neighborhoodGroup": "Magnolia/Queen Anne",
    "units": "E9"
  },
  {
    "id_str": "F220056020",
    "created_at": "5/16/2022 4:50:29 PM",
    "timestamp": 1652745029000,
    "description": "Fire in Building",
    "address": "Greenwood Ave N / N 125th St",
    "active": false,
    "unitCount": 19,
    "severity": 2,
    "lat": 47.719601,
    "long": -122.355539,
    "neighborhood": "Broadview/Bitter Lake",
    "neighborhoodGroup": "Northwest",
    "units": "A25 AIR10 B4 B6 DEP1 E21 E24 E31 E35 E39 L5 L8 L9 M18 M44 MAR5 REHAB1 SAFT2 STAF10"
  },
  {
    "id_str": "F220056019",
    "created_at": "5/16/2022 4:49:17 PM",
    "timestamp": 1652744957000,
    "description": "Aid Response",
    "address": "1911 22nd Ave S",
    "active": false,
    "unitCount": 2,
    "severity": 0,
    "lat": 47.586234,
    "long": -122.304237,
    "neighborhood": "North Beacon Hill/Jefferson Park",
    "neighborhoodGroup": "Greater Duwamish",
    "units": "E30 MIH"
  },
  {
    "id_str": "F220056017",
    "created_at": "5/16/2022 4:48:13 PM",
    "timestamp": 1652744893000,
    "description": "Aid Response",
    "address": "13th Ave / E Olive St",
    "active": false,
    "unitCount": 1,
    "severity": 0,
    "lat": 47.616441,
    "long": -122.315567,
    "neighborhood": "Capitol Hill",
    "neighborhoodGroup": "East",
    "units": "E25"
  },
  {
    "id_str": "F220056018",
    "created_at": "5/16/2022 4:47:55 PM",
    "timestamp": 1652744875000,
    "description": "Activated CO Detector",
    "address": "1023 E Alder St",
    "active": false,
    "unitCount": 2,
    "severity": 0,
    "lat": 47.60436,
    "long": -122.319104,
    "neighborhood": "First Hill",
    "neighborhoodGroup": "East",
    "units": "E10 L1"
  },
  {
    "id_str": "F220056016",
    "created_at": "5/16/2022 4:41:22 PM",
    "timestamp": 1652744482000,
    "description": "Aid Response",
    "address": "1401 2nd Ave",
    "active": false,
    "unitCount": 1,
    "severity": 0,
    "lat": 47.608292,
    "long": -122.337995,
    "neighborhood": "Downtown Commercial Core",
    "neighborhoodGroup": "Downtown",
    "units": "E5"
  },
  {
    "id_str": "F220056015",
    "created_at": "5/16/2022 4:40:36 PM",
    "timestamp": 1652744436000,
    "description": "Aid Response",
    "address": "8321 37th Ave S",
    "active": false,
    "unitCount": 1,
    "severity": 0,
    "lat": 47.528439,
    "long": -122.285956,
    "neighborhood": "South Beacon Hill/NewHolly",
    "neighborhoodGroup": "Greater Duwamish",
    "units": "E33"
  },
  {
    "id_str": "F220056014",
    "created_at": "5/16/2022 4:38:48 PM",
    "timestamp": 1652744328000,
    "description": "Aid Response",
    "address": "2727 Franklin Ave E",
    "active": false,
    "unitCount": 2,
    "severity": 0,
    "lat": 47.644799,
    "long": -122.324623,
    "neighborhood": "Montlake/Portage Bay",
    "neighborhoodGroup": "Northeast",
    "units": "E22 M17"
  },
  {
    "id_str": "F220056011",
    "created_at": "5/16/2022 4:30:47 PM",
    "timestamp": 1652743847000,
    "description": "Medic Response",
    "address": "10521 Meridian Ave N",
    "active": false,
    "unitCount": 2,
    "severity": 0,
    "lat": 47.705221,
    "long": -122.333933,
    "neighborhood": "Northgate/Maple Leaf",
    "neighborhoodGroup": "North",
    "units": "A31 M31"
  },
  {
    "id_str": "F220056010",
    "created_at": "5/16/2022 4:21:29 PM",
    "timestamp": 1652743289000,
    "description": "Aid Response Yellow",
    "address": "4450 East Marginal Way S",
    "active": false,
    "unitCount": 1,
    "severity": 0,
    "lat": 47.563137,
    "long": -122.339438,
    "neighborhood": "Duwamish/SODO",
    "neighborhoodGroup": "Greater Duwamish",
    "units": "A5"
  },
  {
    "id_str": "F220056008",
    "created_at": "5/16/2022 4:10:22 PM",
    "timestamp": 1652742622000,
    "description": "Aid Response",
    "address": "344 N 74th St",
    "active": false,
    "unitCount": 1,
    "severity": 0,
    "lat": 47.682555,
    "long": -122.354696,
    "neighborhood": "Greenwood/Phinney Ridge",
    "neighborhoodGroup": "Northwest",
    "units": "E21"
  },
  {
    "id_str": "F220056007",
    "created_at": "5/16/2022 4:09:30 PM",
    "timestamp": 1652742570000,
    "description": "Low Acuity Response",
    "address": "525 14th Ave E",
    "active": false,
    "unitCount": 2,
    "severity": 0,
    "lat": 47.623391,
    "long": -122.314649,
    "neighborhood": "Capitol Hill",
    "neighborhoodGroup": "East",
    "units": "A25 H1"
  },
  {
    "id_str": "F220056005",
    "created_at": "5/16/2022 4:06:34 PM",
    "timestamp": 1652742394000,
    "description": "Aid Response",
    "address": "5300 24th Ave Ne",
    "active": false,
    "unitCount": 1,
    "severity": 0,
    "lat": 47.66707,
    "long": -122.301946,
    "neighborhood": "Ravenna/Bryant",
    "neighborhoodGroup": "Northeast",
    "units": "E38"
  },
  {
    "id_str": "F220056004",
    "created_at": "5/16/2022 3:57:48 PM",
    "timestamp": 1652741868000,
    "description": "Aid Response",
    "address": "4400 37th Ave S",
    "active": false,
    "unitCount": 1,
    "severity": 0,
    "lat": 47.564112,
    "long": -122.286056,
    "neighborhood": "Columbia City",
    "neighborhoodGroup": "Southeast",
    "units": "E30"
  },
  {
    "id_str": "F220056003",
    "created_at": "5/16/2022 3:53:50 PM",
    "timestamp": 1652741630000,
    "description": "Aid Response",
    "address": "8th Ave Nw / Nw 100th St",
    "active": false,
    "unitCount": 1,
    "severity": 0,
    "lat": 47.701513,
    "long": -122.366056,
    "neighborhood": "North Beach/Blue Ridge",
    "neighborhoodGroup": "Ballard",
    "units": "E35"
  },
  {
    "id_str": "F220056002",
    "created_at": "5/16/2022 3:52:22 PM",
    "timestamp": 1652741542000,
    "description": "Activated CO Detector",
    "address": "3535 27th Pl W",
    "active": false,
    "unitCount": 1,
    "severity": 0,
    "lat": 47.652522,
    "long": -122.390547,
    "neighborhood": "Interbay",
    "neighborhoodGroup": "Magnolia/Queen Anne",
    "units": "L8"
  },
  {
    "id_str": "F220056000",
    "created_at": "5/16/2022 3:44:34 PM",
    "timestamp": 1652741074000,
    "description": "Medic Response",
    "address": "5325 S KENYON ST",
    "active": false,
    "unitCount": 2,
    "severity": 0,
    "lat": 47.531587,
    "long": -122.267441,
    "neighborhood": "Rainier Beach",
    "neighborhoodGroup": "Southeast",
    "units": "E33 M28"
  },
  {
    "id_str": "F220055999",
    "created_at": "5/16/2022 3:43:15 PM",
    "timestamp": 1652740995000,
    "description": "Aid Response",
    "address": "13730 15th Ave Ne",
    "active": false,
    "unitCount": 1,
    "severity": 0,
    "lat": 47.728658,
    "long": -122.312678,
    "neighborhood": "Olympic Hills/Victory Heights",
    "neighborhoodGroup": "North",
    "units": "E39"
  },
  {
    "id_str": "F220055998",
    "created_at": "5/16/2022 3:43:13 PM",
    "timestamp": 1652740993000,
    "description": "Aid Response",
    "address": "2153 4th Ave W",
    "active": false,
    "unitCount": 1,
    "severity": 0,
    "lat": 47.63808,
    "long": -122.362291,
    "neighborhood": "Queen Anne",
    "neighborhoodGroup": "Magnolia/Queen Anne",
    "units": "E8"
  },
  {
    "id_str": "F220055997",
    "created_at": "5/16/2022 3:42:06 PM",
    "timestamp": 1652740926000,
    "description": "Aid Response",
    "address": "1902 2nd Ave",
    "active": false,
    "unitCount": 1,
    "severity": 0,
    "lat": 47.610972,
    "long": -122.340465,
    "neighborhood": "Belltown",
    "neighborhoodGroup": "Downtown",
    "units": "A4"
  },
  {
    "id_str": "F220055994",
    "created_at": "5/16/2022 3:19:11 PM",
    "timestamp": 1652739551000,
    "description": "Auto Fire Alarm",
    "address": "4831 35th Ave Sw",
    "active": false,
    "unitCount": 2,
    "severity": 0,
    "lat": 47.558988,
    "long": -122.376234,
    "neighborhood": "West Seattle Junction/Genesee Hill",
    "neighborhoodGroup": "Southwest",
    "units": "E32 L13"
  },
  {
    "id_str": "F220055993",
    "created_at": "5/16/2022 3:11:40 PM",
    "timestamp": 1652739100000,
    "description": "Scenes Of Violence Aid",
    "address": "Greenwood Ave N / N 130th St",
    "active": false,
    "unitCount": 2,
    "severity": 0,
    "lat": 47.723234,
    "long": -122.355547,
    "neighborhood": "Broadview/Bitter Lake",
    "neighborhoodGroup": "Northwest",
    "units": "B4 E24"
  },
  {
    "id_str": "F220055992",
    "created_at": "5/16/2022 3:10:01 PM",
    "timestamp": 1652739001000,
    "description": "Aid Response",
    "address": "1039 6th Ave S",
    "active": false,
    "unitCount": 1,
    "severity": 0,
    "lat": 47.593751,
    "long": -122.325968,
    "neighborhood": "Duwamish/SODO",
    "neighborhoodGroup": "Greater Duwamish",
    "units": "A10"
  },
  {
    "id_str": "F220055988",
    "created_at": "5/16/2022 3:07:04 PM",
    "timestamp": 1652738824000,
    "description": "MVI - Motor Vehicle Incident",
    "address": "1st Ave S / S Lander St",
    "active": false,
    "unitCount": 1,
    "severity": 0,
    "lat": 47.579811,
    "long": -122.334201,
    "neighborhood": "Duwamish/SODO",
    "neighborhoodGroup": "Greater Duwamish",
    "units": "E5"
  },
  {
    "id_str": "F220055986",
    "created_at": "5/16/2022 3:04:25 PM",
    "timestamp": 1652738665000,
    "description": "Aid Response",
    "address": "431 Boylston Ave E",
    "active": false,
    "unitCount": 1,
    "severity": 0,
    "lat": 47.622348,
    "long": -122.32307,
    "neighborhood": "Capitol Hill",
    "neighborhoodGroup": "East",
    "units": "A25"
  },
  {
    "id_str": "F220055985",
    "created_at": "5/16/2022 3:02:07 PM",
    "timestamp": 1652738527000,
    "description": "Auto Fire Alarm",
    "address": "668 S King St",
    "active": false,
    "unitCount": 2,
    "severity": 0,
    "lat": 47.598351,
    "long": -122.324328,
    "neighborhood": "Pioneer Square/International District",
    "neighborhoodGroup": "Downtown",
    "units": "E10 L1"
  },
  {
    "id_str": "F220055983",
    "created_at": "5/16/2022 2:54:31 PM",
    "timestamp": 1652738071000,
    "description": "Medic Response",
    "address": "8428 17th Ave Sw",
    "active": false,
    "unitCount": 2,
    "severity": 0,
    "lat": 47.528033,
    "long": -122.356412,
    "neighborhood": "Roxhill/Westwood",
    "neighborhoodGroup": "Delridge Neighborhoods",
    "units": "E11 M32"
  },
  {
    "id_str": "F220055982",
    "created_at": "5/16/2022 2:52:06 PM",
    "timestamp": 1652737926000,
    "description": "Auto Fire Alarm",
    "address": "2212 S Jackson St",
    "active": false,
    "unitCount": 2,
    "severity": 0,
    "lat": 47.599276,
    "long": -122.303156,
    "neighborhood": "Judkins Park",
    "neighborhoodGroup": "Central",
    "units": "E6 L3"
  },
  {
    "id_str": "F220055981",
    "created_at": "5/16/2022 2:49:02 PM",
    "timestamp": 1652737742000,
    "description": "Low Acuity Response",
    "address": "4816 S Kenyon St",
    "active": false,
    "unitCount": 1,
    "severity": 0,
    "lat": 47.531573,
    "long": -122.271798,
    "neighborhood": "Seward Park",
    "neighborhoodGroup": "Southeast",
    "units": "E33"
  },
  {
    "id_str": "F220055977",
    "created_at": "5/16/2022 2:39:18 PM",
    "timestamp": 1652737158000,
    "description": "Aid Response",
    "address": "2225 4th Ave",
    "active": false,
    "unitCount": 1,
    "severity": 0,
    "lat": 47.614788,
    "long": -122.342952,
    "neighborhood": "Cascade/Eastlake",
    "neighborhoodGroup": "Lake Union",
    "units": "A4"
  },
  {
    "id_str": "F220055974",
    "created_at": "5/16/2022 2:32:17 PM",
    "timestamp": 1652736737000,
    "description": "Auto Fire Alarm",
    "address": "1410 Ne 66th St",
    "active": false,
    "unitCount": 2,
    "severity": 0,
    "lat": 47.676516,
    "long": -122.313014,
    "neighborhood": "Ravenna/Bryant",
    "neighborhoodGroup": "Northeast",
    "units": "E16 L9"
  },
  {
    "id_str": "F220055973",
    "created_at": "5/16/2022 2:31:43 PM",
    "timestamp": 1652736703000,
    "description": "Aid Response",
    "address": "3417 13th Ave W",
    "active": false,
    "unitCount": 1,
    "severity": 0,
    "lat": 47.650494,
    "long": -122.373587,
    "neighborhood": "Queen Anne",
    "neighborhoodGroup": "Magnolia/Queen Anne",
    "units": "E20"
  },
  {
    "id_str": "F220055972",
    "created_at": "5/16/2022 2:31:07 PM",
    "timestamp": 1652736667000,
    "description": "Aid Response",
    "address": "1818 E Prospect St",
    "active": false,
    "unitCount": 2,
    "severity": 0,
    "lat": 47.628675,
    "long": -122.308371,
    "neighborhood": "Miller Park",
    "neighborhoodGroup": "East",
    "units": "A25 CHAP5"
  },
  {
    "id_str": "F220055971",
    "created_at": "5/16/2022 2:30:29 PM",
    "timestamp": 1652736629000,
    "description": "Aid Response",
    "address": "7928 M L King Jr Way S",
    "active": false,
    "unitCount": 1,
    "severity": 0,
    "lat": 47.530617,
    "long": -122.280582,
    "neighborhood": "South Beacon Hill/NewHolly",
    "neighborhoodGroup": "Greater Duwamish",
    "units": "E33"
  },
  {
    "id_str": "F220055970",
    "created_at": "5/16/2022 2:28:18 PM",
    "timestamp": 1652736498000,
    "description": "Aid Response",
    "address": "4336 Roosevelt Way Ne",
    "active": false,
    "unitCount": 1,
    "severity": 0,
    "lat": 47.659988,
    "long": -122.317738,
    "neighborhood": "Wallingford",
    "neighborhoodGroup": "Lake Union",
    "units": "E17"
  },
  {
    "id_str": "F220055969",
    "created_at": "5/16/2022 2:27:10 PM",
    "timestamp": 1652736430000,
    "description": "Aid Response",
    "address": "3244 Nw 54th St",
    "active": false,
    "unitCount": 1,
    "severity": 0,
    "lat": 47.667464,
    "long": -122.399817,
    "neighborhood": "Sunset Hill/Loyal Heights",
    "neighborhoodGroup": "Ballard",
    "units": "E18"
  },
  {
    "id_str": "F220055965",
    "created_at": "5/16/2022 2:11:15 PM",
    "timestamp": 1652735475000,
    "description": "Aid Response",
    "address": "3621 33rd Ave S",
    "active": false,
    "unitCount": 1,
    "severity": 0,
    "lat": 47.571408,
    "long": -122.291001,
    "neighborhood": "Columbia City",
    "neighborhoodGroup": "Southeast",
    "units": "E30"
  },
  {
    "id_str": "F220055964",
    "created_at": "5/16/2022 2:07:34 PM",
    "timestamp": 1652735254000,
    "description": "Aid Response",
    "address": "1600 E Olive St",
    "active": false,
    "unitCount": 1,
    "severity": 0,
    "lat": 47.616446,
    "long": -122.311456,
    "neighborhood": "Central Area/Squire Park",
    "neighborhoodGroup": "Central",
    "units": "A25"
  },
  {
    "id_str": "F220055962",
    "created_at": "5/16/2022 2:04:33 PM",
    "timestamp": 1652735073000,
    "description": "Auto Fire Alarm",
    "address": "510 Minor Ave N",
    "active": false,
    "unitCount": 2,
    "severity": 0,
    "lat": 47.623222,
    "long": -122.333001,
    "neighborhood": "Cascade/Eastlake",
    "neighborhoodGroup": "Lake Union",
    "units": "E2 L4"
  },
  {
    "id_str": "F220055960",
    "created_at": "5/16/2022 1:46:36 PM",
    "timestamp": 1652733996000,
    "description": "Aid Response",
    "address": "500 5th Ave",
    "active": false,
    "unitCount": 1,
    "severity": 0,
    "lat": 47.602985,
    "long": -122.328535,
    "neighborhood": "First Hill",
    "neighborhoodGroup": "East",
    "units": "A5"
  },
  {
    "id_str": "F220055959",
    "created_at": "5/16/2022 1:43:15 PM",
    "timestamp": 1652733795000,
    "description": "Medic Response",
    "address": "6940 37th Ave S",
    "active": false,
    "unitCount": 2,
    "severity": 0,
    "lat": 47.540295,
    "long": -122.286233,
    "neighborhood": "South Beacon Hill/NewHolly",
    "neighborhoodGroup": "Greater Duwamish",
    "units": "E28 M28"
  },
  {
    "id_str": "F220055958",
    "created_at": "5/16/2022 1:42:26 PM",
    "timestamp": 1652733746000,
    "description": "Aid Response",
    "address": "2611 S Dearborn St",
    "active": false,
    "unitCount": 2,
    "severity": 0,
    "lat": 47.595541,
    "long": -122.298643,
    "neighborhood": "Madrona/Leschi",
    "neighborhoodGroup": "Central",
    "units": "E6 M1"
  },
  {
    "id_str": "F220055955",
    "created_at": "5/16/2022 1:21:11 PM",
    "timestamp": 1652732471000,
    "description": "Aid Response",
    "address": "3204 Sw Morgan St",
    "active": false,
    "unitCount": 1,
    "severity": 0,
    "lat": 47.544669,
    "long": -122.373777,
    "neighborhood": "High Point",
    "neighborhoodGroup": "Delridge Neighborhoods",
    "units": "E37"
  },
  {
    "id_str": "F220055954",
    "created_at": "5/16/2022 1:20:43 PM",
    "timestamp": 1652732443000,
    "description": "Aid Response",
    "address": "1st Ave / Spring St",
    "active": false,
    "unitCount": 1,
    "severity": 0,
    "lat": 47.605408,
    "long": -122.336891,
    "neighborhood": "Downtown Commercial Core",
    "neighborhoodGroup": "Downtown",
    "units": "E5"
  },
  {
    "id_str": "F220055952",
    "created_at": "5/16/2022 1:16:46 PM",
    "timestamp": 1652732206000,
    "description": "Hang-Up, Aid",
    "address": "2931 S Mount Baker Blvd",
    "active": false,
    "unitCount": 2,
    "severity": 0,
    "lat": 47.575875,
    "long": -122.294935,
    "neighborhood": "Mt. Baker/North Rainier",
    "neighborhoodGroup": "Southeast",
    "units": "E13 E30"
  },
  {
    "id_str": "F220055951",
    "created_at": "5/16/2022 1:16:16 PM",
    "timestamp": 1652732176000,
    "description": "Aid Response",
    "address": "4th Ave / Seneca St",
    "active": false,
    "unitCount": 1,
    "severity": 0,
    "lat": 47.607515,
    "long": -122.334213,
    "neighborhood": "Downtown Commercial Core",
    "neighborhoodGroup": "Downtown",
    "units": "A10"
  },
  {
    "id_str": "F220055950",
    "created_at": "5/16/2022 1:14:16 PM",
    "timestamp": 1652732056000,
    "description": "Automatic Fire Alarm False",
    "address": "7547 24th Ave Nw",
    "active": false,
    "unitCount": 1,
    "severity": 0,
    "lat": 47.683599,
    "long": -122.387565,
    "neighborhood": "Sunset Hill/Loyal Heights",
    "neighborhoodGroup": "Ballard",
    "units": "E35"
  },
  {
    "id_str": "F220055949",
    "created_at": "5/16/2022 1:13:05 PM",
    "timestamp": 1652731985000,
    "description": "Low Acuity Response",
    "address": "5300 Tallman Ave Nw",
    "active": false,
    "unitCount": 1,
    "severity": 0,
    "lat": 47.667252,
    "long": -122.380052,
    "neighborhood": "Ballard",
    "neighborhoodGroup": "Ballard",
    "units": "H1"
  },
  {
    "id_str": "F220055948",
    "created_at": "5/16/2022 1:08:56 PM",
    "timestamp": 1652731736000,
    "description": "Medic Response",
    "address": "2113 N 107th St",
    "active": false,
    "unitCount": 2,
    "severity": 0,
    "lat": 47.706842,
    "long": -122.332778,
    "neighborhood": "Northgate/Maple Leaf",
    "neighborhoodGroup": "North",
    "units": "A31 M31"
  },
  {
    "id_str": "F220055947",
    "created_at": "5/16/2022 12:59:37 PM",
    "timestamp": 1652731177000,
    "description": "Aid Response",
    "address": "600 4th Ave",
    "active": false,
    "unitCount": 1,
    "severity": 0,
    "lat": 47.603233,
    "long": -122.330297,
    "neighborhood": "Downtown Commercial Core",
    "neighborhoodGroup": "Downtown",
    "units": "A5"
  },
  {
    "id_str": "F220055946",
    "created_at": "5/16/2022 12:53:50 PM",
    "timestamp": 1652730830000,
    "description": "Auto Fire Alarm",
    "address": "4800 Sand Point Way Ne",
    "active": false,
    "unitCount": 2,
    "severity": 0,
    "lat": 47.664275,
    "long": -122.283475,
    "neighborhood": "Laurelhurst/Sand Point",
    "neighborhoodGroup": "Northeast",
    "units": "E38 L9"
  },
  {
    "id_str": "F220055945",
    "created_at": "5/16/2022 12:49:44 PM",
    "timestamp": 1652730584000,
    "description": "Aid Response",
    "address": "3306 E Pine St",
    "active": false,
    "unitCount": 1,
    "severity": 0,
    "lat": 47.615209,
    "long": -122.290228,
    "neighborhood": "Madrona/Leschi",
    "neighborhoodGroup": "Central",
    "units": "E34"
  },
  {
    "id_str": "F220055943",
    "created_at": "5/16/2022 12:45:32 PM",
    "timestamp": 1652730332000,
    "description": "Aid Response",
    "address": "10507 Aurora Ave N",
    "active": false,
    "unitCount": 1,
    "severity": 0,
    "lat": 47.705096,
    "long": -122.344695,
    "neighborhood": "Licton Springs",
    "neighborhoodGroup": "Northwest",
    "units": "E31"
  },
  {
    "id_str": "F220055941",
    "created_at": "5/16/2022 12:34:56 PM",
    "timestamp": 1652729696000,
    "description": "Aid Response",
    "address": "12531 28th Ave Ne",
    "active": false,
    "unitCount": 1,
    "severity": 0,
    "lat": 47.719542,
    "long": -122.297705,
    "neighborhood": "Olympic Hills/Victory Heights",
    "neighborhoodGroup": "North",
    "units": "E39"
  },
  {
    "id_str": "F220055939",
    "created_at": "5/16/2022 12:33:31 PM",
    "timestamp": 1652729611000,
    "description": "MVI - Motor Vehicle Incident",
    "address": "Fairview Ave N / Mercer Fr I5 Merge",
    "active": false,
    "unitCount": 1,
    "severity": 0,
    "lat": 47.624694,
    "long": -122.334288,
    "neighborhood": "Cascade/Eastlake",
    "neighborhoodGroup": "Lake Union",
    "units": "E2"
  },
  {
    "id_str": "F220055938",
    "created_at": "5/16/2022 12:31:34 PM",
    "timestamp": 1652729494000,
    "description": "Aid Response",
    "address": "85 Pike St",
    "active": false,
    "unitCount": 1,
    "severity": 0,
    "lat": 47.608584,
    "long": -122.340581,
    "neighborhood": "Downtown Commercial Core",
    "neighborhoodGroup": "Downtown",
    "units": "E5"
  },
  {
    "id_str": "F220055937",
    "created_at": "5/16/2022 12:28:36 PM",
    "timestamp": 1652729316000,
    "description": "Aid Response",
    "address": "10544 Whitman Ave N",
    "active": false,
    "unitCount": 1,
    "severity": 0,
    "lat": 47.705377,
    "long": -122.34604,
    "neighborhood": "Licton Springs",
    "neighborhoodGroup": "Northwest",
    "units": "A31"
  },
  {
    "id_str": "F220055936",
    "created_at": "5/16/2022 12:24:09 PM",
    "timestamp": 1652729049000,
    "description": "Aid Response",
    "address": "6801 30TH AVE S",
    "active": false,
    "unitCount": 1,
    "severity": 0,
    "lat": 47.547466,
    "long": -122.293657,
    "neighborhood": "Beacon Hill",
    "neighborhoodGroup": "Greater Duwamish",
    "units": "L12"
  },
  {
    "id_str": "F220055935",
    "created_at": "5/16/2022 12:21:40 PM",
    "timestamp": 1652728900000,
    "description": "Rubbish Fire",
    "address": "Sand Point Way Ne / Ne 74th St",
    "active": false,
    "unitCount": 1,
    "severity": 0,
    "lat": 47.682124,
    "long": -122.263668,
    "neighborhood": "Laurelhurst/Sand Point",
    "neighborhoodGroup": "Northeast",
    "units": "E40"
  },
  {
    "id_str": "F220055933",
    "created_at": "5/16/2022 12:19:22 PM",
    "timestamp": 1652728762000,
    "description": "Aid Response",
    "address": "7500 Seward Park Ave S",
    "active": false,
    "unitCount": 1,
    "severity": 0,
    "lat": 47.535475,
    "long": -122.267287,
    "neighborhood": "Seward Park",
    "neighborhoodGroup": "Southeast",
    "units": "E33"
  },
  {
    "id_str": "F220055932",
    "created_at": "5/16/2022 12:11:32 PM",
    "timestamp": 1652728292000,
    "description": "Auto Fire Alarm",
    "address": "1311 S Massachusetts St",
    "active": false,
    "unitCount": 2,
    "severity": 0,
    "lat": 47.588437,
    "long": -122.315855,
    "neighborhood": "North Beacon Hill/Jefferson Park",
    "neighborhoodGroup": "Greater Duwamish",
    "units": "E30 R1"
  },
  {
    "id_str": "F220055930",
    "created_at": "5/16/2022 12:09:27 PM",
    "timestamp": 1652728167000,
    "description": "Aid Response",
    "address": "2001 W Garfield St",
    "active": false,
    "unitCount": 1,
    "severity": 0,
    "lat": 47.633255,
    "long": -122.378853,
    "neighborhood": "Interbay",
    "neighborhoodGroup": "Magnolia/Queen Anne",
    "units": "E20"
  },
  {
    "id_str": "F220055929",
    "created_at": "5/16/2022 12:06:36 PM",
    "timestamp": 1652727996000,
    "description": "Aid Response",
    "address": "3121 W Government Way",
    "active": false,
    "unitCount": 1,
    "severity": 0,
    "lat": 47.660932,
    "long": -122.398108,
    "neighborhood": "Magnolia",
    "neighborhoodGroup": "Magnolia/Queen Anne",
    "units": "E41"
  },
  {
    "id_str": "F220055928",
    "created_at": "5/16/2022 12:05:52 PM",
    "timestamp": 1652727952000,
    "description": "Low Acuity Response",
    "address": "6048 35th Ave Ne",
    "active": false,
    "unitCount": 1,
    "severity": 0,
    "lat": 47.672584,
    "long": -122.290239,
    "neighborhood": "Ravenna/Bryant",
    "neighborhoodGroup": "Northeast",
    "units": "E38"
  },
  {
    "id_str": "F220055927",
    "created_at": "5/16/2022 12:05:07 PM",
    "timestamp": 1652727907000,
    "description": "Aid Response",
    "address": "4544 7th Ave Ne",
    "active": false,
    "unitCount": 1,
    "severity": 0,
    "lat": 47.662004,
    "long": -122.320724,
    "neighborhood": "Wallingford",
    "neighborhoodGroup": "Lake Union",
    "units": "E17"
  },
  {
    "id_str": "F220055926",
    "created_at": "5/16/2022 12:03:40 PM",
    "timestamp": 1652727820000,
    "description": "Aid Response",
    "address": "Harvard Ave / Spring St",
    "active": false,
    "unitCount": 2,
    "severity": 0,
    "lat": 47.611909,
    "long": -122.321352,
    "neighborhood": "Capitol Hill",
    "neighborhoodGroup": "East",
    "units": "A25 L10"
  },
  {
    "id_str": "F220055924",
    "created_at": "5/16/2022 11:57:23 AM",
    "timestamp": 1652727443000,
    "description": "Aid Response",
    "address": "1505 Western Ave",
    "active": false,
    "unitCount": 1,
    "severity": 0,
    "lat": 47.608398,
    "long": -122.341161,
    "neighborhood": "Downtown Commercial Core",
    "neighborhoodGroup": "Downtown",
    "units": "A10"
  },
  {
    "id_str": "F220055923",
    "created_at": "5/16/2022 11:56:21 AM",
    "timestamp": 1652727381000,
    "description": "Natural Gas Odor",
    "address": "8311 Beacon Ave S",
    "active": false,
    "unitCount": 1,
    "severity": 0,
    "lat": 47.529377,
    "long": -122.288079,
    "neighborhood": "South Beacon Hill/NewHolly",
    "neighborhoodGroup": "Greater Duwamish",
    "units": "L12"
  },
  {
    "id_str": "F220055922",
    "created_at": "5/16/2022 11:56:07 AM",
    "timestamp": 1652727367000,
    "description": "Aid Response",
    "address": "6430 Corson Ave S",
    "active": false,
    "unitCount": 1,
    "severity": 0,
    "lat": 47.545756,
    "long": -122.322003,
    "neighborhood": "Georgetown",
    "neighborhoodGroup": "Greater Duwamish",
    "units": "E27"
  },
  {
    "id_str": "F220055919",
    "created_at": "5/16/2022 11:53:46 AM",
    "timestamp": 1652727226000,
    "description": "Aid Response",
    "address": "10459 59th Ave S",
    "active": false,
    "unitCount": 1,
    "severity": 0,
    "lat": 47.507214,
    "long": -122.259449,
    "neighborhood": "Rainier Beach",
    "neighborhoodGroup": "Southeast",
    "units": "E33"
  },
  {
    "id_str": "F220055917",
    "created_at": "5/16/2022 11:49:41 AM",
    "timestamp": 1652726981000,
    "description": "Auto Fire Alarm",
    "address": "1620 Dexter Ave N",
    "active": false,
    "unitCount": 2,
    "severity": 0,
    "lat": 47.633526,
    "long": -122.342283,
    "neighborhood": "Queen Anne",
    "neighborhoodGroup": "Magnolia/Queen Anne",
    "units": "E9 L4"
  },
  {
    "id_str": "F220055916",
    "created_at": "5/16/2022 11:48:52 AM",
    "timestamp": 1652726932000,
    "description": "Medic Response",
    "address": "Federal Ave E / E Republican St",
    "active": false,
    "unitCount": 4,
    "severity": 0,
    "lat": 47.623122,
    "long": -122.318856,
    "neighborhood": "Capitol Hill",
    "neighborhoodGroup": "East",
    "units": "A25 L10 M10 M17"
  },
  {
    "id_str": "F220055915",
    "created_at": "5/16/2022 11:47:51 AM",
    "timestamp": 1652726871000,
    "description": "Medic Response",
    "address": "700 Minor Ave",
    "active": false,
    "unitCount": 3,
    "severity": 0,
    "lat": 47.607661,
    "long": -122.322073,
    "neighborhood": "First Hill",
    "neighborhoodGroup": "East",
    "units": "E25 M10 M17"
  },
  {
    "id_str": "F220055914",
    "created_at": "5/16/2022 11:45:44 AM",
    "timestamp": 1652726744000,
    "description": "Aid Response",
    "address": "1524 Pike Pl",
    "active": false,
    "unitCount": 2,
    "severity": 0,
    "lat": 47.608842,
    "long": -122.34083,
    "neighborhood": "Downtown Commercial Core",
    "neighborhoodGroup": "Downtown",
    "units": "A2 M1"
  },
  {
    "id_str": "F220055911",
    "created_at": "5/16/2022 11:35:13 AM",
    "timestamp": 1652726113000,
    "description": "Aid Response",
    "address": "2030 3rd Ave",
    "active": false,
    "unitCount": 3,
    "severity": 0,
    "lat": 47.612626,
    "long": -122.341277,
    "neighborhood": "Cascade/Eastlake",
    "neighborhoodGroup": "Lake Union",
    "units": "A4 M10 M17"
  },
  {
    "id_str": "F220055912",
    "created_at": "5/16/2022 11:35:08 AM",
    "timestamp": 1652726108000,
    "description": "Aid Response",
    "address": "1620 43rd Ave E",
    "active": false,
    "unitCount": 2,
    "severity": 0,
    "lat": 47.633463,
    "long": -122.277157,
    "neighborhood": "Madison Park",
    "neighborhoodGroup": "East",
    "units": "A25 E34"
  },
  {
    "id_str": "F220055910",
    "created_at": "5/16/2022 11:33:04 AM",
    "timestamp": 1652725984000,
    "description": "Aid Response",
    "address": "1536 N 115th St",
    "active": false,
    "unitCount": 1,
    "severity": 0,
    "lat": 47.712306,
    "long": -122.339738,
    "neighborhood": "Haller Lake",
    "neighborhoodGroup": "Northwest",
    "units": "E31"
  },
  {
    "id_str": "F220055907",
    "created_at": "5/16/2022 11:30:42 AM",
    "timestamp": 1652725842000,
    "description": "Advised Incident",
    "address": "Pike Pl / Stewart St",
    "active": false,
    "unitCount": 1,
    "severity": 0,
    "units": "A4"
  },
  {
    "id_str": "F220055906",
    "created_at": "5/16/2022 11:28:06 AM",
    "timestamp": 1652725686000,
    "description": "Aid Response",
    "address": "1471 Nw 67th St",
    "active": false,
    "unitCount": 1,
    "severity": 0,
    "lat": 47.677808,
    "long": -122.37607,
    "neighborhood": "Whittier Heights",
    "neighborhoodGroup": "Ballard",
    "units": "E18"
  },
  {
    "id_str": "F220055904",
    "created_at": "5/16/2022 11:21:50 AM",
    "timestamp": 1652725310000,
    "description": "Automatic Fire Alarm False",
    "address": "12002 Roosevelt Way Ne",
    "active": false,
    "unitCount": 2,
    "severity": 0,
    "lat": 47.71583,
    "long": -122.318021,
    "neighborhood": "Haller Lake",
    "neighborhoodGroup": "Northwest",
    "units": "E39 L5"
  },
  {
    "id_str": "F220055902",
    "created_at": "5/16/2022 11:20:32 AM",
    "timestamp": 1652725232000,
    "description": "Aid Response",
    "address": "13735 Linden Ave N",
    "active": false,
    "unitCount": 1,
    "severity": 0,
    "lat": 47.728707,
    "long": -122.347736,
    "neighborhood": "Broadview/Bitter Lake",
    "neighborhoodGroup": "Northwest",
    "units": "A31"
  },
  {
    "id_str": "F220055901",
    "created_at": "5/16/2022 11:15:40 AM",
    "timestamp": 1652724940000,
    "description": "Aid Response",
    "address": "2821 S Walden St",
    "active": false,
    "unitCount": 1,
    "severity": 0,
    "lat": 47.572163,
    "long": -122.296173,
    "neighborhood": "Columbia City",
    "neighborhoodGroup": "Southeast",
    "units": "E30"
  },
  {
    "id_str": "F220055900",
    "created_at": "5/16/2022 11:14:10 AM",
    "timestamp": 1652724850000,
    "description": "Aid Response",
    "address": "327 35th Ave S",
    "active": false,
    "unitCount": 1,
    "severity": 0,
    "lat": 47.599398,
    "long": -122.287706,
    "neighborhood": "Madrona/Leschi",
    "neighborhoodGroup": "Central",
    "units": "L3"
  },
  {
    "id_str": "F220055899",
    "created_at": "5/16/2022 11:13:16 AM",
    "timestamp": 1652724796000,
    "description": "Low Acuity Response",
    "address": "2121 26th Ave S",
    "active": false,
    "unitCount": 1,
    "severity": 0,
    "lat": 47.584234,
    "long": -122.299024,
    "neighborhood": "Mt. Baker/North Rainier",
    "neighborhoodGroup": "Southeast",
    "units": "H1"
  },
  {
    "id_str": "F220055897",
    "created_at": "5/16/2022 11:13:07 AM",
    "timestamp": 1652724787000,
    "description": "Aid Response",
    "address": "5219 University Way Ne",
    "active": false,
    "unitCount": 1,
    "severity": 0,
    "lat": 47.666564,
    "long": -122.313049,
    "neighborhood": "University District",
    "neighborhoodGroup": "Northeast",
    "units": "E17"
  },
  {
    "id_str": "F220055898",
    "created_at": "5/16/2022 11:11:48 AM",
    "timestamp": 1652724708000,
    "description": "Aid Response",
    "address": "747 N 135th St",
    "active": false,
    "unitCount": 1,
    "severity": 0,
    "lat": 47.726803,
    "long": -122.347793,
    "neighborhood": "Broadview/Bitter Lake",
    "neighborhoodGroup": "Northwest",
    "units": "E24"
  },
  {
    "id_str": "F220055896",
    "created_at": "5/16/2022 11:09:13 AM",
    "timestamp": 1652724553000,
    "description": "Aid Response",
    "address": "12th Ave / E Remington Ct",
    "active": false,
    "unitCount": 4,
    "severity": 0,
    "lat": 47.605567,
    "long": -122.316781,
    "neighborhood": "First Hill",
    "neighborhoodGroup": "East",
    "units": "A5 E6 M1 M28"
  },
  {
    "id_str": "F220055895",
    "created_at": "5/16/2022 11:01:58 AM",
    "timestamp": 1652724118000,
    "description": "Medic Response",
    "address": "1232 Sw Orchard St",
    "active": false,
    "unitCount": 3,
    "severity": 0,
    "lat": 47.538193,
    "long": -122.350788,
    "neighborhood": "Riverview",
    "neighborhoodGroup": "Delridge Neighborhoods",
    "units": "B7 E11 M26"
  },
  {
    "id_str": "F220055893",
    "created_at": "5/16/2022 10:56:49 AM",
    "timestamp": 1652723809000,
    "description": "Aid Response",
    "address": "1300 E Pine St",
    "active": false,
    "unitCount": 1,
    "severity": 0,
    "lat": 47.615273,
    "long": -122.315549,
    "neighborhood": "Capitol Hill",
    "neighborhoodGroup": "East",
    "units": "A25"
  },
  {
    "id_str": "F220055894",
    "created_at": "5/16/2022 10:56:43 AM",
    "timestamp": 1652723803000,
    "description": "Aid Response",
    "address": "610 2nd Ave N",
    "active": false,
    "unitCount": 1,
    "severity": 0,
    "lat": 47.624653,
    "long": -122.352791,
    "neighborhood": "Queen Anne",
    "neighborhoodGroup": "Magnolia/Queen Anne",
    "units": "A2"
  },
  {
    "id_str": "F220055891",
    "created_at": "5/16/2022 10:55:30 AM",
    "timestamp": 1652723730000,
    "description": "Aid Response",
    "address": "9709 3rd Ave Ne",
    "active": false,
    "unitCount": 1,
    "severity": 0,
    "lat": 47.69922,
    "long": -122.325766,
    "neighborhood": "Northgate/Maple Leaf",
    "neighborhoodGroup": "North",
    "units": "L5"
  },
  {
    "id_str": "F220055889",
    "created_at": "5/16/2022 10:42:32 AM",
    "timestamp": 1652722952000,
    "description": "Aid Response",
    "address": "14283 35th Ave Ne",
    "active": false,
    "unitCount": 1,
    "severity": 0,
    "lat": 47.731824,
    "long": -122.291046,
    "neighborhood": "Cedar Park/Meadowbrook",
    "neighborhoodGroup": "North",
    "units": "E39"
  },
  {
    "id_str": "F220055890",
    "created_at": "5/16/2022 10:42:19 AM",
    "timestamp": 1652722939000,
    "description": "Auto Fire Alarm",
    "address": "1900 Alaskan Way",
    "active": false,
    "unitCount": 2,
    "severity": 0,
    "lat": 47.608573,
    "long": -122.343891,
    "neighborhood": "Downtown Commercial Core",
    "neighborhoodGroup": "Downtown",
    "units": "E2 L4"
  },
  {
    "id_str": "F220055888",
    "created_at": "5/16/2022 10:39:28 AM",
    "timestamp": 1652722768000,
    "description": "Medic Response",
    "address": "4915 25th Ave Ne",
    "active": false,
    "unitCount": 2,
    "severity": 0,
    "lat": 47.664451,
    "long": -122.300909,
    "neighborhood": "Ravenna/Bryant",
    "neighborhoodGroup": "Northeast",
    "units": "E38 M10"
  },
  {
    "id_str": "F220055887",
    "created_at": "5/16/2022 10:31:15 AM",
    "timestamp": 1652722275000,
    "description": "Low Acuity Response",
    "address": "9623 13th Ave Nw",
    "active": false,
    "unitCount": 1,
    "severity": 0,
    "lat": 47.698788,
    "long": -122.372753,
    "neighborhood": "North Beach/Blue Ridge",
    "neighborhoodGroup": "Ballard",
    "units": "A31"
  },
  {
    "id_str": "F220055886",
    "created_at": "5/16/2022 10:30:36 AM",
    "timestamp": 1652722236000,
    "description": "Aid Response",
    "address": "5th Ave S / S Jackson St",
    "active": false,
    "unitCount": 1,
    "severity": 0,
    "lat": 47.599195,
    "long": -122.327667,
    "neighborhood": "Pioneer Square/International District",
    "neighborhoodGroup": "Downtown",
    "units": "A10"
  },
  {
    "id_str": "F220055885",
    "created_at": "5/16/2022 10:29:37 AM",
    "timestamp": 1652722177000,
    "description": "Aid Response",
    "address": "5203 S Brighton St",
    "active": false,
    "unitCount": 1,
    "severity": 0,
    "lat": 47.541585,
    "long": -122.267097,
    "neighborhood": "Seward Park",
    "neighborhoodGroup": "Southeast",
    "units": "E28"
  },
  {
    "id_str": "F220055883",
    "created_at": "5/16/2022 10:18:21 AM",
    "timestamp": 1652721501000,
    "description": "Aid Response",
    "address": "3207 Belvidere Ave Sw",
    "active": false,
    "unitCount": 2,
    "severity": 0,
    "lat": 47.575499,
    "long": -122.379213,
    "neighborhood": "West Seattle Junction/Genesee Hill",
    "neighborhoodGroup": "Southwest",
    "units": "E29 M26"
  },
  {
    "id_str": "F220055882",
    "created_at": "5/16/2022 10:14:10 AM",
    "timestamp": 1652721250000,
    "description": "Aid Response",
    "address": "4931 Erskine Way Sw",
    "active": false,
    "unitCount": 1,
    "severity": 0,
    "lat": 47.558384,
    "long": -122.388199,
    "neighborhood": "West Seattle Junction/Genesee Hill",
    "neighborhoodGroup": "Southwest",
    "units": "E32"
  },
  {
    "id_str": "F220055881",
    "created_at": "5/16/2022 10:13:05 AM",
    "timestamp": 1652721185000,
    "description": "Aid Response",
    "address": "7701 12th Ave Nw",
    "active": false,
    "unitCount": 1,
    "severity": 0,
    "lat": 47.685079,
    "long": -122.371438,
    "neighborhood": "Whittier Heights",
    "neighborhoodGroup": "Ballard",
    "units": "E35"
  },
  {
    "id_str": "F220055880",
    "created_at": "5/16/2022 10:09:25 AM",
    "timestamp": 1652720965000,
    "description": "Low Acuity Response",
    "address": "9200 2nd Ave Sw",
    "active": false,
    "unitCount": 1,
    "severity": 0,
    "lat": 47.521244,
    "long": -122.336301,
    "neighborhood": "Highland Park",
    "neighborhoodGroup": "Delridge Neighborhoods",
    "units": "E11"
  },
  {
    "id_str": "F220055879",
    "created_at": "5/16/2022 10:08:41 AM",
    "timestamp": 1652720921000,
    "description": "Medic Response",
    "address": "800 Seneca St",
    "active": false,
    "unitCount": 3,
    "severity": 0,
    "lat": 47.609372,
    "long": -122.329777,
    "neighborhood": "First Hill",
    "neighborhoodGroup": "East",
    "units": "A2 A4 M10"
  },
  {
    "id_str": "F220055878",
    "created_at": "5/16/2022 10:01:25 AM",
    "timestamp": 1652720485000,
    "description": "Aid Response",
    "address": "501 Rainier Ave S",
    "active": false,
    "unitCount": 1,
    "severity": 0,
    "lat": 47.598322,
    "long": -122.3134,
    "neighborhood": "Judkins Park",
    "neighborhoodGroup": "Central",
    "units": "A10"
  },
  {
    "id_str": "F220055877",
    "created_at": "5/16/2022 9:53:55 AM",
    "timestamp": 1652720035000,
    "description": "Medic Response",
    "address": "1801 16th Ave Sw",
    "active": false,
    "unitCount": 2,
    "severity": 0,
    "lat": 47.586231,
    "long": -122.355429,
    "neighborhood": "North Delridge",
    "neighborhoodGroup": "Delridge Neighborhoods",
    "units": "E36 M32"
  },
  {
    "id_str": "F220055876",
    "created_at": "5/16/2022 9:53:47 AM",
    "timestamp": 1652720027000,
    "description": "Medic Response",
    "address": "5433 Leary Ave Nw",
    "active": false,
    "unitCount": 2,
    "severity": 0,
    "lat": 47.667504,
    "long": -122.38311,
    "neighborhood": "Ballard",
    "neighborhoodGroup": "Ballard",
    "units": "L8 M18"
  },
  {
    "id_str": "F220055875",
    "created_at": "5/16/2022 9:52:09 AM",
    "timestamp": 1652719929000,
    "description": "Aid Response",
    "address": "1st Ave Ne / Ne Northgate Way",
    "active": false,
    "unitCount": 2,
    "severity": 0,
    "lat": 47.708629,
    "long": -122.328634,
    "neighborhood": "Northgate/Maple Leaf",
    "neighborhoodGroup": "North",
    "units": "A31 E31"
  },
  {
    "id_str": "F220055874",
    "created_at": "5/16/2022 9:47:16 AM",
    "timestamp": 1652719636000,
    "description": "MVI - Motor Vehicle Incident",
    "address": "8th Ave Nw / Nw Market St",
    "active": false,
    "unitCount": 1,
    "severity": 0,
    "lat": 47.668653,
    "long": -122.366178,
    "neighborhood": "Greenwood/Phinney Ridge",
    "neighborhoodGroup": "Northwest",
    "units": "E18"
  },
  {
    "id_str": "F220055873",
    "created_at": "5/16/2022 9:47:14 AM",
    "timestamp": 1652719634000,
    "description": "Aid Response",
    "address": "3610 Ne 97th St",
    "active": false,
    "unitCount": 1,
    "severity": 0,
    "lat": 47.699323,
    "long": -122.290255,
    "neighborhood": "Wedgwood/View Ridge",
    "neighborhoodGroup": "Northeast",
    "units": "E40"
  },
  {
    "id_str": "F220055872",
    "created_at": "5/16/2022 9:45:58 AM",
    "timestamp": 1652719558000,
    "description": "Aid Response",
    "address": "223 W Galer St",
    "active": false,
    "unitCount": 3,
    "severity": 0,
    "lat": 47.632321,
    "long": -122.359809,
    "neighborhood": "Queen Anne",
    "neighborhoodGroup": "Magnolia/Queen Anne",
    "units": "E8 L5 M1"
  },
  {
    "id_str": "F220055871",
    "created_at": "5/16/2022 9:42:15 AM",
    "timestamp": 1652719335000,
    "description": "Medic Response",
    "address": "1617 Interlaken Dr E",
    "active": false,
    "unitCount": 2,
    "severity": 0,
    "lat": 47.632495,
    "long": -122.307598,
    "neighborhood": "Montlake/Portage Bay",
    "neighborhoodGroup": "Northeast",
    "units": "A25 M17"
  },
  {
    "id_str": "F220055865",
    "created_at": "5/16/2022 9:10:31 AM",
    "timestamp": 1652717431000,
    "description": "Aid Response",
    "address": "132 Nw 81st St",
    "active": false,
    "unitCount": 1,
    "severity": 0,
    "lat": 47.687664,
    "long": -122.358393,
    "neighborhood": "Greenwood/Phinney Ridge",
    "neighborhoodGroup": "Northwest",
    "units": "E21"
  },
  {
    "id_str": "F220055864",
    "created_at": "5/16/2022 9:07:48 AM",
    "timestamp": 1652717268000,
    "description": "Aid Response",
    "address": "2201 Sw Holden St",
    "active": false,
    "unitCount": 1,
    "severity": 0,
    "lat": 47.533694,
    "long": -122.361351,
    "neighborhood": "High Point",
    "neighborhoodGroup": "Delridge Neighborhoods",
    "units": "E11"
  },
  {
    "id_str": "F220055863",
    "created_at": "5/16/2022 9:01:13 AM",
    "timestamp": 1652716873000,
    "description": "Unk Odor",
    "address": "6403 M L King Jr Way S",
    "active": false,
    "unitCount": 1,
    "severity": 0,
    "lat": 47.545087,
    "long": -122.285155,
    "neighborhood": "South Beacon Hill/NewHolly",
    "neighborhoodGroup": "Greater Duwamish",
    "units": "L12"
  },
  {
    "id_str": "F220055862",
    "created_at": "5/16/2022 8:58:23 AM",
    "timestamp": 1652716703000,
    "description": "Aid Response",
    "address": "100 Crockett St",
    "active": false,
    "unitCount": 1,
    "severity": 0,
    "lat": 47.637416,
    "long": -122.355598,
    "neighborhood": "Queen Anne",
    "neighborhoodGroup": "Magnolia/Queen Anne",
    "units": "E8"
  },
  {
    "id_str": "F220055861",
    "created_at": "5/16/2022 8:55:01 AM",
    "timestamp": 1652716501000,
    "description": "Fire in Building",
    "address": "13223 35th Ave Ne",
    "active": false,
    "unitCount": 22,
    "severity": 2,
    "lat": 47.725569,
    "long": -122.290889,
    "neighborhood": "Cedar Park/Meadowbrook",
    "neighborhoodGroup": "North",
    "units": "A2 AIR10 B4 B6 DEP1 E16 E17 E21 E22 E31 E39 E40 L10 L5 L8 L9 M31 M44 MAR5 REHAB1 SAFT2 STAF10"
  },
  {
    "id_str": "F220055860",
    "created_at": "5/16/2022 8:46:32 AM",
    "timestamp": 1652715992000,
    "description": "Auto Fire Alarm",
    "address": "11501 15th Ave Ne",
    "active": false,
    "unitCount": 2,
    "severity": 0,
    "lat": 47.712167,
    "long": -122.312433,
    "neighborhood": "Olympic Hills/Victory Heights",
    "neighborhoodGroup": "North",
    "units": "E31 L5"
  },
  {
    "id_str": "F220055859",
    "created_at": "5/16/2022 8:45:41 AM",
    "timestamp": 1652715941000,
    "description": "Aid Response",
    "address": "8650 55th Ave S",
    "active": false,
    "unitCount": 1,
    "severity": 0,
    "lat": 47.525991,
    "long": -122.263778,
    "neighborhood": "Rainier Beach",
    "neighborhoodGroup": "Southeast",
    "units": "E33"
  },
  {
    "id_str": "F220055858",
    "created_at": "5/16/2022 8:42:57 AM",
    "timestamp": 1652715777000,
    "description": "Aid Response",
    "address": "12546 33rd Ave Ne",
    "active": false,
    "unitCount": 1,
    "severity": 0,
    "lat": 47.719585,
    "long": -122.292729,
    "neighborhood": "Cedar Park/Meadowbrook",
    "neighborhoodGroup": "North",
    "units": "E39"
  },
  {
    "id_str": "F220055856",
    "created_at": "5/16/2022 8:39:50 AM",
    "timestamp": 1652715590000,
    "description": "Aid Response",
    "address": "6th Ave S / S Royal Brougham Way",
    "active": false,
    "unitCount": 1,
    "severity": 0,
    "lat": 47.592393,
    "long": -122.325968,
    "neighborhood": "Duwamish/SODO",
    "neighborhoodGroup": "Greater Duwamish",
    "units": "E10"
  },
  {
    "id_str": "F220055854",
    "created_at": "5/16/2022 8:39:31 AM",
    "timestamp": 1652715571000,
    "description": "Aid Response",
    "address": "1221 Minor Ave",
    "active": false,
    "unitCount": 1,
    "severity": 0,
    "lat": 47.611376,
    "long": -122.325467,
    "neighborhood": "First Hill",
    "neighborhoodGroup": "East",
    "units": "A25"
  },
  {
    "id_str": "F220055855",
    "created_at": "5/16/2022 8:39:24 AM",
    "timestamp": 1652715564000,
    "description": "Auto Fire Alarm",
    "address": "4700 9th Ave Nw",
    "active": false,
    "unitCount": 2,
    "severity": 0,
    "lat": 47.662937,
    "long": -122.3686,
    "neighborhood": "Ballard",
    "neighborhoodGroup": "Ballard",
    "units": "E18 L8"
  },
  {
    "id_str": "F220055853",
    "created_at": "5/16/2022 8:36:55 AM",
    "timestamp": 1652715415000,
    "description": "Aid Response",
    "address": "747 N 135th St",
    "active": false,
    "unitCount": 1,
    "severity": 0,
    "lat": 47.726803,
    "long": -122.347793,
    "neighborhood": "Broadview/Bitter Lake",
    "neighborhoodGroup": "Northwest",
    "units": "E24"
  },
  {
    "id_str": "F220055852",
    "created_at": "5/16/2022 8:35:59 AM",
    "timestamp": 1652715359000,
    "description": "Aid Response",
    "address": "6240 26th Ave Ne",
    "active": false,
    "unitCount": 1,
    "severity": 0,
    "lat": 47.674209,
    "long": -122.299591,
    "neighborhood": "Ravenna/Bryant",
    "neighborhoodGroup": "Northeast",
    "units": "E38"
  },
  {
    "id_str": "F220055850",
    "created_at": "5/16/2022 8:29:56 AM",
    "timestamp": 1652714996000,
    "description": "4RED - 2 + 1 + 1",
    "address": "2121 S Graham St",
    "active": false,
    "unitCount": 4,
    "severity": 0,
    "lat": 47.546506,
    "long": -122.305747,
    "neighborhood": "Beacon Hill",
    "neighborhoodGroup": "Greater Duwamish",
    "units": "B5 E13 E27 L12"
  },
  {
    "id_str": "F220055849",
    "created_at": "5/16/2022 8:28:17 AM",
    "timestamp": 1652714897000,
    "description": "Auto Fire Alarm",
    "address": "1607 NE PACIFIC ST",
    "active": false,
    "unitCount": 2,
    "severity": 0,
    "lat": 47.652059,
    "long": -122.310611,
    "neighborhood": "University District",
    "neighborhoodGroup": "Northeast",
    "units": "E17 L9"
  },
  {
    "id_str": "F220055848",
    "created_at": "5/16/2022 8:25:21 AM",
    "timestamp": 1652714721000,
    "description": "Advised Incident",
    "address": "13056 23rd Ave Ne",
    "active": false,
    "unitCount": 1,
    "severity": 0,
    "units": "L5"
  },
  {
    "id_str": "F220055847",
    "created_at": "5/16/2022 8:23:28 AM",
    "timestamp": 1652714608000,
    "description": "Medic Response",
    "address": "500 5th Ave",
    "active": false,
    "unitCount": 2,
    "severity": 0,
    "lat": 47.602985,
    "long": -122.328535,
    "neighborhood": "First Hill",
    "neighborhoodGroup": "East",
    "units": "A10 M10"
  },
  {
    "id_str": "F220055846",
    "created_at": "5/16/2022 8:23:26 AM",
    "timestamp": 1652714606000,
    "description": "Auto Fire Alarm",
    "address": "1214 Boylston Ave",
    "active": false,
    "unitCount": 2,
    "severity": 0,
    "lat": 47.612253,
    "long": -122.323199,
    "neighborhood": "Capitol Hill",
    "neighborhoodGroup": "East",
    "units": "E25 L10"
  },
  {
    "id_str": "F220055845",
    "created_at": "5/16/2022 8:22:08 AM",
    "timestamp": 1652714528000,
    "description": "Automatic Fire Alarm Resd",
    "address": "5220 45th Ave Sw",
    "active": false,
    "unitCount": 1,
    "severity": 0,
    "lat": 47.555566,
    "long": -122.389722,
    "neighborhood": "West Seattle Junction/Genesee Hill",
    "neighborhoodGroup": "Southwest",
    "units": "E32"
  },
  {
    "id_str": "F220055843",
    "created_at": "5/16/2022 8:13:32 AM",
    "timestamp": 1652714012000,
    "description": "LINK - Link Control Center",
    "address": "1263 6th Ave S",
    "active": false,
    "unitCount": 1,
    "severity": 0,
    "lat": 47.591866,
    "long": -122.325968,
    "neighborhood": "Duwamish/SODO",
    "neighborhoodGroup": "Greater Duwamish",
    "units": "B5"
  },
  {
    "id_str": "F220055842",
    "created_at": "5/16/2022 8:12:39 AM",
    "timestamp": 1652713959000,
    "description": "Aid Response",
    "address": "5th Ave N / Broad St",
    "active": false,
    "unitCount": 1,
    "severity": 0,
    "lat": 47.620908,
    "long": -122.347601,
    "neighborhood": "Cascade/Eastlake",
    "neighborhoodGroup": "Lake Union",
    "units": "A2"
  },
  {
    "id_str": "F220055840",
    "created_at": "5/16/2022 8:07:11 AM",
    "timestamp": 1652713631000,
    "description": "MVI - Motor Vehicle Incident",
    "address": "S Orcas St / M L King Jr Way S",
    "active": false,
    "unitCount": 1,
    "severity": 0,
    "lat": 47.55123,
    "long": -122.288096,
    "neighborhood": "Beacon Hill",
    "neighborhoodGroup": "Greater Duwamish",
    "units": "L12"
  },
  {
    "id_str": "F220055839",
    "created_at": "5/16/2022 7:52:56 AM",
    "timestamp": 1652712776000,
    "description": "Aid Response",
    "address": "100 Crockett St",
    "active": false,
    "unitCount": 1,
    "severity": 0,
    "lat": 47.637416,
    "long": -122.355598,
    "neighborhood": "Queen Anne",
    "neighborhoodGroup": "Magnolia/Queen Anne",
    "units": "E9"
  },
  {
    "id_str": "F220055838",
    "created_at": "5/16/2022 7:37:18 AM",
    "timestamp": 1652711838000,
    "description": "Aid Response",
    "address": "7116 Greenwood Ave N",
    "active": false,
    "unitCount": 1,
    "severity": 0,
    "lat": 47.680378,
    "long": -122.35531,
    "neighborhood": "Greenwood/Phinney Ridge",
    "neighborhoodGroup": "Northwest",
    "units": "E21"
  },
  {
    "id_str": "F220055837",
    "created_at": "5/16/2022 7:29:46 AM",
    "timestamp": 1652711386000,
    "description": "Medic Response",
    "address": "4700 M L King Jr Way S",
    "active": false,
    "unitCount": 2,
    "severity": 0,
    "lat": 47.560808,
    "long": -122.29324,
    "neighborhood": "Columbia City",
    "neighborhoodGroup": "Southeast",
    "units": "E28 M28"
  },
  {
    "id_str": "F220055836",
    "created_at": "5/16/2022 7:25:32 AM",
    "timestamp": 1652711132000,
    "description": "Aid Response",
    "address": "13000 Linden Ave N",
    "active": false,
    "unitCount": 1,
    "severity": 0,
    "lat": 47.723218,
    "long": -122.348195,
    "neighborhood": "Broadview/Bitter Lake",
    "neighborhoodGroup": "Northwest",
    "units": "E24"
  },
  {
    "id_str": "F220055834",
    "created_at": "5/16/2022 7:12:08 AM",
    "timestamp": 1652710328000,
    "description": "Medic Response",
    "address": "1112 Nw 105th St",
    "active": false,
    "unitCount": 2,
    "severity": 0,
    "lat": 47.70518,
    "long": -122.370423,
    "neighborhood": "North Beach/Blue Ridge",
    "neighborhoodGroup": "Ballard",
    "units": "E35 M31"
  },
  {
    "id_str": "F220055830",
    "created_at": "5/16/2022 7:01:01 AM",
    "timestamp": 1652709661000,
    "description": "Aid Response",
    "address": "1902 2nd Ave",
    "active": false,
    "unitCount": 1,
    "severity": 0,
    "lat": 47.610972,
    "long": -122.340465,
    "neighborhood": "Belltown",
    "neighborhoodGroup": "Downtown",
    "units": "A2"
  },
  {
    "id_str": "F220055829",
    "created_at": "5/16/2022 6:59:04 AM",
    "timestamp": 1652709544000,
    "description": "Aid Response",
    "address": "5th Ave / Terrace St",
    "active": false,
    "unitCount": 1,
    "severity": 0,
    "lat": 47.602272,
    "long": -122.327883,
    "neighborhood": "First Hill",
    "neighborhoodGroup": "East",
    "units": "A5"
  },
  {
    "id_str": "F220055826",
    "created_at": "5/16/2022 6:27:13 AM",
    "timestamp": 1652707633000,
    "description": "Aid Response",
    "address": "507 Ne Northgate Way",
    "active": false,
    "unitCount": 1,
    "severity": 0,
    "lat": 47.708594,
    "long": -122.323211,
    "neighborhood": "Northgate/Maple Leaf",
    "neighborhoodGroup": "North",
    "units": "E31"
  },
  {
    "id_str": "F220055823",
    "created_at": "5/16/2022 6:10:15 AM",
    "timestamp": 1652706615000,
    "description": "Aid Response",
    "address": "3921 West Stevens Way Ne",
    "active": false,
    "unitCount": 1,
    "severity": 0,
    "lat": 47.654553,
    "long": -122.310402,
    "neighborhood": "University District",
    "neighborhoodGroup": "Northeast",
    "units": "E17"
  },
  {
    "id_str": "F220055822",
    "created_at": "5/16/2022 6:04:39 AM",
    "timestamp": 1652706279000,
    "description": "Rescue Elevator",
    "address": "558 Occidental Ave S",
    "active": false,
    "unitCount": 1,
    "severity": 0,
    "lat": 47.597788,
    "long": -122.333263,
    "neighborhood": "Duwamish/SODO",
    "neighborhoodGroup": "Greater Duwamish",
    "units": "L1"
  },
  {
    "id_str": "F220055821",
    "created_at": "5/16/2022 5:43:31 AM",
    "timestamp": 1652705011000,
    "description": "Aid Response",
    "address": "531 N 137th St",
    "active": false,
    "unitCount": 1,
    "severity": 0,
    "lat": 47.728485,
    "long": -122.351725,
    "neighborhood": "Broadview/Bitter Lake",
    "neighborhoodGroup": "Northwest",
    "units": "E24"
  },
  {
    "id_str": "F220055820",
    "created_at": "5/16/2022 5:39:41 AM",
    "timestamp": 1652704781000,
    "description": "Aid Response",
    "address": "9201 Rainier Ave S",
    "active": false,
    "unitCount": 1,
    "severity": 0,
    "lat": 47.52101,
    "long": -122.269997,
    "neighborhood": "Rainier Beach",
    "neighborhoodGroup": "Southeast",
    "units": "E33"
  },
  {
    "id_str": "F220055819",
    "created_at": "5/16/2022 5:26:11 AM",
    "timestamp": 1652703971000,
    "description": "Medic Response",
    "address": "2119 3rd Ave",
    "active": false,
    "unitCount": 3,
    "severity": 0,
    "lat": 47.613308,
    "long": -122.342432,
    "neighborhood": "Cascade/Eastlake",
    "neighborhoodGroup": "Lake Union",
    "units": "A2 E2 M1"
  },
  {
    "id_str": "F220055818",
    "created_at": "5/16/2022 5:10:07 AM",
    "timestamp": 1652703007000,
    "description": "Aid Response",
    "address": "2400 11th Ave Sw",
    "active": false,
    "unitCount": 1,
    "severity": 0,
    "lat": 47.584283,
    "long": -122.350759,
    "neighborhood": "North Delridge",
    "neighborhoodGroup": "Delridge Neighborhoods",
    "units": "E36"
  },
  {
    "id_str": "F220055815",
    "created_at": "5/16/2022 5:00:00 AM",
    "timestamp": 1652702400000,
    "description": "Medic Response",
    "address": "4550 38th Ave Sw",
    "active": false,
    "unitCount": 2,
    "severity": 0,
    "lat": 47.56207,
    "long": -122.380088,
    "neighborhood": "West Seattle Junction/Genesee Hill",
    "neighborhoodGroup": "Southwest",
    "units": "E32 M32"
  },
  {
    "id_str": "F220055814",
    "created_at": "5/16/2022 4:54:23 AM",
    "timestamp": 1652702063000,
    "description": "Medic Response",
    "address": "10766 Renton Ave S",
    "active": false,
    "unitCount": 2,
    "severity": 0,
    "lat": 47.504159,
    "long": -122.25216,
    "neighborhood": "Rainier Beach",
    "neighborhoodGroup": "Southeast",
    "units": "E33 M28"
  },
  {
    "id_str": "F220055811",
    "created_at": "5/16/2022 4:29:28 AM",
    "timestamp": 1652700568000,
    "description": "Medic Response",
    "address": "165 14th Ave",
    "active": false,
    "unitCount": 2,
    "severity": 0,
    "lat": 47.602923,
    "long": -122.314195,
    "neighborhood": "First Hill",
    "neighborhoodGroup": "East",
    "units": "A25 M10"
  },
  {
    "id_str": "F220055809",
    "created_at": "5/16/2022 4:23:40 AM",
    "timestamp": 1652700220000,
    "description": "Aid Response",
    "address": "230 8th Ave N",
    "active": false,
    "unitCount": 1,
    "severity": 0,
    "lat": 47.620061,
    "long": -122.341084,
    "neighborhood": "Cascade/Eastlake",
    "neighborhoodGroup": "Lake Union",
    "units": "A2"
  },
  {
    "id_str": "F220055808",
    "created_at": "5/16/2022 4:20:34 AM",
    "timestamp": 1652700034000,
    "description": "Aid Response",
    "address": "9632 Mary Ave Nw",
    "active": false,
    "unitCount": 1,
    "severity": 0,
    "lat": 47.69885,
    "long": -122.375446,
    "neighborhood": "North Beach/Blue Ridge",
    "neighborhoodGroup": "Ballard",
    "units": "E35"
  },
  {
    "id_str": "F220055807",
    "created_at": "5/16/2022 4:14:56 AM",
    "timestamp": 1652699696000,
    "description": "Aid Response",
    "address": "15th Ave Ne / Ne 125th St",
    "active": false,
    "unitCount": 1,
    "severity": 0,
    "lat": 47.719414,
    "long": -122.312679,
    "neighborhood": "Olympic Hills/Victory Heights",
    "neighborhoodGroup": "North",
    "units": "E39"
  },
  {
    "id_str": "F220055805",
    "created_at": "5/16/2022 3:58:41 AM",
    "timestamp": 1652698721000,
    "description": "Aid Response",
    "address": "118 BELL ST",
    "active": false,
    "unitCount": 1,
    "severity": 0,
    "lat": 47.613497,
    "long": -122.346355,
    "neighborhood": "Belltown",
    "neighborhoodGroup": "Downtown",
    "units": "A2"
  },
  {
    "id_str": "F220055804",
    "created_at": "5/16/2022 3:57:52 AM",
    "timestamp": 1652698672000,
    "description": "Auto Fire Alarm",
    "address": "1400 6th Ave",
    "active": false,
    "unitCount": 2,
    "severity": 0,
    "lat": 47.61015,
    "long": -122.333556,
    "neighborhood": "First Hill",
    "neighborhoodGroup": "East",
    "units": "E5 L1"
  },
  {
    "id_str": "F220055803",
    "created_at": "5/16/2022 3:55:35 AM",
    "timestamp": 1652698535000,
    "description": "Aid Response",
    "address": "9230 2nd Ave Sw",
    "active": false,
    "unitCount": 1,
    "severity": 0,
    "lat": 47.520679,
    "long": -122.335803,
    "units": "E26"
  },
  {
    "id_str": "F220055801",
    "created_at": "5/16/2022 3:23:57 AM",
    "timestamp": 1652696637000,
    "description": "Rubbish Fire",
    "address": "2101 N Northlake Way",
    "active": false,
    "unitCount": 1,
    "severity": 0,
    "lat": 47.646871,
    "long": -122.333913,
    "neighborhood": "Fremont",
    "neighborhoodGroup": "Lake Union",
    "units": "E9"
  },
  {
    "id_str": "F220055800",
    "created_at": "5/16/2022 3:23:22 AM",
    "timestamp": 1652696602000,
    "description": "Aid Response",
    "address": "1800 S Jackson St",
    "active": false,
    "unitCount": 1,
    "severity": 0,
    "lat": 47.599239,
    "long": -122.308968,
    "neighborhood": "Judkins Park",
    "neighborhoodGroup": "Central",
    "units": "E6"
  },
  {
    "id_str": "F220055799",
    "created_at": "5/16/2022 3:13:45 AM",
    "timestamp": 1652696025000,
    "description": "Aid Response",
    "address": "4541 19th Ave Ne",
    "active": false,
    "unitCount": 1,
    "severity": 0,
    "lat": 47.66162,
    "long": -122.30724,
    "neighborhood": "University District",
    "neighborhoodGroup": "Northeast",
    "units": "E17"
  },
  {
    "id_str": "F220055796",
    "created_at": "5/16/2022 2:22:42 AM",
    "timestamp": 1652692962000,
    "description": "Aid Response",
    "address": "1734 Magnolia Blvd W",
    "active": false,
    "unitCount": 1,
    "severity": 0,
    "lat": 47.634934,
    "long": -122.404094,
    "neighborhood": "Magnolia",
    "neighborhoodGroup": "Magnolia/Queen Anne",
    "units": "E41"
  },
  {
    "id_str": "F220055795",
    "created_at": "5/16/2022 2:11:14 AM",
    "timestamp": 1652692274000,
    "description": "Aid Response",
    "address": "Ne 65th St / Roosevelt Way Ne",
    "active": false,
    "unitCount": 1,
    "severity": 0,
    "lat": 47.675829,
    "long": -122.317363,
    "neighborhood": "Ravenna/Bryant",
    "neighborhoodGroup": "Northeast",
    "units": "E16"
  },
  {
    "id_str": "F220055794",
    "created_at": "5/16/2022 2:10:14 AM",
    "timestamp": 1652692214000,
    "description": "Medic Response, 7 per Rule",
    "address": "1170 Alki Ave Sw",
    "active": false,
    "unitCount": 4,
    "severity": 0,
    "lat": 47.595022,
    "long": -122.387399,
    "neighborhood": "Alki/Admiral",
    "neighborhoodGroup": "Southwest",
    "units": "E29 E36 M26 M32"
  },
  {
    "id_str": "F220055793",
    "created_at": "5/16/2022 2:07:00 AM",
    "timestamp": 1652692020000,
    "description": "Rubbish Fire",
    "address": "Cherry St / 7th Ave",
    "active": false,
    "unitCount": 1,
    "severity": 0,
    "lat": 47.60534,
    "long": -122.327624,
    "neighborhood": "First Hill",
    "neighborhoodGroup": "East",
    "units": "E10"
  },
  {
    "id_str": "F220055792",
    "created_at": "5/16/2022 2:00:14 AM",
    "timestamp": 1652691614000,
    "description": "1RED 1 Unit",
    "address": "9201 Rainier Ave S",
    "active": false,
    "unitCount": 1,
    "severity": 0,
    "lat": 47.52101,
    "long": -122.269997,
    "neighborhood": "Rainier Beach",
    "neighborhoodGroup": "Southeast",
    "units": "E33"
  },
  {
    "id_str": "F220055791",
    "created_at": "5/16/2022 1:52:09 AM",
    "timestamp": 1652691129000,
    "description": "Medic Response",
    "address": "1911 22nd Ave S",
    "active": false,
    "unitCount": 2,
    "severity": 0,
    "lat": 47.586234,
    "long": -122.304237,
    "neighborhood": "North Beacon Hill/Jefferson Park",
    "neighborhoodGroup": "Greater Duwamish",
    "units": "E30 M1"
  },
  {
    "id_str": "F220055790",
    "created_at": "5/16/2022 1:49:20 AM",
    "timestamp": 1652690960000,
    "description": "Unk Odor",
    "address": "722 20th Ave",
    "active": false,
    "unitCount": 1,
    "severity": 0,
    "lat": 47.608249,
    "long": -122.306317,
    "neighborhood": "Central Area/Squire Park",
    "neighborhoodGroup": "Central",
    "units": "L10"
  },
  {
    "id_str": "F220055789",
    "created_at": "5/16/2022 1:43:48 AM",
    "timestamp": 1652690628000,
    "description": "Aid Response",
    "address": "12000 31st Ave Ne",
    "active": false,
    "unitCount": 1,
    "severity": 0,
    "lat": 47.715575,
    "long": -122.295258,
    "neighborhood": "Olympic Hills/Victory Heights",
    "neighborhoodGroup": "North",
    "units": "E39"
  },
  {
    "id_str": "F220055788",
    "created_at": "5/16/2022 1:40:49 AM",
    "timestamp": 1652690449000,
    "description": "Medic Response",
    "address": "5271 49th Ave Sw",
    "active": false,
    "unitCount": 2,
    "severity": 0,
    "lat": 47.55458,
    "long": -122.395002,
    "neighborhood": "West Seattle Junction/Genesee Hill",
    "neighborhoodGroup": "Southwest",
    "units": "E32 M32"
  },
  {
    "id_str": "F220055787",
    "created_at": "5/16/2022 1:36:00 AM",
    "timestamp": 1652690160000,
    "description": "Aid Response",
    "address": "8340 15th Ave Nw",
    "active": false,
    "unitCount": 1,
    "severity": 0,
    "lat": 47.689099,
    "long": -122.3768,
    "neighborhood": "Whittier Heights",
    "neighborhoodGroup": "Ballard",
    "units": "E35"
  },
  {
    "id_str": "F220055786",
    "created_at": "5/16/2022 1:21:13 AM",
    "timestamp": 1652689273000,
    "description": "Low Acuity Response",
    "address": "2632 10th Ave E",
    "active": false,
    "unitCount": 1,
    "severity": 0,
    "lat": 47.643604,
    "long": -122.319595,
    "neighborhood": "Montlake/Portage Bay",
    "neighborhoodGroup": "Northeast",
    "units": "E22"
  },
  {
    "id_str": "F220055785",
    "created_at": "5/16/2022 1:18:00 AM",
    "timestamp": 1652689080000,
    "description": "MVI - Motor Vehicle Incident",
    "address": "Broadway E / E Olive Way",
    "active": false,
    "unitCount": 1,
    "severity": 0,
    "lat": 47.619908,
    "long": -122.320873,
    "neighborhood": "Capitol Hill",
    "neighborhoodGroup": "East",
    "units": "E25"
  },
  {
    "id_str": "F220055783",
    "created_at": "5/16/2022 12:58:06 AM",
    "timestamp": 1652687886000,
    "description": "Aid Response",
    "address": "5th Ave S / S Jackson St",
    "active": false,
    "unitCount": 1,
    "severity": 0,
    "lat": 47.599195,
    "long": -122.327667,
    "neighborhood": "Pioneer Square/International District",
    "neighborhoodGroup": "Downtown",
    "units": "A5"
  },
  {
    "id_str": "F220055781",
    "created_at": "5/16/2022 12:53:26 AM",
    "timestamp": 1652687606000,
    "description": "Aid Response",
    "address": "3001 S Myrtle St",
    "active": false,
    "unitCount": 1,
    "severity": 0,
    "lat": 47.538902,
    "long": -122.293225,
    "neighborhood": "South Beacon Hill/NewHolly",
    "neighborhoodGroup": "Greater Duwamish",
    "units": "E28"
  },
  {
    "id_str": "F220055779",
    "created_at": "5/16/2022 12:39:18 AM",
    "timestamp": 1652686758000,
    "description": "Medic Response",
    "address": "5602 15th Ave Ne",
    "active": false,
    "unitCount": 2,
    "severity": 0,
    "lat": 47.66946,
    "long": -122.311887,
    "neighborhood": "University District",
    "neighborhoodGroup": "Northeast",
    "units": "E17 M17"
  },
  {
    "id_str": "F220055778",
    "created_at": "5/16/2022 12:25:04 AM",
    "timestamp": 1652685904000,
    "description": "Aid Response",
    "address": "500 W Emerson St",
    "active": false,
    "unitCount": 1,
    "severity": 0,
    "lat": 47.650722,
    "long": -122.364428,
    "neighborhood": "Queen Anne",
    "neighborhoodGroup": "Magnolia/Queen Anne",
    "units": "E20"
  },
  {
    "id_str": "F220055774",
    "created_at": "5/16/2022 12:19:42 AM",
    "timestamp": 1652685582000,
    "description": "Aid Response",
    "address": "406 S Lucile St",
    "active": false,
    "unitCount": 1,
    "severity": 0,
    "lat": 47.553399,
    "long": -122.329478,
    "neighborhood": "Georgetown",
    "neighborhoodGroup": "Greater Duwamish",
    "units": "E27"
  },
  {
    "id_str": "F220055773",
    "created_at": "5/16/2022 12:19:16 AM",
    "timestamp": 1652685556000,
    "description": "MVI - Motor Vehicle Incident",
    "address": "1144 Rainier Ave S",
    "active": false,
    "unitCount": 1,
    "severity": 0,
    "lat": 47.592633,
    "long": -122.309049,
    "neighborhood": "North Beacon Hill/Jefferson Park",
    "neighborhoodGroup": "Greater Duwamish",
    "units": "E6"
  },
  {
    "id_str": "F220055772",
    "created_at": "5/16/2022 12:13:58 AM",
    "timestamp": 1652685238000,
    "description": "Medic Response, 7 per Rule",
    "address": "607 3rd Ave",
    "active": false,
    "unitCount": 3,
    "severity": 0,
    "lat": 47.602813,
    "long": -122.331449,
    "neighborhood": "Downtown Commercial Core",
    "neighborhoodGroup": "Downtown",
    "units": "E10 L1 M10"
  },
  {
    "id_str": "F220055771",
    "created_at": "5/16/2022 12:08:49 AM",
    "timestamp": 1652684929000,
    "description": "Aid Response",
    "address": "901 RAINIER AVE S",
    "active": false,
    "unitCount": 2,
    "severity": 0,
    "lat": 47.522815,
    "long": -122.269988,
    "neighborhood": "Rainier Beach",
    "neighborhoodGroup": "Southeast",
    "units": "A10 E33"
  },
  {
    "id_str": "F220055770",
    "created_at": "5/15/2022 11:54:37 PM",
    "timestamp": 1652684077000,
    "description": "Medic Response",
    "address": "3616 34th Ave S",
    "active": false,
    "unitCount": 2,
    "severity": 0,
    "lat": 47.571435,
    "long": -122.289925,
    "neighborhood": "Columbia City",
    "neighborhoodGroup": "Southeast",
    "units": "E30 M28"
  },
  {
    "id_str": "F220055768",
    "created_at": "5/15/2022 11:35:07 PM",
    "timestamp": 1652682907000,
    "description": "Medic Response",
    "address": "700 Minor Ave",
    "active": false,
    "unitCount": 2,
    "severity": 0,
    "lat": 47.607661,
    "long": -122.322073,
    "neighborhood": "First Hill",
    "neighborhoodGroup": "East",
    "units": "A25 M1"
  },
  {
    "id_str": "F220055767",
    "created_at": "5/15/2022 11:32:17 PM",
    "timestamp": 1652682737000,
    "description": "Encampment Medic",
    "address": "8TH AVE S / S KING ST",
    "active": false,
    "unitCount": 2,
    "severity": 0,
    "lat": 47.597509,
    "long": -122.322452,
    "neighborhood": "Pioneer Square/International District",
    "neighborhoodGroup": "Downtown",
    "units": "A5 M10"
  },
  {
    "id_str": "F220055764",
    "created_at": "5/15/2022 11:16:22 PM",
    "timestamp": 1652681782000,
    "description": "Auto Fire Alarm",
    "address": "1401 Madison St",
    "active": false,
    "unitCount": 2,
    "severity": 0,
    "lat": 47.610734,
    "long": -122.321799,
    "neighborhood": "Capitol Hill",
    "neighborhoodGroup": "East",
    "units": "E25 L10"
  },
  {
    "id_str": "F220055763",
    "created_at": "5/15/2022 11:07:19 PM",
    "timestamp": 1652681239000,
    "description": "Medic Response",
    "address": "105 5TH AVE S",
    "active": false,
    "unitCount": 2,
    "severity": 0,
    "lat": 47.601721,
    "long": -122.329021,
    "neighborhood": "Downtown Commercial Core",
    "neighborhoodGroup": "Downtown",
    "units": "A10 M10"
  },
  {
    "id_str": "F220055761",
    "created_at": "5/15/2022 11:04:04 PM",
    "timestamp": 1652681044000,
    "description": "Aid Response",
    "address": "35th Ave Sw / Sw Barton St",
    "active": false,
    "unitCount": 1,
    "severity": 0,
    "lat": 47.52107,
    "long": -122.376761,
    "neighborhood": "Roxhill/Westwood",
    "neighborhoodGroup": "Delridge Neighborhoods",
    "units": "E37"
  },
  {
    "id_str": "F220055760",
    "created_at": "5/15/2022 11:02:34 PM",
    "timestamp": 1652680954000,
    "description": "Aid Response",
    "address": "4th Ave / Stewart St",
    "active": false,
    "unitCount": 1,
    "severity": 0,
    "lat": 47.612294,
    "long": -122.338732,
    "neighborhood": "Cascade/Eastlake",
    "neighborhoodGroup": "Lake Union",
    "units": "A2"
  },
  {
    "id_str": "F220055759",
    "created_at": "5/15/2022 10:59:32 PM",
    "timestamp": 1652680772000,
    "description": "Aid Response",
    "address": "WESTERN AVE / BATTERY ST",
    "active": false,
    "unitCount": 1,
    "severity": 0,
    "lat": 47.612815,
    "long": -122.349533,
    "neighborhood": "Belltown",
    "neighborhoodGroup": "Downtown",
    "units": "E2"
  },
  {
    "id_str": "F220055758",
    "created_at": "5/15/2022 10:52:44 PM",
    "timestamp": 1652680364000,
    "description": "Aid Response",
    "address": "4611 35th Ave Sw",
    "active": false,
    "unitCount": 1,
    "severity": 0,
    "lat": 47.561926,
    "long": -122.376204,
    "neighborhood": "North Delridge",
    "neighborhoodGroup": "Delridge Neighborhoods",
    "units": "E32"
  },
  {
    "id_str": "F220055755",
    "created_at": "5/15/2022 10:46:35 PM",
    "timestamp": 1652679995000,
    "description": "Aid Response",
    "address": "857 Ne 67th St",
    "active": false,
    "unitCount": 1,
    "severity": 0,
    "lat": 47.677302,
    "long": -122.319314,
    "neighborhood": "Green Lake",
    "neighborhoodGroup": "Northwest",
    "units": "E16"
  },
  {
    "id_str": "F220055752",
    "created_at": "5/15/2022 10:43:02 PM",
    "timestamp": 1652679782000,
    "description": "Medic Response",
    "address": "7700 35th Ave Sw",
    "active": false,
    "unitCount": 2,
    "severity": 0,
    "lat": 47.533742,
    "long": -122.376619,
    "neighborhood": "Roxhill/Westwood",
    "neighborhoodGroup": "Delridge Neighborhoods",
    "units": "L13 M32"
  },
  {
    "id_str": "F220055753",
    "created_at": "5/15/2022 10:42:27 PM",
    "timestamp": 1652679747000,
    "description": "Hang-Up, Aid",
    "address": "800 S Weller St",
    "active": false,
    "unitCount": 1,
    "severity": 0,
    "lat": 47.597509,
    "long": -122.322452,
    "neighborhood": "Pioneer Square/International District",
    "neighborhoodGroup": "Downtown",
    "units": "A5"
  },
  {
    "id_str": "F220055751",
    "created_at": "5/15/2022 10:42:02 PM",
    "timestamp": 1652679722000,
    "description": "Aid Response",
    "address": "300 E Pine St",
    "active": false,
    "unitCount": 1,
    "severity": 0,
    "lat": 47.615238,
    "long": -122.327904,
    "neighborhood": "Capitol Hill",
    "neighborhoodGroup": "East",
    "units": "A25"
  },
  {
    "id_str": "F220055750",
    "created_at": "5/15/2022 10:40:19 PM",
    "timestamp": 1652679619000,
    "description": "Aid Response",
    "address": "1902 2nd Ave",
    "active": false,
    "unitCount": 1,
    "severity": 0,
    "lat": 47.610972,
    "long": -122.340465,
    "neighborhood": "Belltown",
    "neighborhoodGroup": "Downtown",
    "units": "A2"
  },
  {
    "id_str": "F220055746",
    "created_at": "5/15/2022 10:33:18 PM",
    "timestamp": 1652679198000,
    "description": "Alarm Bell",
    "address": "9455 27th Ave Sw",
    "active": false,
    "unitCount": 1,
    "severity": 0,
    "lat": 47.518178,
    "long": -122.367277,
    "neighborhood": "Roxhill/Westwood",
    "neighborhoodGroup": "Delridge Neighborhoods",
    "units": "E37"
  },
  {
    "id_str": "F220055745",
    "created_at": "5/15/2022 10:29:49 PM",
    "timestamp": 1652678989000,
    "description": "Electrical Problem",
    "address": "315 N 105th St",
    "active": false,
    "unitCount": 1,
    "severity": 0,
    "lat": 47.705083,
    "long": -122.355248,
    "neighborhood": "North Beach/Blue Ridge",
    "neighborhoodGroup": "Ballard",
    "units": "E31"
  },
  {
    "id_str": "F220055744",
    "created_at": "5/15/2022 10:28:17 PM",
    "timestamp": 1652678897000,
    "description": "Aid Response Yellow",
    "address": "3rd Ave / Pike St",
    "active": false,
    "unitCount": 1,
    "severity": 0,
    "lat": 47.60975,
    "long": -122.337793,
    "neighborhood": "Downtown Commercial Core",
    "neighborhoodGroup": "Downtown",
    "units": "A10"
  },
  {
    "id_str": "F220055741",
    "created_at": "5/15/2022 10:23:15 PM",
    "timestamp": 1652678595000,
    "description": "Aid Response",
    "address": "5429 Ballard Ave Nw",
    "active": false,
    "unitCount": 1,
    "severity": 0,
    "lat": 47.66791,
    "long": -122.385242,
    "neighborhood": "Ballard",
    "neighborhoodGroup": "Ballard",
    "units": "E18"
  },
  {
    "id_str": "F220055743",
    "created_at": "5/15/2022 10:23:08 PM",
    "timestamp": 1652678588000,
    "description": "Auto Fire Alarm",
    "address": "1401 MADISON ST",
    "active": false,
    "unitCount": 3,
    "severity": 0,
    "lat": 47.613907,
    "long": -122.314191,
    "neighborhood": "Capitol Hill",
    "neighborhoodGroup": "East",
    "units": "E10 E25 L10"
  },
  {
    "id_str": "F220055740",
    "created_at": "5/15/2022 10:20:38 PM",
    "timestamp": 1652678438000,
    "description": "Aid Response",
    "address": "1519 12th Ave",
    "active": false,
    "unitCount": 1,
    "severity": 0,
    "lat": 47.614317,
    "long": -122.316839,
    "neighborhood": "Capitol Hill",
    "neighborhoodGroup": "East",
    "units": "E25"
  },
  {
    "id_str": "F220055739",
    "created_at": "5/15/2022 10:17:05 PM",
    "timestamp": 1652678225000,
    "description": "Alarm Bell",
    "address": "6541 Chapin Pl N",
    "active": false,
    "unitCount": 1,
    "severity": 0,
    "lat": 47.676621,
    "long": -122.33014,
    "neighborhood": "Green Lake",
    "neighborhoodGroup": "Northwest",
    "units": "E16"
  },
  {
    "id_str": "F220055737",
    "created_at": "5/15/2022 10:13:02 PM",
    "timestamp": 1652677982000,
    "description": "Aid Response",
    "address": "Minor Ave / Union St",
    "active": false,
    "unitCount": 1,
    "severity": 0,
    "lat": 47.612959,
    "long": -122.326884,
    "neighborhood": "Capitol Hill",
    "neighborhoodGroup": "East",
    "units": "A25"
  },
  {
    "id_str": "F220055736",
    "created_at": "5/15/2022 10:12:32 PM",
    "timestamp": 1652677952000,
    "description": "Aid Response",
    "address": "712 Aurora Ave N",
    "active": false,
    "unitCount": 1,
    "severity": 0,
    "lat": 47.625512,
    "long": -122.343512,
    "neighborhood": "Queen Anne",
    "neighborhoodGroup": "Magnolia/Queen Anne",
    "units": "A2"
  },
  {
    "id_str": "F220055735",
    "created_at": "5/15/2022 10:06:12 PM",
    "timestamp": 1652677572000,
    "description": "Auto Fire Alarm",
    "address": "1401 Madison St",
    "active": false,
    "unitCount": 2,
    "severity": 0,
    "lat": 47.610734,
    "long": -122.321799,
    "neighborhood": "Capitol Hill",
    "neighborhoodGroup": "East",
    "units": "E25 L10"
  },
  {
    "id_str": "F220055733",
    "created_at": "5/15/2022 9:59:15 PM",
    "timestamp": 1652677155000,
    "description": "Illegal Burn",
    "address": "S Dearborn St / Maynard Ave S",
    "active": false,
    "unitCount": 1,
    "severity": 0,
    "lat": 47.595835,
    "long": -122.325068,
    "neighborhood": "Pioneer Square/International District",
    "neighborhoodGroup": "Downtown",
    "units": "E10"
  },
  {
    "id_str": "F220055732",
    "created_at": "5/15/2022 9:55:13 PM",
    "timestamp": 1652676913000,
    "description": "MVI - Motor Vehicle Incident",
    "address": "4604 S Ferdinand St",
    "active": false,
    "unitCount": 1,
    "severity": 0,
    "lat": 47.558214,
    "long": -122.275655,
    "neighborhood": "Seward Park",
    "neighborhoodGroup": "Southeast",
    "units": "E28"
  },
  {
    "id_str": "F220055731",
    "created_at": "5/15/2022 9:53:42 PM",
    "timestamp": 1652676822000,
    "description": "1RED 1 Unit",
    "address": "Lake Washington Blvd / Madrona Dr",
    "active": false,
    "unitCount": 2,
    "severity": 0,
    "lat": 47.612062,
    "long": -122.281985,
    "neighborhood": "Madrona/Leschi",
    "neighborhoodGroup": "Central",
    "units": "E34 L3"
  },
  {
    "id_str": "F220055729",
    "created_at": "5/15/2022 9:51:16 PM",
    "timestamp": 1652676676000,
    "description": "Rubbish Fire",
    "address": "506 E Howell St",
    "active": false,
    "unitCount": 1,
    "severity": 0,
    "lat": 47.617741,
    "long": -122.32524,
    "neighborhood": "Capitol Hill",
    "neighborhoodGroup": "East",
    "units": "E25"
  },
  {
    "id_str": "F220055726",
    "created_at": "5/15/2022 9:48:28 PM",
    "timestamp": 1652676508000,
    "description": "Auto Fire Alarm",
    "address": "3621 33rd Ave S",
    "active": false,
    "unitCount": 3,
    "severity": 0,
    "lat": 47.571408,
    "long": -122.291001,
    "neighborhood": "Columbia City",
    "neighborhoodGroup": "Southeast",
    "units": "E13 E30 L12"
  },
  {
    "id_str": "F220055724",
    "created_at": "5/15/2022 9:43:19 PM",
    "timestamp": 1652676199000,
    "description": "Aid Response",
    "address": "12740 33rd Ave Ne",
    "active": false,
    "unitCount": 1,
    "severity": 0,
    "lat": 47.720938,
    "long": -122.292513,
    "neighborhood": "Cedar Park/Meadowbrook",
    "neighborhoodGroup": "North",
    "units": "E39"
  },
  {
    "id_str": "F220055722",
    "created_at": "5/15/2022 9:30:09 PM",
    "timestamp": 1652675409000,
    "description": "Aid Response",
    "address": "1536 Eastlake Ave E",
    "active": false,
    "unitCount": 1,
    "severity": 0,
    "lat": 47.632859,
    "long": -122.325887,
    "neighborhood": "Cascade/Eastlake",
    "neighborhoodGroup": "Lake Union",
    "units": "E22"
  },
  {
    "id_str": "F220055720",
    "created_at": "5/15/2022 9:23:47 PM",
    "timestamp": 1652675027000,
    "description": "Auto Fire Alarm",
    "address": "901 Pine St",
    "active": false,
    "unitCount": 2,
    "severity": 0,
    "lat": 47.613533,
    "long": -122.332031,
    "neighborhood": "First Hill",
    "neighborhoodGroup": "East",
    "units": "E25 L10"
  },
  {
    "id_str": "F220055717",
    "created_at": "5/15/2022 9:17:57 PM",
    "timestamp": 1652674677000,
    "description": "Aid Response",
    "address": "13000 Linden Ave N",
    "active": false,
    "unitCount": 1,
    "severity": 0,
    "lat": 47.723218,
    "long": -122.348195,
    "neighborhood": "Broadview/Bitter Lake",
    "neighborhoodGroup": "Northwest",
    "units": "E24"
  },
  {
    "id_str": "F220055713",
    "created_at": "5/15/2022 9:13:53 PM",
    "timestamp": 1652674433000,
    "description": "1RED 1 Unit",
    "address": "4845 Terrace Dr Ne",
    "active": false,
    "unitCount": 1,
    "severity": 0,
    "lat": 47.663833,
    "long": -122.285564,
    "neighborhood": "Ravenna/Bryant",
    "neighborhoodGroup": "Northeast",
    "units": "E38"
  },
  {
    "id_str": "F220055709",
    "created_at": "5/15/2022 9:00:23 PM",
    "timestamp": 1652673623000,
    "description": "Aid Response",
    "address": "1753 Nw 56th St",
    "active": false,
    "unitCount": 1,
    "severity": 0,
    "lat": 47.669446,
    "long": -122.37945,
    "neighborhood": "Ballard",
    "neighborhoodGroup": "Ballard",
    "units": "E18"
  },
  {
    "id_str": "F220055707",
    "created_at": "5/15/2022 8:46:14 PM",
    "timestamp": 1652672774000,
    "description": "Medic Response",
    "address": "2ND AVE / PINE ST",
    "active": false,
    "unitCount": 2,
    "severity": 0,
    "lat": 47.612136,
    "long": -122.335373,
    "neighborhood": "First Hill",
    "neighborhoodGroup": "East",
    "units": "A2 M1"
  },
  {
    "id_str": "F220055706",
    "created_at": "5/15/2022 8:44:03 PM",
    "timestamp": 1652672643000,
    "description": "Aid Response",
    "address": "8511 15th Ave Ne",
    "active": false,
    "unitCount": 1,
    "severity": 0,
    "lat": 47.690434,
    "long": -122.31223,
    "neighborhood": "Northgate/Maple Leaf",
    "neighborhoodGroup": "North",
    "units": "E16"
  },
  {
    "id_str": "F220055705",
    "created_at": "5/15/2022 8:43:26 PM",
    "timestamp": 1652672606000,
    "description": "Aid Response",
    "address": "1700 1st Ave S",
    "active": false,
    "unitCount": 1,
    "severity": 0,
    "lat": 47.588229,
    "long": -122.334197,
    "neighborhood": "Duwamish/SODO",
    "neighborhoodGroup": "Greater Duwamish",
    "units": "A5"
  },
  {
    "id_str": "F220055704",
    "created_at": "5/15/2022 8:42:39 PM",
    "timestamp": 1652672559000,
    "description": "Aid Response",
    "address": "1201 ALASKAN WAY",
    "active": false,
    "unitCount": 12,
    "severity": 2,
    "lat": 47.605178,
    "long": -122.339773,
    "neighborhood": "Downtown Commercial Core",
    "neighborhoodGroup": "Downtown",
    "units": "A14 B2 E10 E5 FB2 FIREBOAT L3 L4 M10 PTRL4 R1 RB5"
  },
  {
    "id_str": "F220055702",
    "created_at": "5/15/2022 8:39:24 PM",
    "timestamp": 1652672364000,
    "description": "Auto Fire Alarm",
    "address": "411 E Thomas St",
    "active": false,
    "unitCount": 2,
    "severity": 0,
    "lat": 47.620831,
    "long": -122.326435,
    "neighborhood": "Capitol Hill",
    "neighborhoodGroup": "East",
    "units": "E25 L10"
  },
  {
    "id_str": "F220055703",
    "created_at": "5/15/2022 8:38:53 PM",
    "timestamp": 1652672333000,
    "description": "Aid Response",
    "address": "Corgiat Dr S / S Albro Pl",
    "active": false,
    "unitCount": 2,
    "severity": 0,
    "lat": 47.548167,
    "long": -122.312515,
    "neighborhood": "Beacon Hill",
    "neighborhoodGroup": "Greater Duwamish",
    "units": "E27 M28"
  },
  {
    "id_str": "F220055700",
    "created_at": "5/15/2022 8:38:02 PM",
    "timestamp": 1652672282000,
    "description": "Aid Response",
    "address": "10507 Aurora Ave N",
    "active": false,
    "unitCount": 1,
    "severity": 0,
    "lat": 47.705096,
    "long": -122.344695,
    "neighborhood": "Licton Springs",
    "neighborhoodGroup": "Northwest",
    "units": "E31"
  },
  {
    "id_str": "F220055698",
    "created_at": "5/15/2022 8:35:53 PM",
    "timestamp": 1652672153000,
    "description": "Aid Response",
    "address": "4211 S Cloverdale St",
    "active": false,
    "unitCount": 1,
    "severity": 0,
    "lat": 47.526107,
    "long": -122.280381,
    "neighborhood": "South Beacon Hill/NewHolly",
    "neighborhoodGroup": "Greater Duwamish",
    "units": "E33"
  },
  {
    "id_str": "F220055696",
    "created_at": "5/15/2022 8:18:26 PM",
    "timestamp": 1652671106000,
    "description": "Aid Response",
    "address": "700 15th Ave E",
    "active": false,
    "unitCount": 2,
    "severity": 0,
    "lat": 47.62526,
    "long": -122.31259,
    "neighborhood": "Miller Park",
    "neighborhoodGroup": "East",
    "units": "A25 E25"
  },
  {
    "id_str": "F220055695",
    "created_at": "5/15/2022 8:16:41 PM",
    "timestamp": 1652671001000,
    "description": "Aid Response",
    "address": "Nw 61st St / 24th Ave Nw",
    "active": false,
    "unitCount": 1,
    "severity": 0,
    "lat": 47.673103,
    "long": -122.387587,
    "neighborhood": "Sunset Hill/Loyal Heights",
    "neighborhoodGroup": "Ballard",
    "units": "E18"
  },
  {
    "id_str": "F220055694",
    "created_at": "5/15/2022 8:08:38 PM",
    "timestamp": 1652670518000,
    "description": "Aid Response",
    "address": "2121 26th Ave S",
    "active": false,
    "unitCount": 1,
    "severity": 0,
    "lat": 47.584234,
    "long": -122.299024,
    "neighborhood": "Mt. Baker/North Rainier",
    "neighborhoodGroup": "Southeast",
    "units": "E30"
  },
  {
    "id_str": "F220055692",
    "created_at": "5/15/2022 8:00:44 PM",
    "timestamp": 1652670044000,
    "description": "Alarm Bell",
    "address": "5900 37th Ave S",
    "active": false,
    "unitCount": 1,
    "severity": 0,
    "lat": 47.549748,
    "long": -122.286273,
    "neighborhood": "Columbia City",
    "neighborhoodGroup": "Southeast",
    "units": "L12"
  },
  {
    "id_str": "F220055691",
    "created_at": "5/15/2022 7:56:37 PM",
    "timestamp": 1652669797000,
    "description": "Aid Response",
    "address": "1103 16th Ave",
    "active": false,
    "unitCount": 2,
    "severity": 0,
    "lat": 47.611553,
    "long": -122.311479,
    "neighborhood": "Central Area/Squire Park",
    "neighborhoodGroup": "Central",
    "units": "L10 M17"
  },
  {
    "id_str": "F220055690",
    "created_at": "5/15/2022 7:56:26 PM",
    "timestamp": 1652669786000,
    "description": "Medic Response",
    "address": "625 N 130th St",
    "active": false,
    "unitCount": 3,
    "severity": 0,
    "lat": 47.723223,
    "long": -122.351302,
    "neighborhood": "Broadview/Bitter Lake",
    "neighborhoodGroup": "Northwest",
    "units": "E24 E31 M31"
  },
  {
    "id_str": "F220055688",
    "created_at": "5/15/2022 7:53:40 PM",
    "timestamp": 1652669620000,
    "description": "Aid Response",
    "address": "1615 19th Ave",
    "active": false,
    "unitCount": 1,
    "severity": 0,
    "lat": 47.615477,
    "long": -122.30744,
    "neighborhood": "Central Area/Squire Park",
    "neighborhoodGroup": "Central",
    "units": "E25"
  },
  {
    "id_str": "F220055687",
    "created_at": "5/15/2022 7:52:06 PM",
    "timestamp": 1652669526000,
    "description": "Medic Response",
    "address": "914 James St",
    "active": false,
    "unitCount": 2,
    "severity": 0,
    "lat": 47.605621,
    "long": -122.324591,
    "neighborhood": "First Hill",
    "neighborhoodGroup": "East",
    "units": "A5 M1"
  },
  {
    "id_str": "F220055686",
    "created_at": "5/15/2022 7:50:51 PM",
    "timestamp": 1652669451000,
    "description": "Medic Response",
    "address": "7325 Rainier Ave S",
    "active": false,
    "unitCount": 2,
    "severity": 0,
    "lat": 47.536696,
    "long": -122.270213,
    "neighborhood": "Seward Park",
    "neighborhoodGroup": "Southeast",
    "units": "E28 M28"
  },
  {
    "id_str": "F220055685",
    "created_at": "5/15/2022 7:50:31 PM",
    "timestamp": 1652669431000,
    "description": "Aid Response",
    "address": "1028 Madison St",
    "active": false,
    "unitCount": 1,
    "severity": 0,
    "lat": 47.609006,
    "long": -122.325933,
    "neighborhood": "First Hill",
    "neighborhoodGroup": "East",
    "units": "A25"
  },
  {
    "id_str": "F220055682",
    "created_at": "5/15/2022 7:47:35 PM",
    "timestamp": 1652669255000,
    "description": "Medic Response, 6 per Rule",
    "address": "Terry Ave / Jefferson St",
    "active": false,
    "unitCount": 3,
    "severity": 0,
    "lat": 47.605305,
    "long": -122.322989,
    "neighborhood": "First Hill",
    "neighborhoodGroup": "East",
    "units": "A10 E10 M10"
  },
  {
    "id_str": "F220055681",
    "created_at": "5/15/2022 7:35:45 PM",
    "timestamp": 1652668545000,
    "description": "1RED 1 Unit",
    "address": "3222 Fuhrman Ave E",
    "active": false,
    "unitCount": 1,
    "severity": 0,
    "lat": 47.650491,
    "long": -122.320295,
    "neighborhood": "Montlake/Portage Bay",
    "neighborhoodGroup": "Northeast",
    "units": "E17"
  },
  {
    "id_str": "F220055680",
    "created_at": "5/15/2022 7:28:49 PM",
    "timestamp": 1652668129000,
    "description": "Aid Response",
    "address": "600 9th Ave",
    "active": false,
    "unitCount": 1,
    "severity": 0,
    "lat": 47.605555,
    "long": -122.324749,
    "neighborhood": "First Hill",
    "neighborhoodGroup": "East",
    "units": "A5"
  },
  {
    "id_str": "F220055677",
    "created_at": "5/15/2022 7:23:50 PM",
    "timestamp": 1652667830000,
    "description": "Fire in Building",
    "address": "1911 Aurora Ave N",
    "active": false,
    "unitCount": 19,
    "severity": 2,
    "lat": 47.640453,
    "long": -122.346334,
    "neighborhood": "Queen Anne",
    "neighborhoodGroup": "Magnolia/Queen Anne",
    "units": "A2 AIR10 B4 B6 DEP1 E18 E2 E20 E8 E9 L4 L8 L9 M18 M44 MAR5 REHAB1 SAFT2 STAF10"
  },
  {
    "id_str": "F220055676",
    "created_at": "5/15/2022 7:20:11 PM",
    "timestamp": 1652667611000,
    "description": "Aid Response",
    "address": "4515 41st Ave Sw",
    "active": false,
    "unitCount": 1,
    "severity": 0,
    "lat": 47.562739,
    "long": -122.384135,
    "neighborhood": "West Seattle Junction/Genesee Hill",
    "neighborhoodGroup": "Southwest",
    "units": "E32"
  },
  {
    "id_str": "F220055675",
    "created_at": "5/15/2022 7:15:17 PM",
    "timestamp": 1652667317000,
    "description": "Investigate Out Of Service",
    "address": "7717 Mary Ave Nw",
    "active": false,
    "unitCount": 1,
    "severity": 0,
    "lat": 47.685162,
    "long": -122.375448,
    "neighborhood": "Whittier Heights",
    "neighborhoodGroup": "Ballard",
    "units": "E35"
  },
  {
    "id_str": "F220055672",
    "created_at": "5/15/2022 7:05:28 PM",
    "timestamp": 1652666728000,
    "description": "Aid Response",
    "address": "500 5th Ave",
    "active": false,
    "unitCount": 1,
    "severity": 0,
    "lat": 47.602985,
    "long": -122.328535,
    "neighborhood": "First Hill",
    "neighborhoodGroup": "East",
    "units": "A10"
  },
  {
    "id_str": "F220055667",
    "created_at": "5/15/2022 6:49:53 PM",
    "timestamp": 1652665793000,
    "description": "Aid Response",
    "address": "6058 35th Ave Sw",
    "active": false,
    "unitCount": 1,
    "severity": 0,
    "lat": 47.548057,
    "long": -122.376374,
    "neighborhood": "High Point",
    "neighborhoodGroup": "Delridge Neighborhoods",
    "units": "E37"
  },
  {
    "id_str": "F220055666",
    "created_at": "5/15/2022 6:44:32 PM",
    "timestamp": 1652665472000,
    "description": "Aid Response",
    "address": "500 W Emerson St",
    "active": false,
    "unitCount": 1,
    "severity": 0,
    "lat": 47.650722,
    "long": -122.364428,
    "neighborhood": "Queen Anne",
    "neighborhoodGroup": "Magnolia/Queen Anne",
    "units": "E20"
  },
  {
    "id_str": "F220055665",
    "created_at": "5/15/2022 6:42:16 PM",
    "timestamp": 1652665336000,
    "description": "Aid Response",
    "address": "1811 Eastlake Ave",
    "active": false,
    "unitCount": 1,
    "severity": 0,
    "lat": 47.618002,
    "long": -122.329182,
    "neighborhood": "Cascade/Eastlake",
    "neighborhoodGroup": "Lake Union",
    "units": "A2"
  },
  {
    "id_str": "F220055662",
    "created_at": "5/15/2022 6:36:03 PM",
    "timestamp": 1652664963000,
    "description": "Rescue Elevator",
    "address": "2920 Eastlake Ave E",
    "active": false,
    "unitCount": 1,
    "severity": 0,
    "lat": 47.647519,
    "long": -122.324414,
    "neighborhood": "Montlake/Portage Bay",
    "neighborhoodGroup": "Northeast",
    "units": "L9"
  },
  {
    "id_str": "F220055663",
    "created_at": "5/15/2022 6:35:56 PM",
    "timestamp": 1652664956000,
    "description": "Medic Response, 7 per Rule",
    "address": "11762 Aurora Ave N",
    "active": false,
    "unitCount": 3,
    "severity": 0,
    "lat": 47.715145,
    "long": -122.34486,
    "neighborhood": "Broadview/Bitter Lake",
    "neighborhoodGroup": "Northwest",
    "units": "E24 E31 M31"
  },
  {
    "id_str": "F220055661",
    "created_at": "5/15/2022 6:33:24 PM",
    "timestamp": 1652664804000,
    "description": "Aid Response",
    "address": "403 31st Ave S",
    "active": false,
    "unitCount": 1,
    "severity": 0,
    "lat": 47.599125,
    "long": -122.292586,
    "neighborhood": "Madrona/Leschi",
    "neighborhoodGroup": "Central",
    "units": "E6"
  },
  {
    "id_str": "F220055660",
    "created_at": "5/15/2022 6:32:55 PM",
    "timestamp": 1652664775000,
    "description": "Low Acuity Response",
    "address": "1531 1st Ave",
    "active": false,
    "unitCount": 1,
    "severity": 0,
    "lat": 47.609125,
    "long": -122.340291,
    "neighborhood": "Downtown Commercial Core",
    "neighborhoodGroup": "Downtown",
    "units": "E5"
  },
  {
    "id_str": "F220055659",
    "created_at": "5/15/2022 6:25:13 PM",
    "timestamp": 1652664313000,
    "description": "Aid Response",
    "address": "1118 5th Ave",
    "active": false,
    "unitCount": 1,
    "severity": 0,
    "lat": 47.60739,
    "long": -122.332564,
    "neighborhood": "Downtown Commercial Core",
    "neighborhoodGroup": "Downtown",
    "units": "A5"
  },
  {
    "id_str": "F220055657",
    "created_at": "5/15/2022 6:19:58 PM",
    "timestamp": 1652663998000,
    "description": "Activated CO Detector",
    "address": "4815 Evanston Ave N",
    "active": false,
    "unitCount": 2,
    "severity": 0,
    "lat": 47.663692,
    "long": -122.351472,
    "neighborhood": "Fremont",
    "neighborhoodGroup": "Lake Union",
    "units": "L5 L6"
  },
  {
    "id_str": "F220055656",
    "created_at": "5/15/2022 6:17:27 PM",
    "timestamp": 1652663847000,
    "description": "Auto Fire Alarm",
    "address": "4740 21st Ave Ne",
    "active": false,
    "unitCount": 2,
    "severity": 0,
    "lat": 47.663315,
    "long": -122.305458,
    "neighborhood": "Ravenna/Bryant",
    "neighborhoodGroup": "Northeast",
    "units": "E17 L9"
  },
  {
    "id_str": "F220055654",
    "created_at": "5/15/2022 6:14:42 PM",
    "timestamp": 1652663682000,
    "description": "Aid Response",
    "address": "1811 Eastlake Ave",
    "active": false,
    "unitCount": 1,
    "severity": 0,
    "lat": 47.618002,
    "long": -122.329182,
    "neighborhood": "Cascade/Eastlake",
    "neighborhoodGroup": "Lake Union",
    "units": "E2"
  },
  {
    "id_str": "F220055653",
    "created_at": "5/15/2022 6:14:16 PM",
    "timestamp": 1652663656000,
    "description": "Advised Incident",
    "address": "3rd Ave / Pike St",
    "active": false,
    "unitCount": 1,
    "severity": 0,
    "lat": 47.60975,
    "long": -122.337793,
    "neighborhood": "Downtown Commercial Core",
    "neighborhoodGroup": "Downtown",
    "units": "A5"
  },
  {
    "id_str": "F220055652",
    "created_at": "5/15/2022 6:14:06 PM",
    "timestamp": 1652663646000,
    "description": "Aid Response",
    "address": "3rd Ave / Pike St",
    "active": false,
    "unitCount": 1,
    "severity": 0,
    "lat": 47.60975,
    "long": -122.337793,
    "neighborhood": "Downtown Commercial Core",
    "neighborhoodGroup": "Downtown",
    "units": "A2"
  },