[
  {
    "id_str": "F220035172",
    "created_at": "3/26/2022 4:58:58 PM",
    "timestamp": 1648339138000,
    "description": "Aid Response",
    "address": "4733 51st Ave S",
    "active": false,
    "unitCount": 1,
    "severity": 0,
    "lat": 47.560199,
    "long": -122.269443,
    "neighborhood": "Seward Park",
    "neighborhoodGroup": "Southeast",
    "units": "E28"
  },
  {
    "id_str": "F220035171",
    "created_at": "3/26/2022 4:58:47 PM",
    "timestamp": 1648339127000,
    "description": "Aid Response",
    "address": "Sw Henderson St / 16th Ave Sw",
    "active": false,
    "unitCount": 1,
    "severity": 0,
    "lat": 47.52287,
    "long": -122.355104,
    "neighborhood": "Highland Park",
    "neighborhoodGroup": "Delridge Neighborhoods",
    "units": "A26"
  },
  {
    "id_str": "F220035168",
    "created_at": "3/26/2022 4:41:25 PM",
    "timestamp": 1648338085000,
    "description": "Aid Response",
    "address": "3rd Ave / Cedar St",
    "active": false,
    "unitCount": 1,
    "severity": 0,
    "lat": 47.617131,
    "long": -122.348898,
    "neighborhood": "Cascade/Eastlake",
    "neighborhoodGroup": "Lake Union",
    "units": "A2"
  },
  {
    "id_str": "F220035167",
    "created_at": "3/26/2022 4:38:09 PM",
    "timestamp": 1648337889000,
    "description": "Aid Response",
    "address": "1819 23rd Ave",
    "active": false,
    "unitCount": 1,
    "severity": 0,
    "lat": 47.617882,
    "long": -122.302573,
    "neighborhood": "Central Area/Squire Park",
    "neighborhoodGroup": "Central",
    "units": "A25"
  },
  {
    "id_str": "F220035165",
    "created_at": "3/26/2022 4:35:30 PM",
    "timestamp": 1648337730000,
    "description": "Aid Response",
    "address": "607 Pine St",
    "active": false,
    "unitCount": 1,
    "severity": 0,
    "lat": 47.612169,
    "long": -122.335294,
    "neighborhood": "First Hill",
    "neighborhoodGroup": "East",
    "units": "E2"
  },
  {
    "id_str": "F220035164",
    "created_at": "3/26/2022 4:22:16 PM",
    "timestamp": 1648336936000,
    "description": "Aid Response",
    "address": "5270 Rainier Ave S",
    "active": false,
    "unitCount": 2,
    "severity": 0,
    "lat": 47.554937,
    "long": -122.282393,
    "neighborhood": "Columbia City",
    "neighborhoodGroup": "Southeast",
    "units": "E28 L12"
  },
  {
    "id_str": "F220035163",
    "created_at": "3/26/2022 4:19:45 PM",
    "timestamp": 1648336785000,
    "description": "Medic Response",
    "address": "5625 22nd Ave Nw",
    "active": false,
    "unitCount": 2,
    "severity": 0,
    "lat": 47.669633,
    "long": -122.384743,
    "neighborhood": "Ballard",
    "neighborhoodGroup": "Ballard",
    "units": "E35 M17"
  },
  {
    "id_str": "F220035162",
    "created_at": "3/26/2022 4:15:00 PM",
    "timestamp": 1648336500000,
    "description": "Aid Response",
    "address": "3rd Ave / Union St",
    "active": false,
    "unitCount": 1,
    "severity": 0,
    "lat": 47.608756,
    "long": -122.336885,
    "neighborhood": "Downtown Commercial Core",
    "neighborhoodGroup": "Downtown",
    "units": "E5"
  },
  {
    "id_str": "F220035160",
    "created_at": "3/26/2022 4:10:21 PM",
    "timestamp": 1648336221000,
    "description": "Aid Response",
    "address": "Nw Market St / 22nd Ave Nw",
    "active": false,
    "unitCount": 2,
    "severity": 0,
    "lat": 47.668678,
    "long": -122.384746,
    "neighborhood": "Ballard",
    "neighborhoodGroup": "Ballard",
    "units": "L8 M17"
  },
  {
    "id_str": "F220035159",
    "created_at": "3/26/2022 4:07:11 PM",
    "timestamp": 1648336031000,
    "description": "1RED 1 Unit",
    "address": "800 Jefferson St",
    "active": false,
    "unitCount": 1,
    "severity": 0,
    "lat": 47.604377,
    "long": -122.325207,
    "neighborhood": "First Hill",
    "neighborhoodGroup": "East",
    "units": "E10"
  },
  {
    "id_str": "F220035158",
    "created_at": "3/26/2022 4:03:43 PM",
    "timestamp": 1648335823000,
    "description": "Aid Response",
    "address": "6720 East Green Lake Way N",
    "active": false,
    "unitCount": 1,
    "severity": 0,
    "lat": 47.67834,
    "long": -122.32895,
    "neighborhood": "Green Lake",
    "neighborhoodGroup": "Northwest",
    "units": "A31"
  },
  {
    "id_str": "F220035157",
    "created_at": "3/26/2022 3:59:15 PM",
    "timestamp": 1648335555000,
    "description": "MVI Freeway",
    "address": "Nb I5 To Columbian",
    "active": false,
    "unitCount": 4,
    "severity": 0,
    "lat": 47.569155,
    "long": -122.319826,
    "neighborhood": "Duwamish/SODO",
    "neighborhoodGroup": "Greater Duwamish",
    "units": "A26 E13 E27 E28"
  },
  {
    "id_str": "F220035156",
    "created_at": "3/26/2022 3:49:19 PM",
    "timestamp": 1648334959000,
    "description": "Medic Response",
    "address": "10053 30th Ave Sw",
    "active": false,
    "unitCount": 2,
    "severity": 0,
    "lat": 47.512276,
    "long": -122.371018,
    "units": "E37 M32"
  },
  {
    "id_str": "F220035155",
    "created_at": "3/26/2022 3:47:11 PM",
    "timestamp": 1648334831000,
    "description": "Medic Response",
    "address": "1509 M L King Jr Way",
    "active": false,
    "unitCount": 2,
    "severity": 0,
    "lat": 47.614214,
    "long": -122.296181,
    "neighborhood": "Central Area/Squire Park",
    "neighborhoodGroup": "Central",
    "units": "E34 M1"
  },
  {
    "id_str": "F220035154",
    "created_at": "3/26/2022 3:39:17 PM",
    "timestamp": 1648334357000,
    "description": "MVI - Motor Vehicle Incident",
    "address": "Nb I5 At Holgate",
    "active": false,
    "unitCount": 3,
    "severity": 0,
    "lat": 47.57679,
    "long": -122.319476,
    "neighborhood": "Duwamish/SODO",
    "neighborhoodGroup": "Greater Duwamish",
    "units": "A14 E13 E30"
  },
  {
    "id_str": "F220035153",
    "created_at": "3/26/2022 3:32:08 PM",
    "timestamp": 1648333928000,
    "description": "Aid Response",
    "address": "4th Ave S / S Michigan St",
    "active": false,
    "unitCount": 1,
    "severity": 0,
    "lat": 47.545337,
    "long": -122.329588,
    "neighborhood": "Georgetown",
    "neighborhoodGroup": "Greater Duwamish",
    "units": "E27"
  },
  {
    "id_str": "F220035150",
    "created_at": "3/26/2022 3:26:59 PM",
    "timestamp": 1648333619000,
    "description": "Scenes Of Violence 7",
    "address": "2307 1ST AVE",
    "active": false,
    "unitCount": 5,
    "severity": 1,
    "lat": 47.614118,
    "long": -122.345787,
    "neighborhood": "Belltown",
    "neighborhoodGroup": "Downtown",
    "units": "B2 E2 L4 M1 M44"
  },
  {
    "id_str": "F220035151",
    "created_at": "3/26/2022 3:26:50 PM",
    "timestamp": 1648333610000,
    "description": "Medic Response",
    "address": "800 Occidental Ave S",
    "active": false,
    "unitCount": 3,
    "severity": 0,
    "lat": 47.595692,
    "long": -122.333273,
    "neighborhood": "Duwamish/SODO",
    "neighborhoodGroup": "Greater Duwamish",
    "units": "A10 E10 M10"
  },
  {
    "id_str": "F220035148",
    "created_at": "3/26/2022 3:22:33 PM",
    "timestamp": 1648333353000,
    "description": "Aid Response",
    "address": "525 14th Ave E",
    "active": false,
    "unitCount": 1,
    "severity": 0,
    "lat": 47.623391,
    "long": -122.314649,
    "neighborhood": "Capitol Hill",
    "neighborhoodGroup": "East",
    "units": "A25"
  },
  {
    "id_str": "F220035146",
    "created_at": "3/26/2022 3:20:38 PM",
    "timestamp": 1648333238000,
    "description": "Aid Response",
    "address": "12354 LAKE CITY WAY NE",
    "active": false,
    "unitCount": 1,
    "severity": 0,
    "lat": 47.718864,
    "long": -122.295479,
    "neighborhood": "Olympic Hills/Victory Heights",
    "neighborhoodGroup": "North",
    "units": "E39"
  },
  {
    "id_str": "F220035144",
    "created_at": "3/26/2022 3:14:59 PM",
    "timestamp": 1648332899000,
    "description": "Aid Response",
    "address": "404 Terry Ave",
    "active": false,
    "unitCount": 1,
    "severity": 0,
    "lat": 47.604613,
    "long": -122.322357,
    "neighborhood": "First Hill",
    "neighborhoodGroup": "East",
    "units": "L1"
  },
  {
    "id_str": "F220035142",
    "created_at": "3/26/2022 3:13:51 PM",
    "timestamp": 1648332831000,
    "description": "Aid Response",
    "address": "6238 3rd Ave Nw",
    "active": false,
    "unitCount": 1,
    "severity": 0,
    "lat": 47.674432,
    "long": -122.360778,
    "neighborhood": "Greenwood/Phinney Ridge",
    "neighborhoodGroup": "Northwest",
    "units": "L8"
  },
  {
    "id_str": "F220035143",
    "created_at": "3/26/2022 3:13:47 PM",
    "timestamp": 1648332827000,
    "description": "Aid Response",
    "address": "524 N 103rd St",
    "active": false,
    "unitCount": 1,
    "severity": 0,
    "lat": 47.703627,
    "long": -122.352245,
    "neighborhood": "Greenwood/Phinney Ridge",
    "neighborhoodGroup": "Northwest",
    "units": "E31"
  },
  {
    "id_str": "F220035141",
    "created_at": "3/26/2022 3:09:28 PM",
    "timestamp": 1648332568000,
    "description": "Aid Response",
    "address": "28 S Brandon St",
    "active": false,
    "unitCount": 1,
    "severity": 0,
    "lat": 47.55418,
    "long": -122.336692,
    "neighborhood": "Georgetown",
    "neighborhoodGroup": "Greater Duwamish",
    "units": "E27"
  },
  {
    "id_str": "F220035140",
    "created_at": "3/26/2022 3:05:58 PM",
    "timestamp": 1648332358000,
    "description": "Aid Response",
    "address": "505 5th Ave S",
    "active": false,
    "unitCount": 1,
    "severity": 0,
    "lat": 47.598313,
    "long": -122.327671,
    "neighborhood": "Pioneer Square/International District",
    "neighborhoodGroup": "Downtown",
    "units": "E10"
  },
  {
    "id_str": "F220035139",
    "created_at": "3/26/2022 2:59:45 PM",
    "timestamp": 1648331985000,
    "description": "Rescue Elevator",
    "address": "2101 9th Ave",
    "active": false,
    "unitCount": 1,
    "severity": 0,
    "lat": 47.617154,
    "long": -122.337036,
    "neighborhood": "Cascade/Eastlake",
    "neighborhoodGroup": "Lake Union",
    "units": "L4"
  },
  {
    "id_str": "F220035137",
    "created_at": "3/26/2022 2:47:53 PM",
    "timestamp": 1648331273000,
    "description": "Aid Response",
    "address": "915 Cherry St",
    "active": false,
    "unitCount": 1,
    "severity": 0,
    "lat": 47.60634,
    "long": -122.325233,
    "neighborhood": "First Hill",
    "neighborhoodGroup": "East",
    "units": "A10"
  },
  {
    "id_str": "F220035135",
    "created_at": "3/26/2022 2:44:27 PM",
    "timestamp": 1648331067000,
    "description": "Aid Response",
    "address": "350 Terry Ave N",
    "active": false,
    "unitCount": 2,
    "severity": 0,
    "lat": 47.621453,
    "long": -122.337156,
    "neighborhood": "Cascade/Eastlake",
    "neighborhoodGroup": "Lake Union",
    "units": "A2 E2"
  },
  {
    "id_str": "F220035136",
    "created_at": "3/26/2022 2:42:12 PM",
    "timestamp": 1648330932000,
    "description": "Aid Response",
    "address": "6900 37th Ave S",
    "active": false,
    "unitCount": 2,
    "severity": 0,
    "lat": 47.540654,
    "long": -122.286239,
    "neighborhood": "South Beacon Hill/NewHolly",
    "neighborhoodGroup": "Greater Duwamish",
    "units": "E28 E30"
  },
  {
    "id_str": "F220035134",
    "created_at": "3/26/2022 2:39:40 PM",
    "timestamp": 1648330780000,
    "description": "Auto Fire Alarm",
    "address": "5825 16th Ave Ne",
    "active": false,
    "unitCount": 2,
    "severity": 0,
    "lat": 47.671744,
    "long": -122.310769,
    "neighborhood": "University District",
    "neighborhoodGroup": "Northeast",
    "units": "E17 L9"
  },
  {
    "id_str": "F220035133",
    "created_at": "3/26/2022 2:39:15 PM",
    "timestamp": 1648330755000,
    "description": "Medic Response",
    "address": "717 N 73rd St",
    "active": false,
    "unitCount": 2,
    "severity": 0,
    "lat": 47.681803,
    "long": -122.34959,
    "neighborhood": "Greenwood/Phinney Ridge",
    "neighborhoodGroup": "Northwest",
    "units": "E21 M17"
  },
  {
    "id_str": "F220035132",
    "created_at": "3/26/2022 2:36:31 PM",
    "timestamp": 1648330591000,
    "description": "Rescue Elevator",
    "address": "131 10th Ave E",
    "active": false,
    "unitCount": 1,
    "severity": 0,
    "lat": 47.619107,
    "long": -122.319527,
    "neighborhood": "Capitol Hill",
    "neighborhoodGroup": "East",
    "units": "L10"
  },
  {
    "id_str": "F220035131",
    "created_at": "3/26/2022 2:34:27 PM",
    "timestamp": 1648330467000,
    "description": "Low Acuity Response",
    "address": "5110 Columbia Dr S",
    "active": false,
    "unitCount": 1,
    "severity": 0,
    "lat": 47.556504,
    "long": -122.30579,
    "neighborhood": "Beacon Hill",
    "neighborhoodGroup": "Greater Duwamish",
    "units": "E13"
  },
  {
    "id_str": "F220035130",
    "created_at": "3/26/2022 2:33:35 PM",
    "timestamp": 1648330415000,
    "description": "Aid Response",
    "address": "S Orcas St / Corson Ave S",
    "active": false,
    "unitCount": 1,
    "severity": 0,
    "lat": 47.549557,
    "long": -122.32081,
    "neighborhood": "Georgetown",
    "neighborhoodGroup": "Greater Duwamish",
    "units": "E27"
  },
  {
    "id_str": "F220035129",
    "created_at": "3/26/2022 2:30:47 PM",
    "timestamp": 1648330247000,
    "description": "Aid Response",
    "address": "N 125th St / Stone Ave N",
    "active": false,
    "unitCount": 1,
    "severity": 0,
    "lat": 47.719572,
    "long": -122.342248,
    "neighborhood": "Haller Lake",
    "neighborhoodGroup": "Northwest",
    "units": "E24"
  },
  {
    "id_str": "F220035128",
    "created_at": "3/26/2022 2:26:56 PM",
    "timestamp": 1648330016000,
    "description": "Aid Response",
    "address": "4333 Palatine Ave N",
    "active": false,
    "unitCount": 1,
    "severity": 0,
    "lat": 47.659846,
    "long": -122.356107,
    "neighborhood": "Fremont",
    "neighborhoodGroup": "Lake Union",
    "units": "E9"
  },
  {
    "id_str": "F220035127",
    "created_at": "3/26/2022 2:23:43 PM",
    "timestamp": 1648329823000,
    "description": "1RED 1 Unit",
    "address": "5503 M L King Jr Way S",
    "active": false,
    "unitCount": 2,
    "severity": 0,
    "lat": 47.552509,
    "long": -122.288761,
    "neighborhood": "Beacon Hill",
    "neighborhoodGroup": "Greater Duwamish",
    "units": "B5 E30"
  },
  {
    "id_str": "F220035125",
    "created_at": "3/26/2022 2:21:17 PM",
    "timestamp": 1648329677000,
    "description": "Medic Response",
    "address": "4th Ave S / S Jackson St",
    "active": false,
    "unitCount": 3,
    "severity": 0,
    "lat": 47.599197,
    "long": -122.328968,
    "neighborhood": "Pioneer Square/International District",
    "neighborhoodGroup": "Downtown",
    "units": "A10 M1 M32"
  },
  {
    "id_str": "F220035124",
    "created_at": "3/26/2022 2:20:18 PM",
    "timestamp": 1648329618000,
    "description": "Auto Fire Alarm",
    "address": "1300 1st Ave",
    "active": false,
    "unitCount": 2,
    "severity": 0,
    "lat": 47.606835,
    "long": -122.338197,
    "neighborhood": "Downtown Commercial Core",
    "neighborhoodGroup": "Downtown",
    "units": "E5 L4"
  },
  {
    "id_str": "F220035123",
    "created_at": "3/26/2022 2:19:41 PM",
    "timestamp": 1648329581000,
    "description": "Medic Response",
    "address": "9837 43rd Pl Ne",
    "active": false,
    "unitCount": 2,
    "severity": 0,
    "lat": 47.700166,
    "long": -122.281853,
    "neighborhood": "Wedgwood/View Ridge",
    "neighborhoodGroup": "Northeast",
    "units": "E40 M31"
  },
  {
    "id_str": "F220035121",
    "created_at": "3/26/2022 2:18:39 PM",
    "timestamp": 1648329519000,
    "description": "Medic Response",
    "address": "9632 Mary Ave Nw",
    "active": false,
    "unitCount": 3,
    "severity": 0,
    "lat": 47.69885,
    "long": -122.375446,
    "neighborhood": "North Beach/Blue Ridge",
    "neighborhoodGroup": "Ballard",
    "units": "E35 M1 M17"
  },
  {
    "id_str": "F220035120",
    "created_at": "3/26/2022 2:17:38 PM",
    "timestamp": 1648329458000,
    "description": "Medic Response",
    "address": "4507 Brooklyn Ave Ne",
    "active": false,
    "unitCount": 2,
    "severity": 0,
    "lat": 47.661332,
    "long": -122.314285,
    "neighborhood": "University District",
    "neighborhoodGroup": "Northeast",
    "units": "E17 M17"
  },
  {
    "id_str": "F220035119",
    "created_at": "3/26/2022 2:14:33 PM",
    "timestamp": 1648329273000,
    "description": "Aid Response",
    "address": "6th Ave / Bell St",
    "active": false,
    "unitCount": 1,
    "severity": 0,
    "lat": 47.616698,
    "long": -122.342214,
    "neighborhood": "Cascade/Eastlake",
    "neighborhoodGroup": "Lake Union",
    "units": "A2"
  },
  {
    "id_str": "F220035118",
    "created_at": "3/26/2022 2:13:35 PM",
    "timestamp": 1648329215000,
    "description": "Aid Response",
    "address": "5351 S Wallace St",
    "active": false,
    "unitCount": 1,
    "severity": 0,
    "lat": 47.497468,
    "long": -122.266889,
    "neighborhood": "Rainier Beach",
    "neighborhoodGroup": "Southeast",
    "units": "E33"
  },
  {
    "id_str": "F220035116",
    "created_at": "3/26/2022 2:11:49 PM",
    "timestamp": 1648329109000,
    "description": "Rescue Elevator",
    "address": "114 James St",
    "active": false,
    "unitCount": 1,
    "severity": 0,
    "lat": 47.601806,
    "long": -122.333703,
    "neighborhood": "Downtown Commercial Core",
    "neighborhoodGroup": "Downtown",
    "units": "L1"
  },
  {
    "id_str": "F220035114",
    "created_at": "3/26/2022 2:10:00 PM",
    "timestamp": 1648329000000,
    "description": "Aid Response",
    "address": "13730 Lake City Way Ne",
    "active": false,
    "unitCount": 1,
    "severity": 0,
    "lat": 47.728466,
    "long": -122.292256,
    "neighborhood": "Cedar Park/Meadowbrook",
    "neighborhoodGroup": "North",
    "units": "E39"
  },
  {
    "id_str": "F220035111",
    "created_at": "3/26/2022 1:59:36 PM",
    "timestamp": 1648328376000,
    "description": "Aid Response",
    "address": "100 Crockett St",
    "active": false,
    "unitCount": 1,
    "severity": 0,
    "lat": 47.637416,
    "long": -122.355598,
    "neighborhood": "Queen Anne",
    "neighborhoodGroup": "Magnolia/Queen Anne",
    "units": "E8"
  },
  {
    "id_str": "F220035110",
    "created_at": "3/26/2022 1:53:34 PM",
    "timestamp": 1648328014000,
    "description": "Aid Response",
    "address": "9837 43RD PL NE",
    "active": false,
    "unitCount": 1,
    "severity": 0,
    "lat": 47.700127,
    "long": -122.281785,
    "neighborhood": "Wedgwood/View Ridge",
    "neighborhoodGroup": "Northeast",
    "units": "E40"
  },
  {
    "id_str": "F220035109",
    "created_at": "3/26/2022 1:52:58 PM",
    "timestamp": 1648327978000,
    "description": "Aid Response",
    "address": "1705 Belmont Ave",
    "active": false,
    "unitCount": 1,
    "severity": 0,
    "lat": 47.616405,
    "long": -122.324488,
    "neighborhood": "Capitol Hill",
    "neighborhoodGroup": "East",
    "units": "E25"
  },
  {
    "id_str": "F220035108",
    "created_at": "3/26/2022 1:50:54 PM",
    "timestamp": 1648327854000,
    "description": "Aid Response",
    "address": "506 10th Ave E",
    "active": false,
    "unitCount": 1,
    "severity": 0,
    "lat": 47.623183,
    "long": -122.319906,
    "neighborhood": "Capitol Hill",
    "neighborhoodGroup": "East",
    "units": "A25"
  },
  {
    "id_str": "F220035105",
    "created_at": "3/26/2022 1:13:35 PM",
    "timestamp": 1648325615000,
    "description": "Illegal Burn",
    "address": "8th Ave S / S Jackson St",
    "active": false,
    "unitCount": 1,
    "severity": 0,
    "lat": 47.599186,
    "long": -122.322445,
    "neighborhood": "Pioneer Square/International District",
    "neighborhoodGroup": "Downtown",
    "units": "E10"
  },
  {
    "id_str": "F220035106",
    "created_at": "3/26/2022 1:13:17 PM",
    "timestamp": 1648325597000,
    "description": "Rubbish Fire",
    "address": "310 Harvard Ave E",
    "active": false,
    "unitCount": 1,
    "severity": 0,
    "lat": 47.621152,
    "long": -122.322181,
    "neighborhood": "Capitol Hill",
    "neighborhoodGroup": "East",
    "units": "E25"
  },
  {
    "id_str": "F220035104",
    "created_at": "3/26/2022 1:11:26 PM",
    "timestamp": 1648325486000,
    "description": "Aid Response",
    "address": "8239 Corliss Ave N",
    "active": false,
    "unitCount": 1,
    "severity": 0,
    "lat": 47.688873,
    "long": -122.331042,
    "neighborhood": "Green Lake",
    "neighborhoodGroup": "Northwest",
    "units": "A31"
  },
  {
    "id_str": "F220035102",
    "created_at": "3/26/2022 1:07:34 PM",
    "timestamp": 1648325254000,
    "description": "Auto Fire Alarm",
    "address": "2970 Sw Avalon Way",
    "active": false,
    "unitCount": 2,
    "severity": 0,
    "lat": 47.568791,
    "long": -122.37075,
    "neighborhood": "North Delridge",
    "neighborhoodGroup": "Delridge Neighborhoods",
    "units": "E36 L11"
  },
  {
    "id_str": "F220035101",
    "created_at": "3/26/2022 1:07:20 PM",
    "timestamp": 1648325240000,
    "description": "Aid Response",
    "address": "3002 Ne 57th St",
    "active": false,
    "unitCount": 1,
    "severity": 0,
    "lat": 47.670327,
    "long": -122.295036,
    "neighborhood": "Ravenna/Bryant",
    "neighborhoodGroup": "Northeast",
    "units": "E17"
  },
  {
    "id_str": "F220035098",
    "created_at": "3/26/2022 12:59:16 PM",
    "timestamp": 1648324756000,
    "description": "Aid Response",
    "address": "111 Cedar St",
    "active": false,
    "unitCount": 1,
    "severity": 0,
    "lat": 47.615877,
    "long": -122.35052,
    "neighborhood": "Belltown",
    "neighborhoodGroup": "Downtown",
    "units": "A2"
  },
  {
    "id_str": "F220035097",
    "created_at": "3/26/2022 12:57:21 PM",
    "timestamp": 1648324641000,
    "description": "Low Acuity Response",
    "address": "424 Minor Ave N",
    "active": false,
    "unitCount": 1,
    "severity": 0,
    "lat": 47.622242,
    "long": -122.332995,
    "neighborhood": "Cascade/Eastlake",
    "neighborhoodGroup": "Lake Union",
    "units": "A25"
  },
  {
    "id_str": "F220035096",
    "created_at": "3/26/2022 12:55:42 PM",
    "timestamp": 1648324542000,
    "description": "Aid Response",
    "address": "411 N 90th St",
    "active": false,
    "unitCount": 1,
    "severity": 0,
    "lat": 47.694213,
    "long": -122.35382,
    "neighborhood": "Greenwood/Phinney Ridge",
    "neighborhoodGroup": "Northwest",
    "units": "E21"
  },
  {
    "id_str": "F220035094",
    "created_at": "3/26/2022 12:53:36 PM",
    "timestamp": 1648324416000,
    "description": "Rubbish Fire",
    "address": "700 S CLOVERDALE ST",
    "active": false,
    "unitCount": 1,
    "severity": 0,
    "lat": 47.526473,
    "long": -122.325587,
    "neighborhood": "South Park",
    "neighborhoodGroup": "Greater Duwamish",
    "units": "E27"
  },
  {
    "id_str": "F220035093",
    "created_at": "3/26/2022 12:52:51 PM",
    "timestamp": 1648324371000,
    "description": "Medic Response",
    "address": "3512 S Juneau St",
    "active": false,
    "unitCount": 2,
    "severity": 0,
    "lat": 47.549772,
    "long": -122.288795,
    "neighborhood": "Beacon Hill",
    "neighborhoodGroup": "Greater Duwamish",
    "units": "E30 M10"
  },
  {
    "id_str": "F220035092",
    "created_at": "3/26/2022 12:49:38 PM",
    "timestamp": 1648324178000,
    "description": "Aid Response",
    "address": "31ST AVE SW / SW BARTON ST",
    "active": false,
    "unitCount": 1,
    "severity": 0,
    "lat": 47.52107,
    "long": -122.376761,
    "neighborhood": "Roxhill/Westwood",
    "neighborhoodGroup": "Delridge Neighborhoods",
    "units": "E37"
  },
  {
    "id_str": "F220035091",
    "created_at": "3/26/2022 12:49:07 PM",
    "timestamp": 1648324147000,
    "description": "Medic Response, 7 per Rule",
    "address": "4220 S Othello St",
    "active": false,
    "unitCount": 5,
    "severity": 1,
    "lat": 47.53705,
    "long": -122.280459,
    "neighborhood": "Columbia City",
    "neighborhoodGroup": "Southeast",
    "units": "CHAP5 E28 E33 L12 M28"
  },
  {
    "id_str": "F220035090",
    "created_at": "3/26/2022 12:47:46 PM",
    "timestamp": 1648324066000,
    "description": "Low Acuity Response",
    "address": "1911 22nd Ave S",
    "active": false,
    "unitCount": 1,
    "severity": 0,
    "lat": 47.586234,
    "long": -122.304237,
    "neighborhood": "North Beacon Hill/Jefferson Park",
    "neighborhoodGroup": "Greater Duwamish",
    "units": "L3"
  },
  {
    "id_str": "F220035086",
    "created_at": "3/26/2022 12:35:38 PM",
    "timestamp": 1648323338000,
    "description": "Brush Fire",
    "address": "12th Ave Sw / Sw Myrtle St",
    "active": false,
    "unitCount": 1,
    "severity": 0,
    "lat": 47.53909,
    "long": -122.350411,
    "neighborhood": "Riverview",
    "neighborhoodGroup": "Delridge Neighborhoods",
    "units": "E11"
  },
  {
    "id_str": "F220035085",
    "created_at": "3/26/2022 12:24:13 PM",
    "timestamp": 1648322653000,
    "description": "Auto Fire Alarm",
    "address": "800 Jefferson St",
    "active": false,
    "unitCount": 2,
    "severity": 0,
    "lat": 47.604377,
    "long": -122.325207,
    "neighborhood": "First Hill",
    "neighborhoodGroup": "East",
    "units": "E5 L10"
  },
  {
    "id_str": "F220035084",
    "created_at": "3/26/2022 12:19:23 PM",
    "timestamp": 1648322363000,
    "description": "Aid Response",
    "address": "E Roy St / Harvard Ave E",
    "active": false,
    "unitCount": 1,
    "severity": 0,
    "lat": 47.625117,
    "long": -122.321976,
    "neighborhood": "North Capitol Hill",
    "neighborhoodGroup": "East",
    "units": "A25"
  },
  {
    "id_str": "F220035083",
    "created_at": "3/26/2022 12:12:46 PM",
    "timestamp": 1648321966000,
    "description": "Aid Response",
    "address": "Meridian Ave N / N 92nd St",
    "active": false,
    "unitCount": 1,
    "severity": 0,
    "lat": 47.695947,
    "long": -122.333804,
    "neighborhood": "Northgate/Maple Leaf",
    "neighborhoodGroup": "North",
    "units": "E31"
  },
  {
    "id_str": "F220035081",
    "created_at": "3/26/2022 12:10:11 PM",
    "timestamp": 1648321811000,
    "description": "Low Acuity Response",
    "address": "4611 35th Ave Sw",
    "active": false,
    "unitCount": 1,
    "severity": 0,
    "lat": 47.561926,
    "long": -122.376204,
    "neighborhood": "North Delridge",
    "neighborhoodGroup": "Delridge Neighborhoods",
    "units": "L11"
  },
  {
    "id_str": "F220035080",
    "created_at": "3/26/2022 12:06:46 PM",
    "timestamp": 1648321606000,
    "description": "Aid Response",
    "address": "400 Pine St",
    "active": false,
    "unitCount": 2,
    "severity": 0,
    "lat": 47.611207,
    "long": -122.337592,
    "neighborhood": "Downtown Commercial Core",
    "neighborhoodGroup": "Downtown",
    "units": "A10 L4"
  },
  {
    "id_str": "F220035079",
    "created_at": "3/26/2022 12:04:07 PM",
    "timestamp": 1648321447000,
    "description": "Rescue Standby",
    "address": "75 Vine St",
    "active": false,
    "unitCount": 6,
    "severity": 1,
    "lat": 47.614557,
    "long": -122.350578,
    "neighborhood": "Belltown",
    "neighborhoodGroup": "Downtown",
    "units": "A14 B2 B4 E2 M1 R1"
  },
  {
    "id_str": "F220035078",
    "created_at": "3/26/2022 12:02:57 PM",
    "timestamp": 1648321377000,
    "description": "Aid Response",
    "address": "5210 35th Ave Ne",
    "active": false,
    "unitCount": 1,
    "severity": 0,
    "lat": 47.666745,
    "long": -122.290179,
    "neighborhood": "Ravenna/Bryant",
    "neighborhoodGroup": "Northeast",
    "units": "E38"
  },
  {
    "id_str": "F220035074",
    "created_at": "3/26/2022 11:56:18 AM",
    "timestamp": 1648320978000,
    "description": "Aid Response",
    "address": "118 Bell St",
    "active": false,
    "unitCount": 1,
    "severity": 0,
    "lat": 47.613497,
    "long": -122.346355,
    "neighborhood": "Belltown",
    "neighborhoodGroup": "Downtown",
    "units": "A2"
  },
  {
    "id_str": "F220035073",
    "created_at": "3/26/2022 11:40:40 AM",
    "timestamp": 1648320040000,
    "description": "Low Acuity Response",
    "address": "2401 Ne Blakeley St",
    "active": false,
    "unitCount": 1,
    "severity": 0,
    "lat": 47.665845,
    "long": -122.301932,
    "neighborhood": "Ravenna/Bryant",
    "neighborhoodGroup": "Northeast",
    "units": "E38"
  },
  {
    "id_str": "F220035072",
    "created_at": "3/26/2022 11:37:10 AM",
    "timestamp": 1648319830000,
    "description": "Aid Response",
    "address": "3621 33rd Ave S",
    "active": false,
    "unitCount": 1,
    "severity": 0,
    "lat": 47.571408,
    "long": -122.291001,
    "neighborhood": "Columbia City",
    "neighborhoodGroup": "Southeast",
    "units": "E30"
  },
  {
    "id_str": "F220035071",
    "created_at": "3/26/2022 11:24:39 AM",
    "timestamp": 1648319079000,
    "description": "Aid Response",
    "address": "910 Marion St",
    "active": false,
    "unitCount": 1,
    "severity": 0,
    "lat": 47.607742,
    "long": -122.326595,
    "neighborhood": "First Hill",
    "neighborhoodGroup": "East",
    "units": "A10"
  },
  {
    "id_str": "F220035070",
    "created_at": "3/26/2022 11:16:22 AM",
    "timestamp": 1648318582000,
    "description": "Aid Response",
    "address": "Airport Way S / S Holgate St",
    "active": false,
    "unitCount": 1,
    "severity": 0,
    "lat": 47.585854,
    "long": -122.321393,
    "neighborhood": "Duwamish/SODO",
    "neighborhoodGroup": "Greater Duwamish",
    "units": "A14"
  },
  {
    "id_str": "F220035067",
    "created_at": "3/26/2022 11:02:40 AM",
    "timestamp": 1648317760000,
    "description": "Low Acuity Response",
    "address": "1501 17th Ave",
    "active": false,
    "unitCount": 1,
    "severity": 0,
    "lat": 47.614106,
    "long": -122.310161,
    "neighborhood": "Central Area/Squire Park",
    "neighborhoodGroup": "Central",
    "units": "A25"
  },
  {
    "id_str": "F220035065",
    "created_at": "3/26/2022 10:56:26 AM",
    "timestamp": 1648317386000,
    "description": "Automatic Fire Alarm Resd",
    "address": "4000 14th Ave S",
    "active": false,
    "unitCount": 1,
    "severity": 0,
    "lat": 47.568154,
    "long": -122.314707,
    "neighborhood": "North Beacon Hill/Jefferson Park",
    "neighborhoodGroup": "Greater Duwamish",
    "units": "E13"
  },
  {
    "id_str": "F220035063",
    "created_at": "3/26/2022 10:41:44 AM",
    "timestamp": 1648316504000,
    "description": "Illegal Burn",
    "address": "Phinney Ave N / N 58th St",
    "active": false,
    "unitCount": 1,
    "severity": 0,
    "lat": 47.671151,
    "long": -122.35439,
    "neighborhood": "Greenwood/Phinney Ridge",
    "neighborhoodGroup": "Northwest",
    "units": "E21"
  },
  {
    "id_str": "F220035061",
    "created_at": "3/26/2022 10:36:46 AM",
    "timestamp": 1648316206000,
    "description": "Aid Response",
    "address": "8511 15th Ave Ne",
    "active": false,
    "unitCount": 1,
    "severity": 0,
    "lat": 47.690434,
    "long": -122.31223,
    "neighborhood": "Northgate/Maple Leaf",
    "neighborhoodGroup": "North",
    "units": "A31"
  },
  {
    "id_str": "F220035060",
    "created_at": "3/26/2022 10:33:13 AM",
    "timestamp": 1648315993000,
    "description": "Aid Response",
    "address": "515 27th Ave",
    "active": false,
    "unitCount": 1,
    "severity": 0,
    "lat": 47.606302,
    "long": -122.297842,
    "neighborhood": "Central Area/Squire Park",
    "neighborhoodGroup": "Central",
    "units": "L3"
  },
  {
    "id_str": "F220035059",
    "created_at": "3/26/2022 10:28:21 AM",
    "timestamp": 1648315701000,
    "description": "Medic Response",
    "address": "5033 47th Ave Sw",
    "active": false,
    "unitCount": 2,
    "severity": 0,
    "lat": 47.557163,
    "long": -122.392269,
    "neighborhood": "West Seattle Junction/Genesee Hill",
    "neighborhoodGroup": "Southwest",
    "units": "L11 M32"
  },
  {
    "id_str": "F220035058",
    "created_at": "3/26/2022 10:27:32 AM",
    "timestamp": 1648315652000,
    "description": "Aid Response",
    "address": "1300 E Pine St",
    "active": false,
    "unitCount": 3,
    "severity": 0,
    "lat": 47.615273,
    "long": -122.315549,
    "neighborhood": "Capitol Hill",
    "neighborhoodGroup": "East",
    "units": "A14 L10 R1"
  },
  {
    "id_str": "F220035057",
    "created_at": "3/26/2022 10:21:41 AM",
    "timestamp": 1648315301000,
    "description": "Aid Response",
    "address": "6502 Shaffer Ave S",
    "active": false,
    "unitCount": 1,
    "severity": 0,
    "lat": 47.544326,
    "long": -122.294742,
    "neighborhood": "South Beacon Hill/NewHolly",
    "neighborhoodGroup": "Greater Duwamish",
    "units": "L12"
  },
  {
    "id_str": "F220035056",
    "created_at": "3/26/2022 10:21:06 AM",
    "timestamp": 1648315266000,
    "description": "Rescue Elevator",
    "address": "612 2nd Ave",
    "active": false,
    "unitCount": 1,
    "severity": 0,
    "lat": 47.602386,
    "long": -122.332592,
    "neighborhood": "Downtown Commercial Core",
    "neighborhoodGroup": "Downtown",
    "units": "L4"
  },
  {
    "id_str": "F220035055",
    "created_at": "3/26/2022 10:20:57 AM",
    "timestamp": 1648315257000,
    "description": "Aid Response",
    "address": "5039 Renton Ave S",
    "active": false,
    "unitCount": 1,
    "severity": 0,
    "lat": 47.556614,
    "long": -122.288275,
    "neighborhood": "Columbia City",
    "neighborhoodGroup": "Southeast",
    "units": "E28"
  },
  {
    "id_str": "F220035054",
    "created_at": "3/26/2022 10:14:08 AM",
    "timestamp": 1648314848000,
    "description": "Aid Response",
    "address": "1901 Western Ave",
    "active": false,
    "unitCount": 1,
    "severity": 0,
    "lat": 47.610056,
    "long": -122.34329,
    "neighborhood": "Downtown Commercial Core",
    "neighborhoodGroup": "Downtown",
    "units": "A2"
  },
  {
    "id_str": "F220035052",
    "created_at": "3/26/2022 10:09:26 AM",
    "timestamp": 1648314566000,
    "description": "Auto Fire Alarm",
    "address": "2601 W Marina Pl",
    "active": false,
    "unitCount": 2,
    "severity": 0,
    "lat": 47.63129,
    "long": -122.390031,
    "neighborhood": "Interbay",
    "neighborhoodGroup": "Magnolia/Queen Anne",
    "units": "E41 L4"
  },
  {
    "id_str": "F220035050",
    "created_at": "3/26/2022 9:59:23 AM",
    "timestamp": 1648313963000,
    "description": "Aid Response",
    "address": "10245 39th Ave Sw",
    "active": false,
    "unitCount": 3,
    "severity": 0,
    "lat": 47.51157,
    "long": -122.381654,
    "neighborhood": "Arbor Heights",
    "neighborhoodGroup": "Southwest",
    "units": "E37 M28 M32"
  },
  {
    "id_str": "F220035048",
    "created_at": "3/26/2022 9:52:17 AM",
    "timestamp": 1648313537000,
    "description": "Low Acuity Response",
    "address": "2102 N 105th St",
    "active": false,
    "unitCount": 1,
    "severity": 0,
    "lat": 47.705036,
    "long": -122.333903,
    "neighborhood": "Northgate/Maple Leaf",
    "neighborhoodGroup": "North",
    "units": "E31"
  },
  {
    "id_str": "F220035047",
    "created_at": "3/26/2022 9:41:20 AM",
    "timestamp": 1648312880000,
    "description": "Rubbish Fire",
    "address": "N 101st St / Aurora Ave N",
    "active": false,
    "unitCount": 1,
    "severity": 0,
    "lat": 47.702154,
    "long": -122.34466,
    "neighborhood": "Licton Springs",
    "neighborhoodGroup": "Northwest",
    "units": "E31"
  },
  {
    "id_str": "F220035046",
    "created_at": "3/26/2022 9:35:55 AM",
    "timestamp": 1648312555000,
    "description": "Aid Response",
    "address": "4639 S Austin St",
    "active": false,
    "unitCount": 1,
    "severity": 0,
    "lat": 47.534702,
    "long": -122.274798,
    "neighborhood": "Columbia City",
    "neighborhoodGroup": "Southeast",
    "units": "E28"
  },
  {
    "id_str": "F220035045",
    "created_at": "3/26/2022 9:32:59 AM",
    "timestamp": 1648312379000,
    "description": "Medic Response",
    "address": "9200 2nd Ave Sw",
    "active": false,
    "unitCount": 2,
    "severity": 0,
    "lat": 47.521244,
    "long": -122.336301,
    "neighborhood": "Highland Park",
    "neighborhoodGroup": "Delridge Neighborhoods",
    "units": "A26 M28"
  },
  {
    "id_str": "F220035044",
    "created_at": "3/26/2022 9:18:34 AM",
    "timestamp": 1648311514000,
    "description": "Scenes Of Violence 7",
    "address": "3833 Aurora Ave N",
    "active": false,
    "unitCount": 5,
    "severity": 1,
    "lat": 47.653683,
    "long": -122.347371,
    "neighborhood": "Fremont",
    "neighborhoodGroup": "Lake Union",
    "units": "B4 E8 E9 M17 M44"
  },
  {
    "id_str": "F220035043",
    "created_at": "3/26/2022 9:13:52 AM",
    "timestamp": 1648311232000,
    "description": "Illegal Burn",
    "address": "2600 Fairmount Ave Sw",
    "active": false,
    "unitCount": 1,
    "severity": 0,
    "lat": 47.580187,
    "long": -122.382258,
    "neighborhood": "West Seattle Junction/Genesee Hill",
    "neighborhoodGroup": "Southwest",
    "units": "E29"
  },
  {
    "id_str": "F220035042",
    "created_at": "3/26/2022 9:13:43 AM",
    "timestamp": 1648311223000,
    "description": "MVI Freeway",
    "address": "EB I90 AT WEST HIGHRISE",
    "active": false,
    "unitCount": 3,
    "severity": 0,
    "lat": 47.59006,
    "long": -122.288593,
    "neighborhood": "Mt. Baker/North Rainier",
    "neighborhoodGroup": "Southeast",
    "units": "A10 E13 E30"
  },
  {
    "id_str": "F220035041",
    "created_at": "3/26/2022 9:12:45 AM",
    "timestamp": 1648311165000,
    "description": "Aid Response Yellow",
    "address": "756 John St",
    "active": false,
    "unitCount": 1,
    "severity": 0,
    "lat": 47.619719,
    "long": -122.342229,
    "neighborhood": "Cascade/Eastlake",
    "neighborhoodGroup": "Lake Union",
    "units": "A2"
  },
  {
    "id_str": "F220035040",
    "created_at": "3/26/2022 9:01:53 AM",
    "timestamp": 1648310513000,
    "description": "Aid Response",
    "address": "2555 10th Ave W",
    "active": false,
    "unitCount": 1,
    "severity": 0,
    "lat": 47.642085,
    "long": -122.370062,
    "neighborhood": "Queen Anne",
    "neighborhoodGroup": "Magnolia/Queen Anne",
    "units": "E20"
  },
  {
    "id_str": "F220035039",
    "created_at": "3/26/2022 9:00:54 AM",
    "timestamp": 1648310454000,
    "description": "Aid Response",
    "address": "9653 Renton Ave S",
    "active": false,
    "unitCount": 1,
    "severity": 0,
    "lat": 47.51567,
    "long": -122.267822,
    "neighborhood": "Rainier Beach",
    "neighborhoodGroup": "Southeast",
    "units": "E33"
  },
  {
    "id_str": "F220035037",
    "created_at": "3/26/2022 8:51:47 AM",
    "timestamp": 1648309907000,
    "description": "TEST - MIS TEST",
    "address": "800 S Cloverdale St",
    "active": false,
    "unitCount": 1,
    "severity": 0,
    "lat": 47.526465,
    "long": -122.322916,
    "neighborhood": "South Park",
    "neighborhoodGroup": "Greater Duwamish",
    "units": "A26"
  },
  {
    "id_str": "F220035036",
    "created_at": "3/26/2022 8:48:54 AM",
    "timestamp": 1648309734000,
    "description": "Encampment Fire",
    "address": "N 137th St / Stone Ave N",
    "active": false,
    "unitCount": 1,
    "severity": 0,
    "lat": 47.728673,
    "long": -122.342333,
    "neighborhood": "Haller Lake",
    "neighborhoodGroup": "Northwest",
    "units": "E24"
  },
  {
    "id_str": "F220035035",
    "created_at": "3/26/2022 8:48:12 AM",
    "timestamp": 1648309692000,
    "description": "Aid Response",
    "address": "5505 5th Ave Ne",
    "active": false,
    "unitCount": 1,
    "severity": 0,
    "lat": 47.668638,
    "long": -122.322843,
    "neighborhood": "Wallingford",
    "neighborhoodGroup": "Lake Union",
    "units": "E17"
  },
  {
    "id_str": "F220035033",
    "created_at": "3/26/2022 8:42:20 AM",
    "timestamp": 1648309340000,
    "description": "Aid Response",
    "address": "Ne 55th St / 45th Ave Ne",
    "active": false,
    "unitCount": 1,
    "severity": 0,
    "lat": 47.669021,
    "long": -122.27946,
    "neighborhood": "Ravenna/Bryant",
    "neighborhoodGroup": "Northeast",
    "units": "E38"
  },
  {
    "id_str": "F220035031",
    "created_at": "3/26/2022 8:40:23 AM",
    "timestamp": 1648309223000,
    "description": "MVI Freeway",
    "address": "Eb I90 At Midspan",
    "active": false,
    "unitCount": 3,
    "severity": 0,
    "lat": 47.589561,
    "long": -122.268347,
    "neighborhood": "Mt. Baker/North Rainier",
    "neighborhoodGroup": "Southeast",
    "units": "A10 E10 E30"
  },
  {
    "id_str": "F220035030",
    "created_at": "3/26/2022 8:38:29 AM",
    "timestamp": 1648309109000,
    "description": "Medic Response",
    "address": "4831 35th Ave Sw",
    "active": false,
    "unitCount": 2,
    "severity": 0,
    "lat": 47.558988,
    "long": -122.376234,
    "neighborhood": "West Seattle Junction/Genesee Hill",
    "neighborhoodGroup": "Southwest",
    "units": "L11 M32"
  },
  {
    "id_str": "F220035028",
    "created_at": "3/26/2022 8:34:40 AM",
    "timestamp": 1648308880000,
    "description": "Scenes Of Violence 7",
    "address": "1717 N Northlake Pl",
    "active": false,
    "unitCount": 5,
    "severity": 1,
    "lat": 47.64587,
    "long": -122.336999,
    "neighborhood": "Fremont",
    "neighborhoodGroup": "Lake Union",
    "units": "A86 B6 E9 M17 M44"
  },
  {
    "id_str": "F220035027",
    "created_at": "3/26/2022 8:31:57 AM",
    "timestamp": 1648308717000,
    "description": "Aid Response",
    "address": "11 W Aloha St",
    "active": false,
    "unitCount": 1,
    "severity": 0,
    "lat": 47.627192,
    "long": -122.356823,
    "neighborhood": "Queen Anne",
    "neighborhoodGroup": "Magnolia/Queen Anne",
    "units": "E8"
  },
  {
    "id_str": "F220035024",
    "created_at": "3/26/2022 8:20:18 AM",
    "timestamp": 1648308018000,
    "description": "Aid Response",
    "address": "155 21st Ave",
    "active": false,
    "unitCount": 1,
    "severity": 0,
    "lat": 47.602742,
    "long": -122.305039,
    "neighborhood": "Central Area/Squire Park",
    "neighborhoodGroup": "Central",
    "units": "L3"
  },
  {
    "id_str": "F220035023",
    "created_at": "3/26/2022 8:16:11 AM",
    "timestamp": 1648307771000,
    "description": "TEST - MIS TEST",
    "address": "105 5th Ave S",
    "active": false,
    "unitCount": 1,
    "severity": 0,
    "lat": 47.601643,
    "long": -122.327656,
    "neighborhood": "Pioneer Square/International District",
    "neighborhoodGroup": "Downtown",
    "units": "FAC"
  },
  {
    "id_str": "F220035021",
    "created_at": "3/26/2022 8:04:48 AM",
    "timestamp": 1648307088000,
    "description": "Aid Response",
    "address": "1431 Minor Ave",
    "active": false,
    "unitCount": 1,
    "severity": 0,
    "lat": 47.613247,
    "long": -122.327187,
    "neighborhood": "Capitol Hill",
    "neighborhoodGroup": "East",
    "units": "E25"
  },
  {
    "id_str": "F220035019",
    "created_at": "3/26/2022 7:59:09 AM",
    "timestamp": 1648306749000,
    "description": "Aid Response",
    "address": "N 44th St / Burke Ave N",
    "active": false,
    "unitCount": 1,
    "severity": 0,
    "lat": 47.660306,
    "long": -122.334998,
    "neighborhood": "Wallingford",
    "neighborhoodGroup": "Lake Union",
    "units": "E9"
  },
  {
    "id_str": "F220035018",
    "created_at": "3/26/2022 7:50:01 AM",
    "timestamp": 1648306201000,
    "description": "Aid Response",
    "address": "3516 S Juneau St",
    "active": false,
    "unitCount": 1,
    "severity": 0,
    "lat": 47.549771,
    "long": -122.288767,
    "neighborhood": "Beacon Hill",
    "neighborhoodGroup": "Greater Duwamish",
    "units": "E28"
  },
  {
    "id_str": "F220035017",
    "created_at": "3/26/2022 7:42:54 AM",
    "timestamp": 1648305774000,
    "description": "Medic Response",
    "address": "12th Ave / E Denny Way",
    "active": false,
    "unitCount": 2,
    "severity": 0,
    "lat": 47.618768,
    "long": -122.31691,
    "neighborhood": "Capitol Hill",
    "neighborhoodGroup": "East",
    "units": "A25 M10"
  },
  {
    "id_str": "F220035016",
    "created_at": "3/26/2022 7:39:40 AM",
    "timestamp": 1648305580000,
    "description": "Alarm Bell",
    "address": "1931 Ne 145th St",
    "active": false,
    "unitCount": 1,
    "severity": 0,
    "lat": 47.733901,
    "long": -122.308268,
    "units": "E39"
  },
  {
    "id_str": "F220035014",
    "created_at": "3/26/2022 7:29:27 AM",
    "timestamp": 1648304967000,
    "description": "Aid Response",
    "address": "2700 4th Ave",
    "active": false,
    "unitCount": 1,
    "severity": 0,
    "lat": 47.617795,
    "long": -122.348039,
    "neighborhood": "Cascade/Eastlake",
    "neighborhoodGroup": "Lake Union",
    "units": "A2"
  },
  {
    "id_str": "F220035009",
    "created_at": "3/26/2022 7:22:56 AM",
    "timestamp": 1648304576000,
    "description": "4RED - 2 + 1 + 1",
    "address": "M L King Jr Way S / S Walker St",
    "active": false,
    "unitCount": 4,
    "severity": 0,
    "lat": 47.583642,
    "long": -122.298145,
    "neighborhood": "Mt. Baker/North Rainier",
    "neighborhoodGroup": "Southeast",
    "units": "B5 E13 E30 L3"
  },
  {
    "id_str": "F220035006",
    "created_at": "3/26/2022 7:17:50 AM",
    "timestamp": 1648304270000,
    "description": "Rubbish Fire",
    "address": "10200 1st Ave Ne",
    "active": false,
    "unitCount": 1,
    "severity": 0,
    "lat": 47.702577,
    "long": -122.328518,
    "neighborhood": "Northgate/Maple Leaf",
    "neighborhoodGroup": "North",
    "units": "E31"
  },
  {
    "id_str": "F220035005",
    "created_at": "3/26/2022 7:14:35 AM",
    "timestamp": 1648304075000,
    "description": "Aid Response",
    "address": "California Ave Sw / Sw Alaska St",
    "active": false,
    "unitCount": 1,
    "severity": 0,
    "lat": 47.561106,
    "long": -122.386778,
    "neighborhood": "West Seattle Junction/Genesee Hill",
    "neighborhoodGroup": "Southwest",
    "units": "E32"
  },
  {
    "id_str": "F220035004",
    "created_at": "3/26/2022 7:13:42 AM",
    "timestamp": 1648304022000,
    "description": "Aid Response",
    "address": "5300 24th Ave Ne",
    "active": false,
    "unitCount": 1,
    "severity": 0,
    "lat": 47.66707,
    "long": -122.301946,
    "neighborhood": "Ravenna/Bryant",
    "neighborhoodGroup": "Northeast",
    "units": "E38"
  },
  {
    "id_str": "F220035003",
    "created_at": "3/26/2022 7:08:15 AM",
    "timestamp": 1648303695000,
    "description": "Aid Response",
    "address": "9455 27TH AVE SW",
    "active": false,
    "unitCount": 1,
    "severity": 0,
    "lat": 47.518178,
    "long": -122.367277,
    "neighborhood": "Roxhill/Westwood",
    "neighborhoodGroup": "Delridge Neighborhoods",
    "units": "E37"
  },
  {
    "id_str": "F220035001",
    "created_at": "3/26/2022 7:01:47 AM",
    "timestamp": 1648303307000,
    "description": "Low Acuity Response",
    "address": "509 3rd Ave",
    "active": false,
    "unitCount": 1,
    "severity": 0,
    "lat": 47.602114,
    "long": -122.330809,
    "neighborhood": "Downtown Commercial Core",
    "neighborhoodGroup": "Downtown",
    "units": "A10"
  },
  {
    "id_str": "F220035000",
    "created_at": "3/26/2022 7:01:39 AM",
    "timestamp": 1648303299000,
    "description": "Auto Fire Alarm",
    "address": "525 14th Ave E",
    "active": false,
    "unitCount": 2,
    "severity": 0,
    "lat": 47.623391,
    "long": -122.314649,
    "neighborhood": "Capitol Hill",
    "neighborhoodGroup": "East",
    "units": "E25 L10"
  },
  {
    "id_str": "F220034999",
    "created_at": "3/26/2022 7:00:18 AM",
    "timestamp": 1648303218000,
    "description": "Medic Response",
    "address": "13023 Greenwood Ave N",
    "active": false,
    "unitCount": 2,
    "severity": 0,
    "lat": 47.723436,
    "long": -122.355547,
    "neighborhood": "Broadview/Bitter Lake",
    "neighborhoodGroup": "Northwest",
    "units": "E24 M31"
  },
  {
    "id_str": "F220034997",
    "created_at": "3/26/2022 6:54:07 AM",
    "timestamp": 1648302847000,
    "description": "Aid Response",
    "address": "10th Ave E / E Miller St",
    "active": false,
    "unitCount": 1,
    "severity": 0,
    "lat": 47.641355,
    "long": -122.320059,
    "neighborhood": "Montlake/Portage Bay",
    "neighborhoodGroup": "Northeast",
    "units": "E22"
  },
  {
    "id_str": "F220034996",
    "created_at": "3/26/2022 6:42:00 AM",
    "timestamp": 1648302120000,
    "description": "MVI - Motor Vehicle Incident",
    "address": "3520 SW ADMIRAL WAY",
    "active": false,
    "unitCount": 1,
    "severity": 0,
    "lat": 47.579146,
    "long": -122.376457,
    "neighborhood": "North Delridge",
    "neighborhoodGroup": "Delridge Neighborhoods",
    "units": "E29"
  },
  {
    "id_str": "F220034995",
    "created_at": "3/26/2022 6:41:30 AM",
    "timestamp": 1648302090000,
    "description": "AFA4 - Auto Alarm 2 + 1 + 1",
    "address": "2319 1st Ave",
    "active": false,
    "unitCount": 2,
    "severity": 0,
    "lat": 47.613516,
    "long": -122.346752,
    "neighborhood": "Belltown",
    "neighborhoodGroup": "Downtown",
    "units": "E2 L4"
  },
  {
    "id_str": "F220034993",
    "created_at": "3/26/2022 6:21:04 AM",
    "timestamp": 1648300864000,
    "description": "Alarm Bell",
    "address": "4142 Brooklyn Ave Ne",
    "active": false,
    "unitCount": 1,
    "severity": 0,
    "lat": 47.657468,
    "long": -122.314386,
    "neighborhood": "University District",
    "neighborhoodGroup": "Northeast",
    "units": "E17"
  },
  {
    "id_str": "F220034992",
    "created_at": "3/26/2022 6:10:06 AM",
    "timestamp": 1648300206000,
    "description": "Car Fire",
    "address": "2930 Sw Avalon Way",
    "active": false,
    "unitCount": 1,
    "severity": 0,
    "lat": 47.570408,
    "long": -122.370672,
    "neighborhood": "North Delridge",
    "neighborhoodGroup": "Delridge Neighborhoods",
    "units": "E32"
  },
  {
    "id_str": "F220034989",
    "created_at": "3/26/2022 5:34:28 AM",
    "timestamp": 1648298068000,
    "description": "Alarm Bell",
    "address": "4142 Brooklyn Ave Ne",
    "active": false,
    "unitCount": 2,
    "severity": 0,
    "lat": 47.657468,
    "long": -122.314386,
    "neighborhood": "University District",
    "neighborhoodGroup": "Northeast",
    "units": "E17 L9"
  },
  {
    "id_str": "F220034986",
    "created_at": "3/26/2022 5:24:30 AM",
    "timestamp": 1648297470000,
    "description": "Aid Response",
    "address": "12039 15th Ave Ne",
    "active": false,
    "unitCount": 1,
    "severity": 0,
    "lat": 47.716021,
    "long": -122.312564,
    "neighborhood": "Olympic Hills/Victory Heights",
    "neighborhoodGroup": "North",
    "units": "E39"
  },
  {
    "id_str": "F220034987",
    "created_at": "3/26/2022 5:24:03 AM",
    "timestamp": 1648297443000,
    "description": "Auto Fire Alarm",
    "address": "2209 1st Ave",
    "active": false,
    "unitCount": 2,
    "severity": 0,
    "lat": 47.612669,
    "long": -122.345319,
    "neighborhood": "Belltown",
    "neighborhoodGroup": "Downtown",
    "units": "E20 L8"
  },
  {
    "id_str": "F220034984",
    "created_at": "3/26/2022 5:21:52 AM",
    "timestamp": 1648297312000,
    "description": "Auto Fire Alarm",
    "address": "2201 1st Ave",
    "active": false,
    "unitCount": 2,
    "severity": 0,
    "lat": 47.612606,
    "long": -122.345213,
    "neighborhood": "Belltown",
    "neighborhoodGroup": "Downtown",
    "units": "E6 L9"
  },
  {
    "id_str": "F220034983",
    "created_at": "3/26/2022 5:14:41 AM",
    "timestamp": 1648296881000,
    "description": "Auto Fire Alarm",
    "address": "1900 5th Ave",
    "active": false,
    "unitCount": 2,
    "severity": 0,
    "lat": 47.612958,
    "long": -122.337873,
    "neighborhood": "Cascade/Eastlake",
    "neighborhoodGroup": "Lake Union",
    "units": "E40 L1"
  },
  {
    "id_str": "F220034982",
    "created_at": "3/26/2022 5:11:43 AM",
    "timestamp": 1648296703000,
    "description": "Aid Response",
    "address": "1st Ave / Pike St",
    "active": false,
    "unitCount": 2,
    "severity": 0,
    "lat": 47.608821,
    "long": -122.340013,
    "neighborhood": "Downtown Commercial Core",
    "neighborhoodGroup": "Downtown",
    "units": "A2 A25"
  },
  {
    "id_str": "F220034980",
    "created_at": "3/26/2022 5:03:09 AM",
    "timestamp": 1648296189000,
    "description": "Aid Response Yellow",
    "address": "2201 Westlake Ave",
    "active": false,
    "unitCount": 1,
    "severity": 0,
    "lat": 47.617752,
    "long": -122.338344,
    "neighborhood": "Cascade/Eastlake",
    "neighborhoodGroup": "Lake Union",
    "units": "A2"
  },
  {
    "id_str": "F220034979",
    "created_at": "3/26/2022 5:01:52 AM",
    "timestamp": 1648296112000,
    "description": "Medic Response",
    "address": "6420 California Ave Sw",
    "active": false,
    "unitCount": 2,
    "severity": 0,
    "lat": 47.545489,
    "long": -122.387208,
    "neighborhood": "Fauntleroy/Seaview",
    "neighborhoodGroup": "Southwest",
    "units": "E37 M32"
  },
  {
    "id_str": "F220034977",
    "created_at": "3/26/2022 4:52:35 AM",
    "timestamp": 1648295555000,
    "description": "Aid Response",
    "address": "2637 3rd Ave N",
    "active": false,
    "unitCount": 1,
    "severity": 0,
    "lat": 47.643992,
    "long": -122.351737,
    "neighborhood": "Queen Anne",
    "neighborhoodGroup": "Magnolia/Queen Anne",
    "units": "E20"
  },
  {
    "id_str": "F220034976",
    "created_at": "3/26/2022 4:51:54 AM",
    "timestamp": 1648295514000,
    "description": "Aid Response",
    "address": "621 12th Ave E",
    "active": false,
    "unitCount": 2,
    "severity": 0,
    "lat": 47.624484,
    "long": -122.316733,
    "neighborhood": "North Capitol Hill",
    "neighborhoodGroup": "East",
    "units": "A10 L1"
  },
  {
    "id_str": "F220034975",
    "created_at": "3/26/2022 4:49:03 AM",
    "timestamp": 1648295343000,
    "description": "Aid Response",
    "address": "1534 Broadway",
    "active": false,
    "unitCount": 1,
    "severity": 0,
    "lat": 47.614466,
    "long": -122.320786,
    "neighborhood": "Capitol Hill",
    "neighborhoodGroup": "East",
    "units": "A5"
  },
  {
    "id_str": "F220034973",
    "created_at": "3/26/2022 4:44:01 AM",
    "timestamp": 1648295041000,
    "description": "Aid Response",
    "address": "1703 California Ave Sw",
    "active": false,
    "unitCount": 1,
    "severity": 0,
    "lat": 47.588027,
    "long": -122.386277,
    "neighborhood": "Alki/Admiral",
    "neighborhoodGroup": "Southwest",
    "units": "E32"
  },
  {
    "id_str": "F220034971",
    "created_at": "3/26/2022 4:32:17 AM",
    "timestamp": 1648294337000,
    "description": "Aid Response",
    "address": "6940 37th Ave S",
    "active": false,
    "unitCount": 1,
    "severity": 0,
    "lat": 47.540295,
    "long": -122.286233,
    "neighborhood": "South Beacon Hill/NewHolly",
    "neighborhoodGroup": "Greater Duwamish",
    "units": "E28"
  },
  {
    "id_str": "F220034970",
    "created_at": "3/26/2022 4:30:13 AM",
    "timestamp": 1648294213000,
    "description": "Aid Response",
    "address": "East Marginal Way S / S Myrtle St",
    "active": false,
    "unitCount": 1,
    "severity": 0,
    "lat": 47.539434,
    "long": -122.3219,
    "neighborhood": "Georgetown",
    "neighborhoodGroup": "Greater Duwamish",
    "units": "E27"
  },
  {
    "id_str": "F220034969",
    "created_at": "3/26/2022 4:27:28 AM",
    "timestamp": 1648294048000,
    "description": "Aid Response",
    "address": "2920 Alki Ave Sw",
    "active": false,
    "unitCount": 1,
    "severity": 0,
    "lat": 47.578117,
    "long": -122.414156,
    "neighborhood": "Alki/Admiral",
    "neighborhoodGroup": "Southwest",
    "units": "E29"
  },
  {
    "id_str": "F220034968",
    "created_at": "3/26/2022 4:22:31 AM",
    "timestamp": 1648293751000,
    "description": "Medic Response",
    "address": "223 Yesler Way",
    "active": false,
    "unitCount": 2,
    "severity": 0,
    "lat": 47.601718,
    "long": -122.331581,
    "neighborhood": "Downtown Commercial Core",
    "neighborhoodGroup": "Downtown",
    "units": "A10 M17"
  },
  {
    "id_str": "F220034967",
    "created_at": "3/26/2022 4:18:23 AM",
    "timestamp": 1648293503000,
    "description": "Aid Response",
    "address": "9040 17th Ave Sw",
    "active": false,
    "unitCount": 1,
    "severity": 0,
    "lat": 47.522497,
    "long": -122.356453,
    "neighborhood": "Roxhill/Westwood",
    "neighborhoodGroup": "Delridge Neighborhoods",
    "units": "E11"
  },
  {
    "id_str": "F220034966",
    "created_at": "3/26/2022 4:08:25 AM",
    "timestamp": 1648292905000,
    "description": "Aid Response",
    "address": "N 45TH ST / WOODLAWN AVE N",
    "active": false,
    "unitCount": 1,
    "severity": 0,
    "lat": 47.661386,
    "long": -122.336294,
    "neighborhood": "Wallingford",
    "neighborhoodGroup": "Lake Union",
    "units": "L9"
  },
  {
    "id_str": "F220034965",
    "created_at": "3/26/2022 4:07:01 AM",
    "timestamp": 1648292821000,
    "description": "Medic Response, 7 per Rule",
    "address": "1st Ave / Pike St",
    "active": false,
    "unitCount": 3,
    "severity": 0,
    "lat": 47.608821,
    "long": -122.340013,
    "neighborhood": "Downtown Commercial Core",
    "neighborhoodGroup": "Downtown",
    "units": "A2 E6 M10"
  },
  {
    "id_str": "F220034963",
    "created_at": "3/26/2022 3:52:16 AM",
    "timestamp": 1648291936000,
    "description": "Aid Response",
    "address": "1102 8th Ave",
    "active": false,
    "unitCount": 1,
    "severity": 0,
    "lat": 47.608665,
    "long": -122.329131,
    "neighborhood": "First Hill",
    "neighborhoodGroup": "East",
    "units": "A5"
  },
  {
    "id_str": "F220034960",
    "created_at": "3/26/2022 3:48:29 AM",
    "timestamp": 1648291709000,
    "description": "Marine Fire On Shore",
    "address": "809 Fairview Pl N",
    "active": true,
    "unitCount": 30,
    "severity": 2,
    "lat": 47.626315,
    "long": -122.334058,
    "neighborhood": "Cascade/Eastlake",
    "neighborhoodGroup": "Lake Union",
    "units": "A14 A25 AIR10 B2 B6 DEP1 E10 E17 E2 E22 E25 E36 E5 E8 E9 FB1 FB4 FIREBOAT L1 L10 L4 M1 MAR5 MRN1 PIO PTRL4 R1 RB5 SAFT2 STAF10"
  },
  {
    "id_str": "F220034959",
    "created_at": "3/26/2022 3:42:01 AM",
    "timestamp": 1648291321000,
    "description": "Low Acuity Response",
    "address": "1333 N 125th St",
    "active": false,
    "unitCount": 1,
    "severity": 0,
    "lat": 47.719572,
    "long": -122.3418,
    "neighborhood": "Haller Lake",
    "neighborhoodGroup": "Northwest",
    "units": "E31"
  },
  {
    "id_str": "F220034958",
    "created_at": "3/26/2022 3:41:04 AM",
    "timestamp": 1648291264000,
    "description": "Aid Response",
    "address": "Bellevue Ave / E Olive St",
    "active": false,
    "unitCount": 1,
    "severity": 0,
    "lat": 47.616342,
    "long": -122.326788,
    "neighborhood": "Capitol Hill",
    "neighborhoodGroup": "East",
    "units": "A25"
  },
  {
    "id_str": "F220034957",
    "created_at": "3/26/2022 3:38:07 AM",
    "timestamp": 1648291087000,
    "description": "Medic Response",
    "address": "12225 Palatine Ave N",
    "active": false,
    "unitCount": 2,
    "severity": 0,
    "lat": 47.717931,
    "long": -122.357251,
    "neighborhood": "Broadview/Bitter Lake",
    "neighborhoodGroup": "Northwest",
    "units": "E24 M31"
  },
  {
    "id_str": "F220034956",
    "created_at": "3/26/2022 3:32:56 AM",
    "timestamp": 1648290776000,
    "description": "Aid Response",
    "address": "14040 15th Ave Ne",
    "active": false,
    "unitCount": 1,
    "severity": 0,
    "lat": 47.730587,
    "long": -122.312704,
    "neighborhood": "Olympic Hills/Victory Heights",
    "neighborhoodGroup": "North",
    "units": "E39"
  },
  {
    "id_str": "F220034955",
    "created_at": "3/26/2022 3:25:36 AM",
    "timestamp": 1648290336000,
    "description": "Aid Response",
    "address": "1500 4th Ave",
    "active": false,
    "unitCount": 1,
    "severity": 0,
    "lat": 47.610214,
    "long": -122.336683,
    "neighborhood": "Downtown Commercial Core",
    "neighborhoodGroup": "Downtown",
    "units": "A10"
  },
  {
    "id_str": "F220034953",
    "created_at": "3/26/2022 3:02:07 AM",
    "timestamp": 1648288927000,
    "description": "Aid Response",
    "address": "11704 8th Ave Nw",
    "active": false,
    "unitCount": 1,
    "severity": 0,
    "lat": 47.714544,
    "long": -122.365983,
    "neighborhood": "Broadview/Bitter Lake",
    "neighborhoodGroup": "Northwest",
    "units": "E24"
  },
  {
    "id_str": "F220034950",
    "created_at": "3/26/2022 2:53:12 AM",
    "timestamp": 1648288392000,
    "description": "Aid Response",
    "address": "Blanchard St / 2nd Ave",
    "active": false,
    "unitCount": 1,
    "severity": 0,
    "lat": 47.613271,
    "long": -122.344353,
    "neighborhood": "Belltown",
    "neighborhoodGroup": "Downtown",
    "units": "L4"
  },
  {
    "id_str": "F220034949",
    "created_at": "3/26/2022 2:49:12 AM",
    "timestamp": 1648288152000,
    "description": "Aid Response",
    "address": "1710 Ne 98th St",
    "active": false,
    "unitCount": 1,
    "severity": 0,
    "lat": 47.70032,
    "long": -122.309467,
    "neighborhood": "Olympic Hills/Victory Heights",
    "neighborhoodGroup": "North",
    "units": "E40"
  },
  {
    "id_str": "F220034948",
    "created_at": "3/26/2022 2:46:59 AM",
    "timestamp": 1648288019000,
    "description": "Aid Response",
    "address": "1923 3rd Ave",
    "active": false,
    "unitCount": 1,
    "severity": 0,
    "lat": 47.611802,
    "long": -122.339884,
    "neighborhood": "Cascade/Eastlake",
    "neighborhoodGroup": "Lake Union",
    "units": "A5"
  },
  {
    "id_str": "F220034947",
    "created_at": "3/26/2022 2:46:07 AM",
    "timestamp": 1648287967000,
    "description": "Aid Response",
    "address": "10200 1st Ave Ne",
    "active": false,
    "unitCount": 1,
    "severity": 0,
    "lat": 47.702577,
    "long": -122.328518,
    "neighborhood": "Northgate/Maple Leaf",
    "neighborhoodGroup": "North",
    "units": "E31"
  },
  {
    "id_str": "F220034946",
    "created_at": "3/26/2022 2:43:25 AM",
    "timestamp": 1648287805000,
    "description": "Aid Response",
    "address": "1215 Dexter Ave N",
    "active": false,
    "unitCount": 1,
    "severity": 0,
    "lat": 47.629844,
    "long": -122.342303,
    "neighborhood": "Queen Anne",
    "neighborhoodGroup": "Magnolia/Queen Anne",
    "units": "A2"
  },
  {
    "id_str": "F220034945",
    "created_at": "3/26/2022 2:39:40 AM",
    "timestamp": 1648287580000,
    "description": "Aid Response",
    "address": "1811 Eastlake Ave",
    "active": false,
    "unitCount": 1,
    "severity": 0,
    "lat": 47.618002,
    "long": -122.329182,
    "neighborhood": "Cascade/Eastlake",
    "neighborhoodGroup": "Lake Union",
    "units": "A25"
  },
  {
    "id_str": "F220034942",
    "created_at": "3/26/2022 2:30:05 AM",
    "timestamp": 1648287005000,
    "description": "Rubbish Fire",
    "address": "Roy St / Minor Ave N",
    "active": false,
    "unitCount": 1,
    "severity": 0,
    "lat": 47.625122,
    "long": -122.332564,
    "neighborhood": "Cascade/Eastlake",
    "neighborhoodGroup": "Lake Union",
    "units": "E25"
  },
  {
    "id_str": "F220034941",
    "created_at": "3/26/2022 2:23:55 AM",
    "timestamp": 1648286635000,
    "description": "Aid Response",
    "address": "308 14th Ave E",
    "active": false,
    "unitCount": 1,
    "severity": 0,
    "lat": 47.62118,
    "long": -122.314685,
    "neighborhood": "Capitol Hill",
    "neighborhoodGroup": "East",
    "units": "A25"
  },
  {
    "id_str": "F220034938",
    "created_at": "3/26/2022 2:16:17 AM",
    "timestamp": 1648286177000,
    "description": "Aid Response",
    "address": "2614 4th Ave",
    "active": false,
    "unitCount": 1,
    "severity": 0,
    "lat": 47.617316,
    "long": -122.347229,
    "neighborhood": "Cascade/Eastlake",
    "neighborhoodGroup": "Lake Union",
    "units": "L4"
  },
  {
    "id_str": "F220034937",
    "created_at": "3/26/2022 2:14:17 AM",
    "timestamp": 1648286057000,
    "description": "Aid Response",
    "address": "5242 35th Ave Sw",
    "active": false,
    "unitCount": 1,
    "severity": 0,
    "lat": 47.555216,
    "long": -122.376264,
    "neighborhood": "North Delridge",
    "neighborhoodGroup": "Delridge Neighborhoods",
    "units": "E32"
  },
  {
    "id_str": "F220034935",
    "created_at": "3/26/2022 2:12:24 AM",
    "timestamp": 1648285944000,
    "description": "Aid Response",
    "address": "2017 3rd Ave",
    "active": false,
    "unitCount": 1,
    "severity": 0,
    "lat": 47.612524,
    "long": -122.341104,
    "neighborhood": "Cascade/Eastlake",
    "neighborhoodGroup": "Lake Union",
    "units": "A2"
  },
  {
    "id_str": "F220034925",
    "created_at": "3/26/2022 1:39:45 AM",
    "timestamp": 1648283985000,
    "description": "Rubbish Fire",
    "address": "MINOR AVE N / ROY ST",
    "active": false,
    "unitCount": 2,
    "severity": 0,
    "lat": 47.625122,
    "long": -122.332564,
    "neighborhood": "Cascade/Eastlake",
    "neighborhoodGroup": "Lake Union",
    "units": "E2 E25"
  },
  {
    "id_str": "F220034924",
    "created_at": "3/26/2022 1:26:29 AM",
    "timestamp": 1648283189000,
    "description": "Aid Response",
    "address": "10556 13th Ave Nw",
    "active": false,
    "unitCount": 1,
    "severity": 0,
    "lat": 47.706309,
    "long": -122.372754,
    "neighborhood": "North Beach/Blue Ridge",
    "neighborhoodGroup": "Ballard",
    "units": "E35"
  },
  {
    "id_str": "F220034923",
    "created_at": "3/26/2022 1:23:54 AM",
    "timestamp": 1648283034000,
    "description": "Aid Response",
    "address": "1816 Bellevue Ave",
    "active": false,
    "unitCount": 1,
    "severity": 0,
    "lat": 47.617855,
    "long": -122.326761,
    "neighborhood": "Capitol Hill",
    "neighborhoodGroup": "East",
    "units": "A25"
  },
  {
    "id_str": "F220034922",
    "created_at": "3/26/2022 1:20:20 AM",
    "timestamp": 1648282820000,
    "description": "Automatic Fire Alarm Resd",
    "address": "1910 Sw Brandon St",
    "active": false,
    "unitCount": 1,
    "severity": 0,
    "lat": 47.553706,
    "long": -122.358375,
    "neighborhood": "Riverview",
    "neighborhoodGroup": "Delridge Neighborhoods",
    "units": "E36"
  },
  {
    "id_str": "F220034921",
    "created_at": "3/26/2022 1:15:18 AM",
    "timestamp": 1648282518000,
    "description": "Aid Response",
    "address": "5871 Seward Park Ave S",
    "active": false,
    "unitCount": 1,
    "severity": 0,
    "lat": 47.550169,
    "long": -122.259416,
    "neighborhood": "Seward Park",
    "neighborhoodGroup": "Southeast",
    "units": "L12"
  },
  {
    "id_str": "F220034918",
    "created_at": "3/26/2022 1:06:06 AM",
    "timestamp": 1648281966000,
    "description": "Medic Response",
    "address": "6900 37th Ave S",
    "active": false,
    "unitCount": 2,
    "severity": 0,
    "lat": 47.540654,
    "long": -122.286239,
    "neighborhood": "South Beacon Hill/NewHolly",
    "neighborhoodGroup": "Greater Duwamish",
    "units": "E28 M28"
  },
  {
    "id_str": "F220034917",
    "created_at": "3/26/2022 1:04:58 AM",
    "timestamp": 1648281898000,
    "description": "Aid Response",
    "address": "3100 S Bradford St",
    "active": false,
    "unitCount": 1,
    "severity": 0,
    "lat": 47.568891,
    "long": -122.292458,
    "neighborhood": "Columbia City",
    "neighborhoodGroup": "Southeast",
    "units": "E30"
  },
  {
    "id_str": "F220034915",
    "created_at": "3/26/2022 1:01:49 AM",
    "timestamp": 1648281709000,
    "description": "Aid Response",
    "address": "N 75th St / Greenwood Ave N",
    "active": false,
    "unitCount": 1,
    "severity": 0,
    "lat": 47.683289,
    "long": -122.355297,
    "neighborhood": "Greenwood/Phinney Ridge",
    "neighborhoodGroup": "Northwest",
    "units": "E21"
  },
  {
    "id_str": "F220034914",
    "created_at": "3/26/2022 12:56:10 AM",
    "timestamp": 1648281370000,
    "description": "Aid Response",
    "address": "3201 Sw Graham St",
    "active": false,
    "unitCount": 1,
    "severity": 0,
    "lat": 47.54666,
    "long": -122.373219,
    "neighborhood": "High Point",
    "neighborhoodGroup": "Delridge Neighborhoods",
    "units": "E37"
  },
  {
    "id_str": "F220034913",
    "created_at": "3/26/2022 12:52:30 AM",
    "timestamp": 1648281150000,
    "description": "Medic Response, 7 per Rule",
    "address": "14100 Linden Ave N",
    "active": false,
    "unitCount": 3,
    "severity": 0,
    "lat": 47.73104,
    "long": -122.347764,
    "neighborhood": "Broadview/Bitter Lake",
    "neighborhoodGroup": "Northwest",
    "units": "E24 E31 M31"
  },
  {
    "id_str": "F220034912",
    "created_at": "3/26/2022 12:42:03 AM",
    "timestamp": 1648280523000,
    "description": "Aid Response",
    "address": "400 9th Ave N",
    "active": false,
    "unitCount": 1,
    "severity": 0,
    "lat": 47.622046,
    "long": -122.33976,
    "neighborhood": "Cascade/Eastlake",
    "neighborhoodGroup": "Lake Union",
    "units": "A2"
  },
  {
    "id_str": "F220034911",
    "created_at": "3/26/2022 12:34:52 AM",
    "timestamp": 1648280092000,
    "description": "Aid Response",
    "address": "26th Ave Sw / Sw Oregon St",
    "active": false,
    "unitCount": 1,
    "severity": 0,
    "lat": 47.562909,
    "long": -122.365475,
    "neighborhood": "North Delridge",
    "neighborhoodGroup": "Delridge Neighborhoods",
    "units": "E36"
  },
  {
    "id_str": "F220034910",
    "created_at": "3/26/2022 12:34:45 AM",
    "timestamp": 1648280085000,
    "description": "Scenes Of Violence 7",
    "address": "7th Ave / Cherry St",
    "active": false,
    "unitCount": 6,
    "severity": 1,
    "lat": 47.60534,
    "long": -122.327624,
    "neighborhood": "First Hill",
    "neighborhoodGroup": "East",
    "units": "A10 B2 E10 M10 M17 M44"
  },
  {
    "id_str": "F220034908",
    "created_at": "3/26/2022 12:32:24 AM",
    "timestamp": 1648279944000,
    "description": "Medic Response",
    "address": "21 W Lee St",
    "active": false,
    "unitCount": 2,
    "severity": 0,
    "lat": 47.631304,
    "long": -122.356862,
    "neighborhood": "Queen Anne",
    "neighborhoodGroup": "Magnolia/Queen Anne",
    "units": "E8 M1"
  },
  {
    "id_str": "F220034904",
    "created_at": "3/26/2022 12:23:05 AM",
    "timestamp": 1648279385000,
    "description": "Aid Response",
    "address": "2208 15th Ave W",
    "active": false,
    "unitCount": 1,
    "severity": 0,
    "lat": 47.638695,
    "long": -122.376149,
    "neighborhood": "Interbay",
    "neighborhoodGroup": "Magnolia/Queen Anne",
    "units": "E20"
  },
  {
    "id_str": "F220034903",
    "created_at": "3/26/2022 12:22:39 AM",
    "timestamp": 1648279359000,
    "description": "Encampment Fire",
    "address": "830 4th Ave S",
    "active": false,
    "unitCount": 1,
    "severity": 0,
    "lat": 47.596157,
    "long": -122.329046,
    "neighborhood": "Duwamish/SODO",
    "neighborhoodGroup": "Greater Duwamish",
    "units": "E10"
  },
  {
    "id_str": "F220034902",
    "created_at": "3/26/2022 12:21:15 AM",
    "timestamp": 1648279275000,
    "description": "Aid Response",
    "address": "1819 23rd Ave",
    "active": false,
    "unitCount": 2,
    "severity": 0,
    "lat": 47.617882,
    "long": -122.302573,
    "neighborhood": "Central Area/Squire Park",
    "neighborhoodGroup": "Central",
    "units": "A25 M10"
  },
  {
    "id_str": "F220034899",
    "created_at": "3/26/2022 12:14:53 AM",
    "timestamp": 1648278893000,
    "description": "Aid Response",
    "address": "15th Ave Ne / Ne 43rd St",
    "active": false,
    "unitCount": 1,
    "severity": 0,
    "lat": 47.659781,
    "long": -122.312032,
    "neighborhood": "University District",
    "neighborhoodGroup": "Northeast",
    "units": "E17"
  },
  {
    "id_str": "F220034898",
    "created_at": "3/26/2022 12:04:30 AM",
    "timestamp": 1648278270000,
    "description": "Fuel Spill",
    "address": "2400 1st Ave S",
    "active": false,
    "unitCount": 1,
    "severity": 0,
    "lat": 47.581895,
    "long": -122.3342,
    "neighborhood": "Duwamish/SODO",
    "neighborhoodGroup": "Greater Duwamish",
    "units": "R1"
  },
  {
    "id_str": "F220034897",
    "created_at": "3/25/2022 11:55:00 PM",
    "timestamp": 1648277700000,
    "description": "Aid Response",
    "address": "1535 11th Ave",
    "active": false,
    "unitCount": 2,
    "severity": 0,
    "lat": 47.614496,
    "long": -122.318147,
    "neighborhood": "Capitol Hill",
    "neighborhoodGroup": "East",
    "units": "A25 E25"
  },
  {
    "id_str": "F220034896",
    "created_at": "3/25/2022 11:42:53 PM",
    "timestamp": 1648276973000,
    "description": "Medic Response",
    "address": "8029 36th Ave Ne",
    "active": false,
    "unitCount": 2,
    "severity": 0,
    "lat": 47.686925,
    "long": -122.28955,
    "neighborhood": "Wedgwood/View Ridge",
    "neighborhoodGroup": "Northeast",
    "units": "E40 M17"
  },
  {
    "id_str": "F220034893",
    "created_at": "3/25/2022 11:36:18 PM",
    "timestamp": 1648276578000,
    "description": "Aid Response",
    "address": "11034 12th Ave Ne",
    "active": false,
    "unitCount": 1,
    "severity": 0,
    "lat": 47.709171,
    "long": -122.315199,
    "neighborhood": "Northgate/Maple Leaf",
    "neighborhoodGroup": "North",
    "units": "E31"
  },
  {
    "id_str": "F220034889",
    "created_at": "3/25/2022 10:51:51 PM",
    "timestamp": 1648273911000,
    "description": "Rescue Elevator",
    "address": "1107 E Madison St",
    "active": false,
    "unitCount": 1,
    "severity": 0,
    "lat": 47.612309,
    "long": -122.318031,
    "neighborhood": "Capitol Hill",
    "neighborhoodGroup": "East",
    "units": "L10"
  },
  {
    "id_str": "F220034887",
    "created_at": "3/25/2022 10:48:47 PM",
    "timestamp": 1648273727000,
    "description": "Aid Response",
    "address": "1726 Summit Ave",
    "active": false,
    "unitCount": 1,
    "severity": 0,
    "lat": 47.616699,
    "long": -122.325548,
    "neighborhood": "Capitol Hill",
    "neighborhoodGroup": "East",
    "units": "A25"
  },
  {
    "id_str": "F220034886",
    "created_at": "3/25/2022 10:47:41 PM",
    "timestamp": 1648273661000,
    "description": "Aid Response",
    "address": "720 3RD AVE",
    "active": false,
    "unitCount": 2,
    "severity": 0,
    "lat": 47.604197,
    "long": -122.332714,
    "neighborhood": "Downtown Commercial Core",
    "neighborhoodGroup": "Downtown",
    "units": "A5 M1"
  },
  {
    "id_str": "F220034884",
    "created_at": "3/25/2022 10:39:54 PM",
    "timestamp": 1648273194000,
    "description": "Aid Response",
    "address": "1303 Ne 45th St",
    "active": false,
    "unitCount": 1,
    "severity": 0,
    "lat": 47.661277,
    "long": -122.314251,
    "neighborhood": "University District",
    "neighborhoodGroup": "Northeast",
    "units": "E17"
  },
  {
    "id_str": "F220034885",
    "created_at": "3/25/2022 10:39:46 PM",
    "timestamp": 1648273186000,
    "description": "Illegal Burn",
    "address": "24th Ave Nw / Shilshole Ave Nw",
    "active": false,
    "unitCount": 1,
    "severity": 0,
    "lat": 47.668401,
    "long": -122.387569,
    "neighborhood": "Sunset Hill/Loyal Heights",
    "neighborhoodGroup": "Ballard",
    "units": "E18"
  },
  {
    "id_str": "F220034882",
    "created_at": "3/25/2022 10:33:31 PM",
    "timestamp": 1648272811000,
    "description": "Aid Response",
    "address": "4509 Palatine Ave N",
    "active": false,
    "unitCount": 1,
    "severity": 0,
    "lat": 47.6618,
    "long": -122.356542,
    "neighborhood": "Fremont",
    "neighborhoodGroup": "Lake Union",
    "units": "E9"
  },
  {
    "id_str": "F220034881",
    "created_at": "3/25/2022 10:30:43 PM",
    "timestamp": 1648272643000,
    "description": "Aid Response",
    "address": "4103 2nd Ave S",
    "active": false,
    "unitCount": 1,
    "severity": 0,
    "lat": 47.567207,
    "long": -122.331979,
    "neighborhood": "Duwamish/SODO",
    "neighborhoodGroup": "Greater Duwamish",
    "units": "A14"
  },
  {
    "id_str": "F220034879",
    "created_at": "3/25/2022 10:11:33 PM",
    "timestamp": 1648271493000,
    "description": "Aid Response",
    "address": "3610 34th Ave S",
    "active": false,
    "unitCount": 1,
    "severity": 0,
    "lat": 47.57149,
    "long": -122.289924,
    "neighborhood": "Columbia City",
    "neighborhoodGroup": "Southeast",
    "units": "E30"
  },
  {
    "id_str": "F220034876",
    "created_at": "3/25/2022 9:57:03 PM",
    "timestamp": 1648270623000,
    "description": "Medic Response",
    "address": "7325 Rainier Ave S",
    "active": false,
    "unitCount": 3,
    "severity": 0,
    "lat": 47.536696,
    "long": -122.270213,
    "neighborhood": "Seward Park",
    "neighborhoodGroup": "Southeast",
    "units": "E28 L12 M28"
  },
  {
    "id_str": "F220034875",
    "created_at": "3/25/2022 9:53:07 PM",
    "timestamp": 1648270387000,
    "description": "Aid Response",
    "address": "6011 21st Ave Sw",
    "active": false,
    "unitCount": 1,
    "severity": 0,
    "lat": 47.549144,
    "long": -122.359835,
    "neighborhood": "Riverview",
    "neighborhoodGroup": "Delridge Neighborhoods",
    "units": "E11"
  },
  {
    "id_str": "F220034874",
    "created_at": "3/25/2022 9:51:37 PM",
    "timestamp": 1648270297000,
    "description": "Aid Response",
    "address": "3616 34th Ave S",
    "active": false,
    "unitCount": 1,
    "severity": 0,
    "lat": 47.571435,
    "long": -122.289925,
    "neighborhood": "Columbia City",
    "neighborhoodGroup": "Southeast",
    "units": "E30"
  },
  {
    "id_str": "F220034873",
    "created_at": "3/25/2022 9:49:14 PM",
    "timestamp": 1648270154000,
    "description": "Aid Response",
    "address": "1521 2nd Ave",
    "active": false,
    "unitCount": 1,
    "severity": 0,
    "lat": 47.609488,
    "long": -122.339089,
    "neighborhood": "Downtown Commercial Core",
    "neighborhoodGroup": "Downtown",
    "units": "A10"
  },
  {
    "id_str": "F220034872",
    "created_at": "3/25/2022 9:48:10 PM",
    "timestamp": 1648270090000,
    "description": "Low Acuity Response",
    "address": "4400 Stone Way N",
    "active": false,
    "unitCount": 1,
    "severity": 0,
    "lat": 47.65996,
    "long": -122.342217,
    "neighborhood": "Wallingford",
    "neighborhoodGroup": "Lake Union",
    "units": "E9"
  },
  {
    "id_str": "F220034871",
    "created_at": "3/25/2022 9:44:48 PM",
    "timestamp": 1648269888000,
    "description": "Aid Response",
    "address": "10002 44th Ave Ne",
    "active": false,
    "unitCount": 1,
    "severity": 0,
    "lat": 47.701223,
    "long": -122.281389,
    "neighborhood": "Wedgwood/View Ridge",
    "neighborhoodGroup": "Northeast",
    "units": "E40"
  },
  {
    "id_str": "F220034870",
    "created_at": "3/25/2022 9:28:15 PM",
    "timestamp": 1648268895000,
    "description": "Aid Response",
    "address": "6039 30th Ave Sw",
    "active": false,
    "unitCount": 1,
    "severity": 0,
    "lat": 47.548129,
    "long": -122.371179,
    "neighborhood": "High Point",
    "neighborhoodGroup": "Delridge Neighborhoods",
    "units": "E37"
  },
  {
    "id_str": "F220034869",
    "created_at": "3/25/2022 9:23:46 PM",
    "timestamp": 1648268626000,
    "description": "Aid Response",
    "address": "340 15th Ave",
    "active": false,
    "unitCount": 1,
    "severity": 0,
    "lat": 47.604707,
    "long": -122.312865,
    "neighborhood": "First Hill",
    "neighborhoodGroup": "East",
    "units": "A25"
  },
  {
    "id_str": "F220034868",
    "created_at": "3/25/2022 9:20:40 PM",
    "timestamp": 1648268440000,
    "description": "Aid Response",
    "address": "2121 7th Ave",
    "active": false,
    "unitCount": 1,
    "severity": 0,
    "lat": 47.615982,
    "long": -122.339019,
    "neighborhood": "Cascade/Eastlake",
    "neighborhoodGroup": "Lake Union",
    "units": "A2"
  },
  {
    "id_str": "F220034867",
    "created_at": "3/25/2022 9:18:50 PM",
    "timestamp": 1648268330000,
    "description": "MVI - Motor Vehicle Incident",
    "address": "6312 Seward Park Ave S",
    "active": false,
    "unitCount": 1,
    "severity": 0,
    "lat": 47.545794,
    "long": -122.262682,
    "neighborhood": "Seward Park",
    "neighborhoodGroup": "Southeast",
    "units": "E28"
  },
  {
    "id_str": "F220034865",
    "created_at": "3/25/2022 9:03:13 PM",
    "timestamp": 1648267393000,
    "description": "Aid Response",
    "address": "1900 5th Ave",
    "active": false,
    "unitCount": 1,
    "severity": 0,
    "lat": 47.612958,
    "long": -122.337873,
    "neighborhood": "Cascade/Eastlake",
    "neighborhoodGroup": "Lake Union",
    "units": "E2"
  },
  {
    "id_str": "F220034863",
    "created_at": "3/25/2022 8:56:42 PM",
    "timestamp": 1648267002000,
    "description": "Water Job Minor",
    "address": "5010 39th Ave Ne",
    "active": false,
    "unitCount": 2,
    "severity": 0,
    "lat": 47.664953,
    "long": -122.28586,
    "neighborhood": "Ravenna/Bryant",
    "neighborhoodGroup": "Northeast",
    "units": "L10 L9"
  },
  {
    "id_str": "F220034861",
    "created_at": "3/25/2022 8:49:15 PM",
    "timestamp": 1648266555000,
    "description": "Rescue Elevator",
    "address": "5240 15th Ave Ne",
    "active": false,
    "unitCount": 1,
    "severity": 0,
    "lat": 47.666706,
    "long": -122.311912,
    "neighborhood": "University District",
    "neighborhoodGroup": "Northeast",
    "units": "L8"
  },
  {
    "id_str": "F220034860",
    "created_at": "3/25/2022 8:48:41 PM",
    "timestamp": 1648266521000,
    "description": "Auto Fire Alarm",
    "address": "4290 Little Canoe Channel Ne",
    "active": false,
    "unitCount": 2,
    "severity": 0,
    "lat": 47.659325,
    "long": -122.304403,
    "neighborhood": "University District",
    "neighborhoodGroup": "Northeast",
    "units": "E17 L9"
  },
  {
    "id_str": "F220034857",
    "created_at": "3/25/2022 8:40:29 PM",
    "timestamp": 1648266029000,
    "description": "Aid Response",
    "address": "400 Pine St",
    "active": false,
    "unitCount": 1,
    "severity": 0,
    "lat": 47.611207,
    "long": -122.337592,
    "neighborhood": "Downtown Commercial Core",
    "neighborhoodGroup": "Downtown",
    "units": "E2"
  },
  {
    "id_str": "F220034853",
    "created_at": "3/25/2022 8:25:15 PM",
    "timestamp": 1648265115000,
    "description": "Aid Response",
    "address": "10507 Aurora Ave N",
    "active": false,
    "unitCount": 1,
    "severity": 0,
    "lat": 47.705096,
    "long": -122.344695,
    "neighborhood": "Licton Springs",
    "neighborhoodGroup": "Northwest",
    "units": "L5"
  },
  {
    "id_str": "F220034852",
    "created_at": "3/25/2022 8:25:12 PM",
    "timestamp": 1648265112000,
    "description": "Aid Response",
    "address": "1431 Minor Ave",
    "active": false,
    "unitCount": 1,
    "severity": 0,
    "lat": 47.613247,
    "long": -122.327187,
    "neighborhood": "Capitol Hill",
    "neighborhoodGroup": "East",
    "units": "A25"
  },
  {
    "id_str": "F220034851",
    "created_at": "3/25/2022 8:19:17 PM",
    "timestamp": 1648264757000,
    "description": "Aid Response",
    "address": "4223 S Graham St",
    "active": false,
    "unitCount": 1,
    "severity": 0,
    "lat": 47.545991,
    "long": -122.280536,
    "neighborhood": "Columbia City",
    "neighborhoodGroup": "Southeast",
    "units": "E28"
  },
  {
    "id_str": "F220034850",
    "created_at": "3/25/2022 8:15:25 PM",
    "timestamp": 1648264525000,
    "description": "Aid Response",
    "address": "Greenwood Ave N / N 137th St",
    "active": false,
    "unitCount": 2,
    "severity": 0,
    "lat": 47.728741,
    "long": -122.355558,
    "neighborhood": "Broadview/Bitter Lake",
    "neighborhoodGroup": "Northwest",
    "units": "A2 E24"
  },
  {
    "id_str": "F220034849",
    "created_at": "3/25/2022 8:11:03 PM",
    "timestamp": 1648264263000,
    "description": "Aid Response",
    "address": "2103 N 115th St",
    "active": false,
    "unitCount": 1,
    "severity": 0,
    "lat": 47.712291,
    "long": -122.334016,
    "neighborhood": "Haller Lake",
    "neighborhoodGroup": "Northwest",
    "units": "E31"
  },
  {
    "id_str": "F220034848",
    "created_at": "3/25/2022 8:02:34 PM",
    "timestamp": 1648263754000,
    "description": "Aid Response",
    "address": "1400 6th Ave",
    "active": false,
    "unitCount": 1,
    "severity": 0,
    "lat": 47.61015,
    "long": -122.333556,
    "neighborhood": "First Hill",
    "neighborhoodGroup": "East",
    "units": "A2"
  },
  {
    "id_str": "F220034847",
    "created_at": "3/25/2022 8:01:38 PM",
    "timestamp": 1648263698000,
    "description": "Rubbish Fire",
    "address": "3018 Ne 125th St",
    "active": false,
    "unitCount": 1,
    "severity": 0,
    "lat": 47.719284,
    "long": -122.296115,
    "neighborhood": "Cedar Park/Meadowbrook",
    "neighborhoodGroup": "North",
    "units": "E39"
  },
  {
    "id_str": "F220034845",
    "created_at": "3/25/2022 8:00:11 PM",
    "timestamp": 1648263611000,
    "description": "Dumpster Fire",
    "address": "Ne 43rd St / 11th Ave Ne",
    "active": false,
    "unitCount": 1,
    "severity": 0,
    "lat": 47.659837,
    "long": -122.316617,
    "neighborhood": "University District",
    "neighborhoodGroup": "Northeast",
    "units": "E17"
  },
  {
    "id_str": "F220034844",
    "created_at": "3/25/2022 7:56:14 PM",
    "timestamp": 1648263374000,
    "description": "Alarm Bell",
    "address": "2608 Eastlake Ave E",
    "active": false,
    "unitCount": 1,
    "severity": 0,
    "lat": 47.643284,
    "long": -122.325887,
    "neighborhood": "Montlake/Portage Bay",
    "neighborhoodGroup": "Northeast",
    "units": "E22"
  },
  {
    "id_str": "F220034843",
    "created_at": "3/25/2022 7:47:15 PM",
    "timestamp": 1648262835000,
    "description": "Aid Response",
    "address": "120 Broadway",
    "active": false,
    "unitCount": 1,
    "severity": 0,
    "lat": 47.602255,
    "long": -122.320739,
    "neighborhood": "First Hill",
    "neighborhoodGroup": "East",
    "units": "A5"
  },
  {
    "id_str": "F220034842",
    "created_at": "3/25/2022 7:46:10 PM",
    "timestamp": 1648262770000,
    "description": "Aid Response",
    "address": "116 Fairview Ave N",
    "active": false,
    "unitCount": 1,
    "severity": 0,
    "lat": 47.618693,
    "long": -122.334256,
    "neighborhood": "Cascade/Eastlake",
    "neighborhoodGroup": "Lake Union",
    "units": "E2"
  },
  {
    "id_str": "F220034841",
    "created_at": "3/25/2022 7:40:49 PM",
    "timestamp": 1648262449000,
    "description": "Aid Response",
    "address": "600 5th Ave S",
    "active": false,
    "unitCount": 1,
    "severity": 0,
    "lat": 47.597517,
    "long": -122.327675,
    "neighborhood": "Pioneer Square/International District",
    "neighborhoodGroup": "Downtown",
    "units": "A10"
  },
  {
    "id_str": "F220034839",
    "created_at": "3/25/2022 7:36:11 PM",
    "timestamp": 1648262171000,
    "description": "Aid Response",
    "address": "2008 Westlake Ave",
    "active": false,
    "unitCount": 1,
    "severity": 0,
    "lat": 47.615007,
    "long": -122.337781,
    "neighborhood": "Cascade/Eastlake",
    "neighborhoodGroup": "Lake Union",
    "units": "A2"
  },
  {
    "id_str": "F220034837",
    "created_at": "3/25/2022 7:34:20 PM",
    "timestamp": 1648262060000,
    "description": "Aid Response",
    "address": "5218 16th Ave Sw",
    "active": false,
    "unitCount": 1,
    "severity": 0,
    "lat": 47.556023,
    "long": -122.354791,
    "neighborhood": "Riverview",
    "neighborhoodGroup": "Delridge Neighborhoods",
    "units": "E36"
  },
  {
    "id_str": "F220034831",
    "created_at": "3/25/2022 7:24:20 PM",
    "timestamp": 1648261460000,
    "description": "Medic Response, 6 per Rule",
    "address": "2nd Ave Sw / Highland Park Way Sw",
    "active": false,
    "unitCount": 3,
    "severity": 0,
    "lat": 47.539813,
    "long": -122.337111,
    "neighborhood": "South Park",
    "neighborhoodGroup": "Greater Duwamish",
    "units": "E11 E26 M26"
  },
  {
    "id_str": "F220034830",
    "created_at": "3/25/2022 7:23:23 PM",
    "timestamp": 1648261403000,
    "description": "Aid Response",
    "address": "4621 48th Ave S",
    "active": false,
    "unitCount": 1,
    "severity": 0,
    "lat": 47.561501,
    "long": -122.27322,
    "neighborhood": "Columbia City",
    "neighborhoodGroup": "Southeast",
    "units": "E28"
  },
  {
    "id_str": "F220034827",
    "created_at": "3/25/2022 7:19:44 PM",
    "timestamp": 1648261184000,
    "description": "Aid Response Yellow",
    "address": "9653 Renton Ave S",
    "active": false,
    "unitCount": 1,
    "severity": 0,
    "lat": 47.51567,
    "long": -122.267822,
    "neighborhood": "Rainier Beach",
    "neighborhoodGroup": "Southeast",
    "units": "E33"
  },
  {
    "id_str": "F220034826",
    "created_at": "3/25/2022 7:16:09 PM",
    "timestamp": 1648260969000,
    "description": "Aid Response",
    "address": "S Alaska St / Beacon Ave S",
    "active": false,
    "unitCount": 1,
    "severity": 0,
    "lat": 47.561105,
    "long": -122.305087,
    "neighborhood": "North Beacon Hill/Jefferson Park",
    "neighborhoodGroup": "Greater Duwamish",
    "units": "E13"
  },
  {
    "id_str": "F220034825",
    "created_at": "3/25/2022 7:12:53 PM",
    "timestamp": 1648260773000,
    "description": "Aid Response",
    "address": "6940 62nd Ave Ne",
    "active": false,
    "unitCount": 1,
    "severity": 0,
    "lat": 47.678821,
    "long": -122.262227,
    "neighborhood": "Laurelhurst/Sand Point",
    "neighborhoodGroup": "Northeast",
    "units": "E38"
  },
  {
    "id_str": "F220034824",
    "created_at": "3/25/2022 7:09:34 PM",
    "timestamp": 1648260574000,
    "description": "Aid Response",
    "address": "500 S King St",
    "active": false,
    "unitCount": 1,
    "severity": 0,
    "lat": 47.598356,
    "long": -122.327671,
    "neighborhood": "Pioneer Square/International District",
    "neighborhoodGroup": "Downtown",
    "units": "A10"
  },
  {
    "id_str": "F220034820",
    "created_at": "3/25/2022 6:52:01 PM",
    "timestamp": 1648259521000,
    "description": "Aid Response",
    "address": "7412 Latona Ave Ne",
    "active": false,
    "unitCount": 1,
    "severity": 0,
    "lat": 47.682337,
    "long": -122.326555,
    "neighborhood": "Green Lake",
    "neighborhoodGroup": "Northwest",
    "units": "E16"
  },
  {
    "id_str": "F220034821",
    "created_at": "3/25/2022 6:51:33 PM",
    "timestamp": 1648259493000,
    "description": "MVI - Motor Vehicle Incident",
    "address": "Sb I5 At Ravenna",
    "active": false,
    "unitCount": 3,
    "severity": 0,
    "lat": 47.668192,
    "long": -122.322245,
    "neighborhood": "Wallingford",
    "neighborhoodGroup": "Lake Union",
    "units": "A5 E17 E31"
  },
  {
    "id_str": "F220034817",
    "created_at": "3/25/2022 6:42:41 PM",
    "timestamp": 1648258961000,
    "description": "Aid Response",
    "address": "11020 Greenwood Ave N",
    "active": false,
    "unitCount": 1,
    "severity": 0,
    "lat": 47.708888,
    "long": -122.355482,
    "neighborhood": "North Beach/Blue Ridge",
    "neighborhoodGroup": "Ballard",
    "units": "E24"
  },
  {
    "id_str": "F220034816",
    "created_at": "3/25/2022 6:41:21 PM",
    "timestamp": 1648258881000,
    "description": "Aid Response",
    "address": "N 100th St / Stone Ave N",
    "active": false,
    "unitCount": 1,
    "severity": 0,
    "lat": 47.701423,
    "long": -122.341957,
    "neighborhood": "Licton Springs",
    "neighborhoodGroup": "Northwest",
    "units": "E31"
  },
  {
    "id_str": "F220034814",
    "created_at": "3/25/2022 6:36:03 PM",
    "timestamp": 1648258563000,
    "description": "Aid Response",
    "address": "3rd Ave / Pike St",
    "active": false,
    "unitCount": 3,
    "severity": 0,
    "lat": 47.60975,
    "long": -122.337793,
    "neighborhood": "Downtown Commercial Core",
    "neighborhoodGroup": "Downtown",
    "units": "A10 M10 M17"
  },
  {
    "id_str": "F220034813",
    "created_at": "3/25/2022 6:33:59 PM",
    "timestamp": 1648258439000,
    "description": "Medic Response",
    "address": "116 Fairview Ave N",
    "active": false,
    "unitCount": 2,
    "severity": 0,
    "lat": 47.618693,
    "long": -122.334256,
    "neighborhood": "Cascade/Eastlake",
    "neighborhoodGroup": "Lake Union",
    "units": "A2 M1"
  },
  {
    "id_str": "F220034811",
    "created_at": "3/25/2022 6:29:56 PM",
    "timestamp": 1648258196000,
    "description": "Nurseline/AMR",
    "address": "1501 17th Ave",
    "active": false,
    "unitCount": 1,
    "severity": 0,
    "lat": 47.614106,
    "long": -122.310161,
    "neighborhood": "Central Area/Squire Park",
    "neighborhoodGroup": "Central",
    "units": "E25"
  },
  {
    "id_str": "F220034812",
    "created_at": "3/25/2022 6:29:03 PM",
    "timestamp": 1648258143000,
    "description": "Rescue Lock In/Out",
    "address": "9434 35th Ave Sw",
    "active": false,
    "unitCount": 1,
    "severity": 0,
    "lat": 47.518971,
    "long": -122.376834,
    "neighborhood": "Roxhill/Westwood",
    "neighborhoodGroup": "Delridge Neighborhoods",
    "units": "E37"
  },
  {
    "id_str": "F220034810",
    "created_at": "3/25/2022 6:27:12 PM",
    "timestamp": 1648258032000,
    "description": "Aid Response",
    "address": "2964 Sw Avalon Way",
    "active": false,
    "unitCount": 1,
    "severity": 0,
    "lat": 47.569061,
    "long": -122.370737,
    "neighborhood": "North Delridge",
    "neighborhoodGroup": "Delridge Neighborhoods",
    "units": "E36"
  },
  {
    "id_str": "F220034808",
    "created_at": "3/25/2022 6:23:38 PM",
    "timestamp": 1648257818000,
    "description": "Low Acuity Response",
    "address": "500 S Lander St",
    "active": false,
    "unitCount": 1,
    "severity": 0,
    "lat": 47.579809,
    "long": -122.327192,
    "neighborhood": "Duwamish/SODO",
    "neighborhoodGroup": "Greater Duwamish",
    "units": "A14"
  },
  {
    "id_str": "F220034806",
    "created_at": "3/25/2022 6:23:21 PM",
    "timestamp": 1648257801000,
    "description": "Aid Response",
    "address": "1200 S King St",
    "active": false,
    "unitCount": 1,
    "severity": 0,
    "lat": 47.598338,
    "long": -122.317228,
    "neighborhood": "Pioneer Square/International District",
    "neighborhoodGroup": "Downtown",
    "units": "A5"
  },
  {
    "id_str": "F220034804",
    "created_at": "3/25/2022 6:20:23 PM",
    "timestamp": 1648257623000,
    "description": "Aid Response",
    "address": "1200 Seneca St",
    "active": false,
    "unitCount": 1,
    "severity": 0,
    "lat": 47.61123,
    "long": -122.325334,
    "neighborhood": "First Hill",
    "neighborhoodGroup": "East",
    "units": "A25"
  },
  {
    "id_str": "F220034805",
    "created_at": "3/25/2022 6:20:23 PM",
    "timestamp": 1648257623000,
    "description": "Low Acuity Response",
    "address": "12740 30th Ave Ne",
    "active": false,
    "unitCount": 1,
    "severity": 0,
    "lat": 47.721329,
    "long": -122.296339,
    "neighborhood": "Cedar Park/Meadowbrook",
    "neighborhoodGroup": "North",
    "units": "E39"
  },
  {
    "id_str": "F220034801",
    "created_at": "3/25/2022 6:13:13 PM",
    "timestamp": 1648257193000,
    "description": "Aid Response",
    "address": "401 Pine St",
    "active": false,
    "unitCount": 1,
    "severity": 0,
    "lat": 47.61122,
    "long": -122.337562,
    "neighborhood": "Downtown Commercial Core",
    "neighborhoodGroup": "Downtown",
    "units": "L4"
  },
  {
    "id_str": "F220034800",
    "created_at": "3/25/2022 6:12:21 PM",
    "timestamp": 1648257141000,
    "description": "Medic Response, 7 per Rule",
    "address": "2nd Ave / Pine St",
    "active": false,
    "unitCount": 5,
    "severity": 1,
    "lat": 47.610278,
    "long": -122.339812,
    "neighborhood": "Downtown Commercial Core",
    "neighborhoodGroup": "Downtown",
    "units": "A2 E10 E5 M1 M10"
  },
  {
    "id_str": "F220034798",
    "created_at": "3/25/2022 6:03:13 PM",
    "timestamp": 1648256593000,
    "description": "Illegal Burn",
    "address": "Erickson Pl Ne / Ne 135th St",
    "active": false,
    "unitCount": 1,
    "severity": 0,
    "lat": 47.726464,
    "long": -122.290907,
    "neighborhood": "Cedar Park/Meadowbrook",
    "neighborhoodGroup": "North",
    "units": "E39"
  },
  {
    "id_str": "F220034797",
    "created_at": "3/25/2022 6:00:36 PM",
    "timestamp": 1648256436000,
    "description": "Aid Response",
    "address": "710 Cherry St",
    "active": false,
    "unitCount": 1,
    "severity": 0,
    "lat": 47.605387,
    "long": -122.327511,
    "neighborhood": "First Hill",
    "neighborhoodGroup": "East",
    "units": "A5"
  },
  {
    "id_str": "F220034796",
    "created_at": "3/25/2022 6:00:00 PM",
    "timestamp": 1648256400000,
    "description": "Low Acuity Response",
    "address": "1301 Spring St",
    "active": false,
    "unitCount": 1,
    "severity": 0,
    "lat": 47.610986,
    "long": -122.32356,
    "neighborhood": "Capitol Hill",
    "neighborhoodGroup": "East",
    "units": "A25"
  },
  {
    "id_str": "F220034795",
    "created_at": "3/25/2022 5:59:45 PM",
    "timestamp": 1648256385000,
    "description": "Low Acuity Response",
    "address": "1902 2nd Ave",
    "active": false,
    "unitCount": 1,
    "severity": 0,
    "lat": 47.610972,
    "long": -122.340465,
    "neighborhood": "Belltown",
    "neighborhoodGroup": "Downtown",
    "units": "H2"
  },
  {
    "id_str": "F220034794",
    "created_at": "3/25/2022 5:58:19 PM",
    "timestamp": 1648256299000,
    "description": "Aid Response",
    "address": "4700 Sw Admiral Way",
    "active": false,
    "unitCount": 1,
    "severity": 0,
    "lat": 47.581214,
    "long": -122.391903,
    "neighborhood": "West Seattle Junction/Genesee Hill",
    "neighborhoodGroup": "Southwest",
    "units": "E32"
  },
  {
    "id_str": "F220034789",
    "created_at": "3/25/2022 5:39:12 PM",
    "timestamp": 1648255152000,
    "description": "Aid Response",
    "address": "2ND AVE / UNION ST",
    "active": false,
    "unitCount": 1,
    "severity": 0,
    "lat": 47.608292,
    "long": -122.337995,
    "neighborhood": "Downtown Commercial Core",
    "neighborhoodGroup": "Downtown",
    "units": "A2"
  },
  {
    "id_str": "F220034788",
    "created_at": "3/25/2022 5:38:10 PM",
    "timestamp": 1648255090000,
    "description": "Auto Fire Alarm",
    "address": "7101 M L King Jr Way S",
    "active": false,
    "unitCount": 2,
    "severity": 0,
    "lat": 47.538884,
    "long": -122.282179,
    "neighborhood": "South Beacon Hill/NewHolly",
    "neighborhoodGroup": "Greater Duwamish",
    "units": "E28 L3"
  },
  {
    "id_str": "F220034786",
    "created_at": "3/25/2022 5:32:05 PM",
    "timestamp": 1648254725000,
    "description": "Auto Fire Alarm",
    "address": "800 Jefferson St",
    "active": false,
    "unitCount": 3,
    "severity": 0,
    "lat": 47.604377,
    "long": -122.325207,
    "neighborhood": "First Hill",
    "neighborhoodGroup": "East",
    "units": "E5 L9 R1"
  },
  {
    "id_str": "F220034785",
    "created_at": "3/25/2022 5:30:49 PM",
    "timestamp": 1648254649000,
    "description": "Auto Fire Alarm",
    "address": "1601 E Yesler Way",
    "active": false,
    "unitCount": 2,
    "severity": 0,
    "lat": 47.601683,
    "long": -122.311556,
    "neighborhood": "Central Area/Squire Park",
    "neighborhoodGroup": "Central",
    "units": "E6 L1"
  },