[
  {
    "id_str": "F220048279",
    "created_at": "4/27/2022 4:57:07 PM",
    "timestamp": 1651103827000,
    "description": "Aid Response",
    "address": "13426 Greenwood Ave N",
    "active": false,
    "unitCount": 1,
    "severity": 0,
    "lat": 47.726728,
    "long": -122.355555,
    "neighborhood": "Broadview/Bitter Lake",
    "neighborhoodGroup": "Northwest",
    "units": "E31"
  },
  {
    "id_str": "F220048278",
    "created_at": "4/27/2022 4:56:32 PM",
    "timestamp": 1651103792000,
    "description": "Aid Response",
    "address": "523 Broadway E",
    "active": false,
    "unitCount": 1,
    "severity": 0,
    "lat": 47.623385,
    "long": -122.320928,
    "neighborhood": "Capitol Hill",
    "neighborhoodGroup": "East",
    "units": "A25"
  },
  {
    "id_str": "F220048277",
    "created_at": "4/27/2022 4:54:06 PM",
    "timestamp": 1651103646000,
    "description": "Low Acuity Response",
    "address": "7725 31st Ave Ne",
    "active": false,
    "unitCount": 1,
    "severity": 0,
    "lat": 47.684682,
    "long": -122.29482,
    "neighborhood": "Wedgwood/View Ridge",
    "neighborhoodGroup": "Northeast",
    "units": "E40"
  },
  {
    "id_str": "F220048275",
    "created_at": "4/27/2022 4:49:15 PM",
    "timestamp": 1651103355000,
    "description": "Aid Response",
    "address": "Sb Sr99 At Comstock St / Sb Sr99 At Galer St",
    "active": false,
    "unitCount": 1,
    "severity": 0,
    "lat": 47.630568,
    "long": -122.343599,
    "neighborhood": "Queen Anne",
    "neighborhoodGroup": "Magnolia/Queen Anne",
    "units": "E8"
  },
  {
    "id_str": "F220048274",
    "created_at": "4/27/2022 4:48:28 PM",
    "timestamp": 1651103308000,
    "description": "Rubbish Fire",
    "address": "3rd Ave / Pike St",
    "active": false,
    "unitCount": 1,
    "severity": 0,
    "lat": 47.60975,
    "long": -122.337793,
    "neighborhood": "Downtown Commercial Core",
    "neighborhoodGroup": "Downtown",
    "units": "E5"
  },
  {
    "id_str": "F220048272",
    "created_at": "4/27/2022 4:46:30 PM",
    "timestamp": 1651103190000,
    "description": "Medic Response, 6 per Rule",
    "address": "2111 28th Ave W",
    "active": false,
    "unitCount": 3,
    "severity": 0,
    "lat": 47.63769,
    "long": -122.393027,
    "neighborhood": "Magnolia",
    "neighborhoodGroup": "Magnolia/Queen Anne",
    "units": "E20 E41 M18"
  },
  {
    "id_str": "F220048271",
    "created_at": "4/27/2022 4:45:48 PM",
    "timestamp": 1651103148000,
    "description": "Illegal Burn",
    "address": "8th Ave / Cherry St",
    "active": false,
    "unitCount": 2,
    "severity": 0,
    "lat": 47.605805,
    "long": -122.326513,
    "neighborhood": "First Hill",
    "neighborhoodGroup": "East",
    "units": "E10 MAR5"
  },
  {
    "id_str": "F220048269",
    "created_at": "4/27/2022 4:43:49 PM",
    "timestamp": 1651103029000,
    "description": "Aid Response",
    "address": "1221 Minor Ave",
    "active": false,
    "unitCount": 1,
    "severity": 0,
    "lat": 47.611376,
    "long": -122.325467,
    "neighborhood": "First Hill",
    "neighborhoodGroup": "East",
    "units": "A2"
  },
  {
    "id_str": "F220048268",
    "created_at": "4/27/2022 4:42:48 PM",
    "timestamp": 1651102968000,
    "description": "Aid Response",
    "address": "Ne 125th St / 28th Ave Ne",
    "active": false,
    "unitCount": 1,
    "severity": 0,
    "lat": 47.719292,
    "long": -122.297803,
    "neighborhood": "Olympic Hills/Victory Heights",
    "neighborhoodGroup": "North",
    "units": "E39"
  },
  {
    "id_str": "F220048267",
    "created_at": "4/27/2022 4:40:34 PM",
    "timestamp": 1651102834000,
    "description": "Aid Response",
    "address": "1410 E John St",
    "active": false,
    "unitCount": 1,
    "severity": 0,
    "lat": 47.61996,
    "long": -122.313736,
    "neighborhood": "Capitol Hill",
    "neighborhoodGroup": "East",
    "units": "E25"
  },
  {
    "id_str": "F220048266",
    "created_at": "4/27/2022 4:40:17 PM",
    "timestamp": 1651102817000,
    "description": "Aid Response",
    "address": "3920 50th Ave Ne",
    "active": false,
    "unitCount": 1,
    "severity": 0,
    "lat": 47.657199,
    "long": -122.273671,
    "neighborhood": "Laurelhurst/Sand Point",
    "neighborhoodGroup": "Northeast",
    "units": "E38"
  },
  {
    "id_str": "F220048265",
    "created_at": "4/27/2022 4:39:30 PM",
    "timestamp": 1651102770000,
    "description": "Low Acuity Response",
    "address": "10546 Palatine Ave N",
    "active": false,
    "unitCount": 1,
    "severity": 0,
    "lat": 47.705505,
    "long": -122.356785,
    "neighborhood": "North Beach/Blue Ridge",
    "neighborhoodGroup": "Ballard",
    "units": "L5"
  },
  {
    "id_str": "F220048264",
    "created_at": "4/27/2022 4:39:16 PM",
    "timestamp": 1651102756000,
    "description": "Aid Response",
    "address": "4644 S Gazelle St",
    "active": false,
    "unitCount": 1,
    "severity": 0,
    "lat": 47.512509,
    "long": -122.274832,
    "neighborhood": "South Beacon Hill/NewHolly",
    "neighborhoodGroup": "Greater Duwamish",
    "units": "E33"
  },
  {
    "id_str": "F220048262",
    "created_at": "4/27/2022 4:37:31 PM",
    "timestamp": 1651102651000,
    "description": "Aid Response",
    "address": "13027 Meridian Ave N",
    "active": false,
    "unitCount": 1,
    "severity": 0,
    "lat": 47.723355,
    "long": -122.334185,
    "neighborhood": "Haller Lake",
    "neighborhoodGroup": "Northwest",
    "units": "E24"
  },
  {
    "id_str": "F220048260",
    "created_at": "4/27/2022 4:28:05 PM",
    "timestamp": 1651102085000,
    "description": "Aid Response",
    "address": "9009 Greenwood Ave N",
    "active": false,
    "unitCount": 1,
    "severity": 0,
    "lat": 47.69429,
    "long": -122.35534,
    "neighborhood": "Greenwood/Phinney Ridge",
    "neighborhoodGroup": "Northwest",
    "units": "E21"
  },
  {
    "id_str": "F220048258",
    "created_at": "4/27/2022 4:20:50 PM",
    "timestamp": 1651101650000,
    "description": "Aid Response",
    "address": "507 Ne Northgate Way",
    "active": false,
    "unitCount": 1,
    "severity": 0,
    "lat": 47.708594,
    "long": -122.323211,
    "neighborhood": "Northgate/Maple Leaf",
    "neighborhoodGroup": "North",
    "units": "E31"
  },
  {
    "id_str": "F220048257",
    "created_at": "4/27/2022 4:15:52 PM",
    "timestamp": 1651101352000,
    "description": "Aid Response",
    "address": "1843 E Yesler Way",
    "active": false,
    "unitCount": 1,
    "severity": 0,
    "lat": 47.601677,
    "long": -122.308388,
    "neighborhood": "Central Area/Squire Park",
    "neighborhoodGroup": "Central",
    "units": "E6"
  },
  {
    "id_str": "F220048256",
    "created_at": "4/27/2022 4:14:02 PM",
    "timestamp": 1651101242000,
    "description": "Aid Response Yellow",
    "address": "6528 Shaffer Ave S",
    "active": false,
    "unitCount": 1,
    "severity": 0,
    "lat": 47.543474,
    "long": -122.294749,
    "neighborhood": "South Beacon Hill/NewHolly",
    "neighborhoodGroup": "Greater Duwamish",
    "units": "E28"
  },
  {
    "id_str": "F220048254",
    "created_at": "4/27/2022 4:12:29 PM",
    "timestamp": 1651101149000,
    "description": "Aid Response",
    "address": "111 Yale Ave N",
    "active": false,
    "unitCount": 1,
    "severity": 0,
    "lat": 47.618823,
    "long": -122.330413,
    "neighborhood": "Cascade/Eastlake",
    "neighborhoodGroup": "Lake Union",
    "units": "A2"
  },
  {
    "id_str": "F220048251",
    "created_at": "4/27/2022 3:44:47 PM",
    "timestamp": 1651099487000,
    "description": "Aid Response",
    "address": "155 21st Ave",
    "active": false,
    "unitCount": 3,
    "severity": 0,
    "lat": 47.602742,
    "long": -122.305039,
    "neighborhood": "Central Area/Squire Park",
    "neighborhoodGroup": "Central",
    "units": "E6 H1 MIH"
  },
  {
    "id_str": "F220048250",
    "created_at": "4/27/2022 3:44:28 PM",
    "timestamp": 1651099468000,
    "description": "Low Acuity Response",
    "address": "8600 25th Ave Sw",
    "active": false,
    "unitCount": 1,
    "severity": 0,
    "lat": 47.526482,
    "long": -122.364517,
    "neighborhood": "Roxhill/Westwood",
    "neighborhoodGroup": "Delridge Neighborhoods",
    "units": "E11"
  },
  {
    "id_str": "F220048247",
    "created_at": "4/27/2022 3:37:40 PM",
    "timestamp": 1651099060000,
    "description": "Medic Response",
    "address": "4755 Fauntleroy Way Sw",
    "active": false,
    "unitCount": 3,
    "severity": 0,
    "lat": 47.560074,
    "long": -122.381457,
    "neighborhood": "West Seattle Junction/Genesee Hill",
    "neighborhoodGroup": "Southwest",
    "units": "E32 M26 M32"
  },
  {
    "id_str": "F220048246",
    "created_at": "4/27/2022 3:34:08 PM",
    "timestamp": 1651098848000,
    "description": "Auto Fire Alarm",
    "address": "4800 Sand Point Way Ne",
    "active": false,
    "unitCount": 2,
    "severity": 0,
    "lat": 47.664275,
    "long": -122.283475,
    "neighborhood": "Laurelhurst/Sand Point",
    "neighborhoodGroup": "Northeast",
    "units": "E38 L9"
  },
  {
    "id_str": "F220048244",
    "created_at": "4/27/2022 3:31:47 PM",
    "timestamp": 1651098707000,
    "description": "Auto Fire Alarm",
    "address": "4520 M L King Jr Way S",
    "active": false,
    "unitCount": 2,
    "severity": 0,
    "lat": 47.562687,
    "long": -122.294419,
    "neighborhood": "Columbia City",
    "neighborhoodGroup": "Southeast",
    "units": "E28 L12"
  },
  {
    "id_str": "F220048243",
    "created_at": "4/27/2022 3:28:56 PM",
    "timestamp": 1651098536000,
    "description": "Aid Response",
    "address": "S Roxbury St / Renton Ave S",
    "active": false,
    "unitCount": 1,
    "severity": 0,
    "lat": 47.516849,
    "long": -122.269611,
    "neighborhood": "Rainier Beach",
    "neighborhoodGroup": "Southeast",
    "units": "E33"
  },
  {
    "id_str": "F220048238",
    "created_at": "4/27/2022 3:15:11 PM",
    "timestamp": 1651097711000,
    "description": "Aid Response",
    "address": "7925 9th Ave Sw",
    "active": false,
    "unitCount": 1,
    "severity": 0,
    "lat": 47.531708,
    "long": -122.346777,
    "neighborhood": "Highland Park",
    "neighborhoodGroup": "Delridge Neighborhoods",
    "units": "E11"
  },
  {
    "id_str": "F220048236",
    "created_at": "4/27/2022 3:09:25 PM",
    "timestamp": 1651097365000,
    "description": "Aid Response",
    "address": "15th Ave Ne / Ne 125th St",
    "active": false,
    "unitCount": 1,
    "severity": 0,
    "lat": 47.719414,
    "long": -122.312679,
    "neighborhood": "Olympic Hills/Victory Heights",
    "neighborhoodGroup": "North",
    "units": "E31"
  },
  {
    "id_str": "F220048235",
    "created_at": "4/27/2022 3:08:19 PM",
    "timestamp": 1651097299000,
    "description": "Medic Response",
    "address": "1760 Nw 56th St",
    "active": false,
    "unitCount": 2,
    "severity": 0,
    "lat": 47.669446,
    "long": -122.379526,
    "neighborhood": "Ballard",
    "neighborhoodGroup": "Ballard",
    "units": "E18 M17"
  },
  {
    "id_str": "F220048234",
    "created_at": "4/27/2022 3:07:16 PM",
    "timestamp": 1651097236000,
    "description": "Low Acuity Response",
    "address": "3625 Ne 105th St",
    "active": false,
    "unitCount": 1,
    "severity": 0,
    "lat": 47.704764,
    "long": -122.28909,
    "neighborhood": "Cedar Park/Meadowbrook",
    "neighborhoodGroup": "North",
    "units": "E40"
  },
  {
    "id_str": "F220048233",
    "created_at": "4/27/2022 3:06:15 PM",
    "timestamp": 1651097175000,
    "description": "Aid Response",
    "address": "1751 Airport Way S",
    "active": false,
    "unitCount": 2,
    "severity": 0,
    "lat": 47.587752,
    "long": -122.321392,
    "neighborhood": "Duwamish/SODO",
    "neighborhoodGroup": "Greater Duwamish",
    "units": "E10 E5"
  },
  {
    "id_str": "F220048232",
    "created_at": "4/27/2022 3:02:23 PM",
    "timestamp": 1651096943000,
    "description": "Medic Response",
    "address": "515 Minor Ave",
    "active": false,
    "unitCount": 3,
    "severity": 0,
    "lat": 47.606467,
    "long": -122.32091,
    "neighborhood": "First Hill",
    "neighborhoodGroup": "East",
    "units": "A10 L1 M10"
  },
  {
    "id_str": "F220048230",
    "created_at": "4/27/2022 3:01:03 PM",
    "timestamp": 1651096863000,
    "description": "Aid Response",
    "address": "1923 3rd Ave",
    "active": false,
    "unitCount": 4,
    "severity": 0,
    "lat": 47.611802,
    "long": -122.339884,
    "neighborhood": "Cascade/Eastlake",
    "neighborhoodGroup": "Lake Union",
    "units": "A2 A5 E10 E2"
  },
  {
    "id_str": "F220048229",
    "created_at": "4/27/2022 2:59:32 PM",
    "timestamp": 1651096772000,
    "description": "Medic Response",
    "address": "10245 39th Ave Sw",
    "active": false,
    "unitCount": 2,
    "severity": 0,
    "lat": 47.51157,
    "long": -122.381654,
    "neighborhood": "Arbor Heights",
    "neighborhoodGroup": "Southwest",
    "units": "E37 M32"
  },
  {
    "id_str": "F220048227",
    "created_at": "4/27/2022 2:43:15 PM",
    "timestamp": 1651095795000,
    "description": "Automatic Fire Alarm Resd",
    "address": "1617 5th Ave W",
    "active": false,
    "unitCount": 1,
    "severity": 0,
    "lat": 47.633627,
    "long": -122.363691,
    "neighborhood": "Queen Anne",
    "neighborhoodGroup": "Magnolia/Queen Anne",
    "units": "E8"
  },
  {
    "id_str": "F220048226",
    "created_at": "4/27/2022 2:33:10 PM",
    "timestamp": 1651095190000,
    "description": "Aid Response",
    "address": "800 Seneca St",
    "active": false,
    "unitCount": 2,
    "severity": 0,
    "lat": 47.609372,
    "long": -122.329777,
    "neighborhood": "First Hill",
    "neighborhoodGroup": "East",
    "units": "A10 E10"
  },
  {
    "id_str": "F220048225",
    "created_at": "4/27/2022 2:25:38 PM",
    "timestamp": 1651094738000,
    "description": "Illegal Burn",
    "address": "8th Ave S / S Holgate St",
    "active": false,
    "unitCount": 1,
    "severity": 0,
    "lat": 47.586101,
    "long": -122.323501,
    "neighborhood": "Duwamish/SODO",
    "neighborhoodGroup": "Greater Duwamish",
    "units": "E13"
  },
  {
    "id_str": "F220048224",
    "created_at": "4/27/2022 2:22:47 PM",
    "timestamp": 1651094567000,
    "description": "Low Acuity Response",
    "address": "1115 Nw Market St",
    "active": false,
    "unitCount": 1,
    "severity": 0,
    "lat": 47.668662,
    "long": -122.370893,
    "neighborhood": "Ballard",
    "neighborhoodGroup": "Ballard",
    "units": "H1"
  },
  {
    "id_str": "F220048223",
    "created_at": "4/27/2022 2:21:04 PM",
    "timestamp": 1651094464000,
    "description": "Aid Response",
    "address": "1519 E Spring St",
    "active": false,
    "unitCount": 1,
    "severity": 0,
    "lat": 47.611546,
    "long": -122.31255,
    "neighborhood": "Central Area/Squire Park",
    "neighborhoodGroup": "Central",
    "units": "A25"
  },
  {
    "id_str": "F220048222",
    "created_at": "4/27/2022 2:17:34 PM",
    "timestamp": 1651094254000,
    "description": "Medic Response",
    "address": "2820 Ne 127th St",
    "active": false,
    "unitCount": 2,
    "severity": 0,
    "lat": 47.721101,
    "long": -122.297581,
    "neighborhood": "Olympic Hills/Victory Heights",
    "neighborhoodGroup": "North",
    "units": "E39 M31"
  },
  {
    "id_str": "F220048220",
    "created_at": "4/27/2022 2:17:02 PM",
    "timestamp": 1651094222000,
    "description": "Rubbish Fire",
    "address": "1925 Airport Way S",
    "active": false,
    "unitCount": 1,
    "severity": 0,
    "lat": 47.585842,
    "long": -122.321393,
    "neighborhood": "Duwamish/SODO",
    "neighborhoodGroup": "Greater Duwamish",
    "units": "E2"
  },
  {
    "id_str": "F220048221",
    "created_at": "4/27/2022 2:16:42 PM",
    "timestamp": 1651094202000,
    "description": "Aid Response",
    "address": "S Dearborn St / 6th Ave S",
    "active": false,
    "unitCount": 1,
    "severity": 0,
    "lat": 47.595837,
    "long": -122.326374,
    "neighborhood": "Pioneer Square/International District",
    "neighborhoodGroup": "Downtown",
    "units": "A10"
  },
  {
    "id_str": "F220048218",
    "created_at": "4/27/2022 2:11:22 PM",
    "timestamp": 1651093882000,
    "description": "Auto Fire Alarm",
    "address": "308 4th Ave S",
    "active": false,
    "unitCount": 2,
    "severity": 0,
    "lat": 47.599968,
    "long": -122.328965,
    "neighborhood": "Pioneer Square/International District",
    "neighborhoodGroup": "Downtown",
    "units": "E6 L1"
  },
  {
    "id_str": "F220048217",
    "created_at": "4/27/2022 2:09:38 PM",
    "timestamp": 1651093778000,
    "description": "Auto Fire Alarm",
    "address": "646 S Holgate St",
    "active": false,
    "unitCount": 2,
    "severity": 0,
    "lat": 47.586158,
    "long": -122.325394,
    "neighborhood": "Duwamish/SODO",
    "neighborhoodGroup": "Greater Duwamish",
    "units": "E13 R1"
  },
  {
    "id_str": "F220048216",
    "created_at": "4/27/2022 2:08:24 PM",
    "timestamp": 1651093704000,
    "description": "Aid Response",
    "address": "2634 Franklin Ave E",
    "active": false,
    "unitCount": 1,
    "severity": 0,
    "lat": 47.643628,
    "long": -122.324627,
    "neighborhood": "Montlake/Portage Bay",
    "neighborhoodGroup": "Northeast",
    "units": "E22"
  },
  {
    "id_str": "F220048213",
    "created_at": "4/27/2022 2:06:32 PM",
    "timestamp": 1651093592000,
    "description": "Medic Response, 7 per Rule",
    "address": "3rd Ave / Cherry St",
    "active": false,
    "unitCount": 4,
    "severity": 0,
    "lat": 47.603484,
    "long": -122.332062,
    "neighborhood": "Downtown Commercial Core",
    "neighborhoodGroup": "Downtown",
    "units": "A5 E10 M17 M26"
  },
  {
    "id_str": "F220048212",
    "created_at": "4/27/2022 1:56:28 PM",
    "timestamp": 1651092988000,
    "description": "Aid Response",
    "address": "1519 E Spring St",
    "active": false,
    "unitCount": 1,
    "severity": 0,
    "lat": 47.611546,
    "long": -122.31255,
    "neighborhood": "Central Area/Squire Park",
    "neighborhoodGroup": "Central",
    "units": "A25"
  },
  {
    "id_str": "F220048209",
    "created_at": "4/27/2022 1:54:04 PM",
    "timestamp": 1651092844000,
    "description": "Aid Response",
    "address": "2nd Ave / Battery St",
    "active": false,
    "unitCount": 1,
    "severity": 0,
    "lat": 47.614809,
    "long": -122.346954,
    "neighborhood": "Belltown",
    "neighborhoodGroup": "Downtown",
    "units": "L4"
  },
  {
    "id_str": "F220048210",
    "created_at": "4/27/2022 1:53:12 PM",
    "timestamp": 1651092792000,
    "description": "Dumpster Fire",
    "address": "8th Ave / Cherry St",
    "active": false,
    "unitCount": 5,
    "severity": 1,
    "lat": 47.605805,
    "long": -122.326513,
    "neighborhood": "First Hill",
    "neighborhoodGroup": "East",
    "units": "B2 B6 E2 E25 L10"
  },
  {
    "id_str": "F220048208",
    "created_at": "4/27/2022 1:46:48 PM",
    "timestamp": 1651092408000,
    "description": "Aid Response",
    "address": "6020 28TH AVE NW",
    "active": false,
    "unitCount": 1,
    "severity": 0,
    "lat": 47.672392,
    "long": -122.392974,
    "neighborhood": "Sunset Hill/Loyal Heights",
    "neighborhoodGroup": "Ballard",
    "units": "L8"
  },
  {
    "id_str": "F220048205",
    "created_at": "4/27/2022 1:38:18 PM",
    "timestamp": 1651091898000,
    "description": "MVI - Motor Vehicle Incident",
    "address": "Sw Front St / West Marginal Way Sw",
    "active": false,
    "unitCount": 1,
    "severity": 0,
    "lat": 47.54107,
    "long": -122.343182,
    "neighborhood": "Riverview",
    "neighborhoodGroup": "Delridge Neighborhoods",
    "units": "E11"
  },
  {
    "id_str": "F220048204",
    "created_at": "4/27/2022 1:34:33 PM",
    "timestamp": 1651091673000,
    "description": "Medic Response, 6 per Rule",
    "address": "500 5th Ave",
    "active": false,
    "unitCount": 3,
    "severity": 0,
    "lat": 47.602985,
    "long": -122.328535,
    "neighborhood": "First Hill",
    "neighborhoodGroup": "East",
    "units": "A10 E10 M1"
  },
  {
    "id_str": "F220048200",
    "created_at": "4/27/2022 1:31:20 PM",
    "timestamp": 1651091480000,
    "description": "Aid Response",
    "address": "345 Boren Ave N",
    "active": false,
    "unitCount": 1,
    "severity": 0,
    "lat": 47.621388,
    "long": -122.335853,
    "neighborhood": "Cascade/Eastlake",
    "neighborhoodGroup": "Lake Union",
    "units": "A2"
  },
  {
    "id_str": "F220048201",
    "created_at": "4/27/2022 1:31:11 PM",
    "timestamp": 1651091471000,
    "description": "Aid Response",
    "address": "345 Boren Ave N",
    "active": false,
    "unitCount": 1,
    "severity": 0,
    "lat": 47.621388,
    "long": -122.335853,
    "neighborhood": "Cascade/Eastlake",
    "neighborhoodGroup": "Lake Union",
    "units": "E2"
  },
  {
    "id_str": "F220048199",
    "created_at": "4/27/2022 1:30:11 PM",
    "timestamp": 1651091411000,
    "description": "Aid Response",
    "address": "7322 Rainier Ave S",
    "active": false,
    "unitCount": 1,
    "severity": 0,
    "lat": 47.536727,
    "long": -122.27022,
    "neighborhood": "Seward Park",
    "neighborhoodGroup": "Southeast",
    "units": "E28"
  },
  {
    "id_str": "F220048198",
    "created_at": "4/27/2022 1:29:42 PM",
    "timestamp": 1651091382000,
    "description": "Aid Response",
    "address": "S Jackson St / 5th Ave S",
    "active": false,
    "unitCount": 1,
    "severity": 0,
    "lat": 47.599195,
    "long": -122.327667,
    "neighborhood": "Pioneer Square/International District",
    "neighborhoodGroup": "Downtown",
    "units": "A5"
  },
  {
    "id_str": "F220048197",
    "created_at": "4/27/2022 1:25:54 PM",
    "timestamp": 1651091154000,
    "description": "Investigate Out Of Service",
    "address": "5236 22nd Ave Ne",
    "active": false,
    "unitCount": 1,
    "severity": 0,
    "lat": 47.667468,
    "long": -122.304432,
    "neighborhood": "Ravenna/Bryant",
    "neighborhoodGroup": "Northeast",
    "units": "E17"
  },
  {
    "id_str": "F220048195",
    "created_at": "4/27/2022 1:18:53 PM",
    "timestamp": 1651090733000,
    "description": "Medic Response",
    "address": "1401 Nw 46th St",
    "active": false,
    "unitCount": 2,
    "severity": 0,
    "lat": 47.662202,
    "long": -122.373595,
    "neighborhood": "Ballard",
    "neighborhoodGroup": "Ballard",
    "units": "E18 M17"
  },
  {
    "id_str": "F220048193",
    "created_at": "4/27/2022 1:17:23 PM",
    "timestamp": 1651090643000,
    "description": "Aid Response",
    "address": "4744 41st Ave Sw",
    "active": false,
    "unitCount": 1,
    "severity": 0,
    "lat": 47.560296,
    "long": -122.38416,
    "neighborhood": "West Seattle Junction/Genesee Hill",
    "neighborhoodGroup": "Southwest",
    "units": "E36"
  },
  {
    "id_str": "F220048192",
    "created_at": "4/27/2022 1:16:36 PM",
    "timestamp": 1651090596000,
    "description": "Aid Response",
    "address": "12531 28th Ave Ne",
    "active": false,
    "unitCount": 1,
    "severity": 0,
    "lat": 47.719542,
    "long": -122.297705,
    "neighborhood": "Olympic Hills/Victory Heights",
    "neighborhoodGroup": "North",
    "units": "E39"
  },
  {
    "id_str": "F220048190",
    "created_at": "4/27/2022 1:03:03 PM",
    "timestamp": 1651089783000,
    "description": "Illegal Burn",
    "address": "N 34th St / Fremont Ave N",
    "active": false,
    "unitCount": 1,
    "severity": 0,
    "lat": 47.64959,
    "long": -122.349747,
    "neighborhood": "Fremont",
    "neighborhoodGroup": "Lake Union",
    "units": "E8"
  },
  {
    "id_str": "F220048189",
    "created_at": "4/27/2022 1:01:12 PM",
    "timestamp": 1651089672000,
    "description": "Rubbish Fire",
    "address": "N 34th St / Fremont Ave N",
    "active": false,
    "unitCount": 1,
    "severity": 0,
    "lat": 47.64959,
    "long": -122.349747,
    "neighborhood": "Fremont",
    "neighborhoodGroup": "Lake Union",
    "units": "E9"
  },
  {
    "id_str": "F220048188",
    "created_at": "4/27/2022 1:00:58 PM",
    "timestamp": 1651089658000,
    "description": "Aid Response",
    "address": "620 TERRY AVE",
    "active": false,
    "unitCount": 3,
    "severity": 0,
    "lat": 47.62479,
    "long": -122.337129,
    "neighborhood": "Cascade/Eastlake",
    "neighborhoodGroup": "Lake Union",
    "units": "A10 E10 E2"
  },
  {
    "id_str": "F220048187",
    "created_at": "4/27/2022 12:56:58 PM",
    "timestamp": 1651089418000,
    "description": "Aid Response",
    "address": "810 Virginia St",
    "active": false,
    "unitCount": 1,
    "severity": 0,
    "lat": 47.615789,
    "long": -122.336507,
    "neighborhood": "Cascade/Eastlake",
    "neighborhoodGroup": "Lake Union",
    "units": "A2"
  },
  {
    "id_str": "F220048186",
    "created_at": "4/27/2022 12:53:22 PM",
    "timestamp": 1651089202000,
    "description": "Aid Response",
    "address": "501 Rainier Ave S",
    "active": false,
    "unitCount": 1,
    "severity": 0,
    "lat": 47.598322,
    "long": -122.3134,
    "neighborhood": "Judkins Park",
    "neighborhoodGroup": "Central",
    "units": "E6"
  },
  {
    "id_str": "F220048185",
    "created_at": "4/27/2022 12:47:01 PM",
    "timestamp": 1651088821000,
    "description": "1RED 1 Unit",
    "address": "2828 23rd Ave W",
    "active": false,
    "unitCount": 1,
    "severity": 0,
    "lat": 47.645,
    "long": -122.385955,
    "neighborhood": "Interbay",
    "neighborhoodGroup": "Magnolia/Queen Anne",
    "units": "E20"
  },
  {
    "id_str": "F220048184",
    "created_at": "4/27/2022 12:42:20 PM",
    "timestamp": 1651088540000,
    "description": "Medic Response",
    "address": "4831 35th Ave Sw",
    "active": false,
    "unitCount": 2,
    "severity": 0,
    "lat": 47.558988,
    "long": -122.376234,
    "neighborhood": "West Seattle Junction/Genesee Hill",
    "neighborhoodGroup": "Southwest",
    "units": "E32 M32"
  },
  {
    "id_str": "F220048182",
    "created_at": "4/27/2022 12:36:23 PM",
    "timestamp": 1651088183000,
    "description": "Auto Fire Alarm",
    "address": "1400 2nd Ave",
    "active": false,
    "unitCount": 2,
    "severity": 0,
    "lat": 47.608292,
    "long": -122.337995,
    "neighborhood": "Downtown Commercial Core",
    "neighborhoodGroup": "Downtown",
    "units": "E5 L4"
  },
  {
    "id_str": "F220048181",
    "created_at": "4/27/2022 12:33:16 PM",
    "timestamp": 1651087996000,
    "description": "Aid Response",
    "address": "2715 6th Ave S",
    "active": false,
    "unitCount": 1,
    "severity": 0,
    "lat": 47.579653,
    "long": -122.325977,
    "neighborhood": "Duwamish/SODO",
    "neighborhoodGroup": "Greater Duwamish",
    "units": "A14"
  },
  {
    "id_str": "F220048180",
    "created_at": "4/27/2022 12:32:23 PM",
    "timestamp": 1651087943000,
    "description": "Aid Response",
    "address": "420 Boylston Ave E",
    "active": false,
    "unitCount": 1,
    "severity": 0,
    "lat": 47.62222,
    "long": -122.323073,
    "neighborhood": "Capitol Hill",
    "neighborhoodGroup": "East",
    "units": "A25"
  },
  {
    "id_str": "F220048179",
    "created_at": "4/27/2022 12:31:25 PM",
    "timestamp": 1651087885000,
    "description": "Auto Fire Alarm",
    "address": "204 Ne 94th St",
    "active": false,
    "unitCount": 3,
    "severity": 0,
    "lat": 47.69681,
    "long": -122.327101,
    "neighborhood": "Northgate/Maple Leaf",
    "neighborhoodGroup": "North",
    "units": "E16 L8 L9"
  },
  {
    "id_str": "F220048176",
    "created_at": "4/27/2022 12:26:02 PM",
    "timestamp": 1651087562000,
    "description": "MVI - Motor Vehicle Incident",
    "address": "Corson Ave S / S Vale St",
    "active": false,
    "unitCount": 1,
    "severity": 0,
    "lat": 47.548496,
    "long": -122.321151,
    "neighborhood": "Georgetown",
    "neighborhoodGroup": "Greater Duwamish",
    "units": "E27"
  },
  {
    "id_str": "F220048175",
    "created_at": "4/27/2022 12:23:21 PM",
    "timestamp": 1651087401000,
    "description": "Medic Response",
    "address": "14370 Riviera Pl Ne",
    "active": false,
    "unitCount": 3,
    "severity": 0,
    "lat": 47.733022,
    "long": -122.283874,
    "neighborhood": "Cedar Park/Meadowbrook",
    "neighborhoodGroup": "North",
    "units": "B6 L5 M31"
  },
  {
    "id_str": "F220048174",
    "created_at": "4/27/2022 12:19:10 PM",
    "timestamp": 1651087150000,
    "description": "Auto Fire Alarm",
    "address": "2121 26th Ave S",
    "active": false,
    "unitCount": 2,
    "severity": 0,
    "lat": 47.584234,
    "long": -122.299024,
    "neighborhood": "Mt. Baker/North Rainier",
    "neighborhoodGroup": "Southeast",
    "units": "E6 L1"
  },
  {
    "id_str": "F220048170",
    "created_at": "4/27/2022 12:05:01 PM",
    "timestamp": 1651086301000,
    "description": "Aid Response",
    "address": "4000 E Madison St",
    "active": false,
    "unitCount": 1,
    "severity": 0,
    "lat": 47.633728,
    "long": -122.281063,
    "neighborhood": "Madison Park",
    "neighborhoodGroup": "East",
    "units": "E34"
  },
  {
    "id_str": "F220048169",
    "created_at": "4/27/2022 12:04:28 PM",
    "timestamp": 1651086268000,
    "description": "Rescue Elevator",
    "address": "1511 Dexter Ave N",
    "active": false,
    "unitCount": 1,
    "severity": 0,
    "lat": 47.632618,
    "long": -122.342281,
    "neighborhood": "Queen Anne",
    "neighborhoodGroup": "Magnolia/Queen Anne",
    "units": "L4"
  },
  {
    "id_str": "F220048166",
    "created_at": "4/27/2022 12:00:27 PM",
    "timestamp": 1651086027000,
    "description": "Aid Response",
    "address": "1118 5th Ave",
    "active": false,
    "unitCount": 1,
    "severity": 0,
    "lat": 47.60739,
    "long": -122.332564,
    "neighborhood": "Downtown Commercial Core",
    "neighborhoodGroup": "Downtown",
    "units": "A5"
  },
  {
    "id_str": "F220048165",
    "created_at": "4/27/2022 12:00:05 PM",
    "timestamp": 1651086005000,
    "description": "MVI - Motor Vehicle Incident",
    "address": "33rd Ave S / S Hanford St",
    "active": false,
    "unitCount": 1,
    "severity": 0,
    "lat": 47.57522,
    "long": -122.290934,
    "neighborhood": "Mt. Baker/North Rainier",
    "neighborhoodGroup": "Southeast",
    "units": "E30"
  },
  {
    "id_str": "F220048164",
    "created_at": "4/27/2022 11:58:14 AM",
    "timestamp": 1651085894000,
    "description": "Aid Response",
    "address": "3204 Sw Morgan St",
    "active": false,
    "unitCount": 1,
    "severity": 0,
    "lat": 47.544669,
    "long": -122.373777,
    "neighborhood": "High Point",
    "neighborhoodGroup": "Delridge Neighborhoods",
    "units": "E37"
  },
  {
    "id_str": "F220048163",
    "created_at": "4/27/2022 11:55:04 AM",
    "timestamp": 1651085704000,
    "description": "Aid Response",
    "address": "9410 Holman Rd Nw",
    "active": false,
    "unitCount": 1,
    "severity": 0,
    "lat": 47.697698,
    "long": -122.370007,
    "neighborhood": "North Beach/Blue Ridge",
    "neighborhoodGroup": "Ballard",
    "units": "E35"
  },
  {
    "id_str": "F220048162",
    "created_at": "4/27/2022 11:53:03 AM",
    "timestamp": 1651085583000,
    "description": "Aid Response",
    "address": "13226 42nd Ave Ne",
    "active": false,
    "unitCount": 1,
    "severity": 0,
    "lat": 47.724532,
    "long": -122.282767,
    "neighborhood": "Cedar Park/Meadowbrook",
    "neighborhoodGroup": "North",
    "units": "E39"
  },
  {
    "id_str": "F220048161",
    "created_at": "4/27/2022 11:42:42 AM",
    "timestamp": 1651084962000,
    "description": "Low Acuity Response",
    "address": "5236 22nd Ave Ne",
    "active": false,
    "unitCount": 1,
    "severity": 0,
    "lat": 47.667468,
    "long": -122.304432,
    "neighborhood": "Ravenna/Bryant",
    "neighborhoodGroup": "Northeast",
    "units": "E16"
  },
  {
    "id_str": "F220048160",
    "created_at": "4/27/2022 11:39:55 AM",
    "timestamp": 1651084795000,
    "description": "AFA4 - Auto Alarm 2 + 1 + 1",
    "address": "3071 S Genesee St",
    "active": false,
    "unitCount": 2,
    "severity": 0,
    "lat": 47.5642,
    "long": -122.294023,
    "neighborhood": "Columbia City",
    "neighborhoodGroup": "Southeast",
    "units": "E30 L3"
  },
  {
    "id_str": "F220048158",
    "created_at": "4/27/2022 11:37:03 AM",
    "timestamp": 1651084623000,
    "description": "Medic Response",
    "address": "13000 Linden Ave N",
    "active": false,
    "unitCount": 2,
    "severity": 0,
    "lat": 47.723218,
    "long": -122.348195,
    "neighborhood": "Broadview/Bitter Lake",
    "neighborhoodGroup": "Northwest",
    "units": "L5 M18"
  },
  {
    "id_str": "F220048157",
    "created_at": "4/27/2022 11:26:55 AM",
    "timestamp": 1651084015000,
    "description": "Aid Response",
    "address": "9200 2nd Ave Sw",
    "active": false,
    "unitCount": 1,
    "severity": 0,
    "lat": 47.521244,
    "long": -122.336301,
    "neighborhood": "Highland Park",
    "neighborhoodGroup": "Delridge Neighborhoods",
    "units": "E26"
  },
  {
    "id_str": "F220048153",
    "created_at": "4/27/2022 11:16:59 AM",
    "timestamp": 1651083419000,
    "description": "Low Acuity Response",
    "address": "1501 17th Ave",
    "active": false,
    "unitCount": 1,
    "severity": 0,
    "lat": 47.614106,
    "long": -122.310161,
    "neighborhood": "Central Area/Squire Park",
    "neighborhoodGroup": "Central",
    "units": "E6"
  },
  {
    "id_str": "F220048152",
    "created_at": "4/27/2022 11:09:42 AM",
    "timestamp": 1651082982000,
    "description": "Aid Response",
    "address": "8th Ave Nw / Nw 46th St",
    "active": false,
    "unitCount": 1,
    "severity": 0,
    "lat": 47.662193,
    "long": -122.366195,
    "neighborhood": "Fremont",
    "neighborhoodGroup": "Lake Union",
    "units": "E9"
  },
  {
    "id_str": "F220048151",
    "created_at": "4/27/2022 11:07:10 AM",
    "timestamp": 1651082830000,
    "description": "Aid Response",
    "address": "6900 37th Ave S",
    "active": false,
    "unitCount": 1,
    "severity": 0,
    "lat": 47.540654,
    "long": -122.286239,
    "neighborhood": "South Beacon Hill/NewHolly",
    "neighborhoodGroup": "Greater Duwamish",
    "units": "E28"
  },
  {
    "id_str": "F220048150",
    "created_at": "4/27/2022 11:00:45 AM",
    "timestamp": 1651082445000,
    "description": "Aid Response",
    "address": "450 NE 100TH ST",
    "active": false,
    "unitCount": 1,
    "severity": 0,
    "lat": 47.701323,
    "long": -122.322761,
    "neighborhood": "Northgate/Maple Leaf",
    "neighborhoodGroup": "North",
    "units": "E31"
  },
  {
    "id_str": "F220048148",
    "created_at": "4/27/2022 10:48:23 AM",
    "timestamp": 1651081703000,
    "description": "Aid Response",
    "address": "2225 4th Ave",
    "active": false,
    "unitCount": 2,
    "severity": 0,
    "lat": 47.614788,
    "long": -122.342952,
    "neighborhood": "Cascade/Eastlake",
    "neighborhoodGroup": "Lake Union",
    "units": "A2 E2"
  },
  {
    "id_str": "F220048147",
    "created_at": "4/27/2022 10:45:15 AM",
    "timestamp": 1651081515000,
    "description": "MVI - Motor Vehicle Incident",
    "address": "S Holgate St / Occidental Ave S",
    "active": false,
    "unitCount": 1,
    "severity": 0,
    "lat": 47.586103,
    "long": -122.333266,
    "neighborhood": "Duwamish/SODO",
    "neighborhoodGroup": "Greater Duwamish",
    "units": "R1"
  },
  {
    "id_str": "F220048146",
    "created_at": "4/27/2022 10:42:40 AM",
    "timestamp": 1651081360000,
    "description": "Low Acuity Response",
    "address": "4251 Aurora Ave N",
    "active": false,
    "unitCount": 1,
    "severity": 0,
    "lat": 47.65932,
    "long": -122.347386,
    "neighborhood": "Fremont",
    "neighborhoodGroup": "Lake Union",
    "units": "L8"
  },
  {
    "id_str": "F220048144",
    "created_at": "4/27/2022 10:37:16 AM",
    "timestamp": 1651081036000,
    "description": "Aid Response",
    "address": "2216 E Roanoke St",
    "active": false,
    "unitCount": 1,
    "severity": 0,
    "lat": 47.643158,
    "long": -122.303023,
    "neighborhood": "Montlake/Portage Bay",
    "neighborhoodGroup": "Northeast",
    "units": "E17"
  },
  {
    "id_str": "V220048143",
    "created_at": "4/27/2022 10:36:29 AM",
    "timestamp": 1651080989000,
    "description": "Aid Response",
    "address": "1415 N 40TH ST",
    "active": false,
    "unitCount": 1,
    "severity": 0,
    "lat": 47.655672,
    "long": -122.340808,
    "neighborhood": "Fremont",
    "neighborhoodGroup": "Lake Union",
    "units": "E9"
  },
  {
    "id_str": "F220048142",
    "created_at": "4/27/2022 10:34:43 AM",
    "timestamp": 1651080883000,
    "description": "Medic Response",
    "address": "751 N 135th St",
    "active": false,
    "unitCount": 2,
    "severity": 0,
    "lat": 47.726805,
    "long": -122.347791,
    "neighborhood": "Broadview/Bitter Lake",
    "neighborhoodGroup": "Northwest",
    "units": "E24 M31"
  },
  {
    "id_str": "F220048141",
    "created_at": "4/27/2022 10:23:09 AM",
    "timestamp": 1651080189000,
    "description": "Aid Response",
    "address": "7th Ave / Denny Way",
    "active": false,
    "unitCount": 1,
    "severity": 0,
    "lat": 47.618555,
    "long": -122.343372,
    "neighborhood": "Cascade/Eastlake",
    "neighborhoodGroup": "Lake Union",
    "units": "A2"
  },
  {
    "id_str": "F220048140",
    "created_at": "4/27/2022 10:22:17 AM",
    "timestamp": 1651080137000,
    "description": "Automatic Fire Alarm Resd",
    "address": "6256 Lake Shore Dr S",
    "active": false,
    "unitCount": 1,
    "severity": 0,
    "lat": 47.545978,
    "long": -122.259233,
    "neighborhood": "Seward Park",
    "neighborhoodGroup": "Southeast",
    "units": "E28"
  },
  {
    "id_str": "F220048138",
    "created_at": "4/27/2022 10:16:27 AM",
    "timestamp": 1651079787000,
    "description": "Medic Response, 6 per Rule",
    "address": "Jefferson St / 4th Ave",
    "active": false,
    "unitCount": 4,
    "severity": 0,
    "lat": 47.60252,
    "long": -122.329645,
    "neighborhood": "Downtown Commercial Core",
    "neighborhoodGroup": "Downtown",
    "units": "A10 E5 M1 M10"
  },
  {
    "id_str": "F220048136",
    "created_at": "4/27/2022 10:12:27 AM",
    "timestamp": 1651079547000,
    "description": "Aid Response",
    "address": "9709 3rd Ave Ne",
    "active": false,
    "unitCount": 1,
    "severity": 0,
    "lat": 47.69922,
    "long": -122.325766,
    "neighborhood": "Northgate/Maple Leaf",
    "neighborhoodGroup": "North",
    "units": "L5"
  },
  {
    "id_str": "F220048135",
    "created_at": "4/27/2022 10:10:12 AM",
    "timestamp": 1651079412000,
    "description": "Medic Response",
    "address": "408 LAKE WASHINGTON BLVD E",
    "active": false,
    "unitCount": 2,
    "severity": 0,
    "lat": 47.622695,
    "long": -122.285815,
    "neighborhood": "Madrona/Leschi",
    "neighborhoodGroup": "Central",
    "units": "E34 M10"
  },
  {
    "id_str": "F220048132",
    "created_at": "4/27/2022 9:57:22 AM",
    "timestamp": 1651078642000,
    "description": "Aid Response",
    "address": "10317 32nd Ave Ne",
    "active": false,
    "unitCount": 1,
    "severity": 0,
    "lat": 47.703203,
    "long": -122.294117,
    "neighborhood": "Cedar Park/Meadowbrook",
    "neighborhoodGroup": "North",
    "units": "E39"
  },
  {
    "id_str": "F220048131",
    "created_at": "4/27/2022 9:54:51 AM",
    "timestamp": 1651078491000,
    "description": "Aid Response",
    "address": "3469 3RD AVE W",
    "active": false,
    "unitCount": 1,
    "severity": 0,
    "lat": 47.651051,
    "long": -122.360876,
    "neighborhood": "Queen Anne",
    "neighborhoodGroup": "Magnolia/Queen Anne",
    "units": "E20"
  },
  {
    "id_str": "F220048130",
    "created_at": "4/27/2022 9:53:50 AM",
    "timestamp": 1651078430000,
    "description": "Medic Response",
    "address": "3rd Ave / Pike St",
    "active": false,
    "unitCount": 2,
    "severity": 0,
    "lat": 47.60975,
    "long": -122.337793,
    "neighborhood": "Downtown Commercial Core",
    "neighborhoodGroup": "Downtown",
    "units": "A5 M10"
  },
  {
    "id_str": "F220048128",
    "created_at": "4/27/2022 9:53:33 AM",
    "timestamp": 1651078413000,
    "description": "Auto Fire Alarm",
    "address": "1902 2nd Ave",
    "active": false,
    "unitCount": 2,
    "severity": 0,
    "lat": 47.610972,
    "long": -122.340465,
    "neighborhood": "Belltown",
    "neighborhoodGroup": "Downtown",
    "units": "E2 L4"
  },
  {
    "id_str": "F220048129",
    "created_at": "4/27/2022 9:53:18 AM",
    "timestamp": 1651078398000,
    "description": "Aid Response",
    "address": "751 N 135th St",
    "active": false,
    "unitCount": 1,
    "severity": 0,
    "lat": 47.726805,
    "long": -122.347791,
    "neighborhood": "Broadview/Bitter Lake",
    "neighborhoodGroup": "Northwest",
    "units": "E31"
  },
  {
    "id_str": "F220048127",
    "created_at": "4/27/2022 9:49:38 AM",
    "timestamp": 1651078178000,
    "description": "1RED 1 Unit",
    "address": "525 1st Ave W",
    "active": false,
    "unitCount": 1,
    "severity": 0,
    "lat": 47.623593,
    "long": -122.358022,
    "neighborhood": "Queen Anne",
    "neighborhoodGroup": "Magnolia/Queen Anne",
    "units": "E8"
  },
  {
    "id_str": "F220048126",
    "created_at": "4/27/2022 9:43:11 AM",
    "timestamp": 1651077791000,
    "description": "Aid Response",
    "address": "N 109th St / Aurora Ave N",
    "active": false,
    "unitCount": 1,
    "severity": 0,
    "lat": 47.708043,
    "long": -122.344743,
    "neighborhood": "Haller Lake",
    "neighborhoodGroup": "Northwest",
    "units": "E24"
  },
  {
    "id_str": "F220048124",
    "created_at": "4/27/2022 9:33:21 AM",
    "timestamp": 1651077201000,
    "description": "Auto Fire Alarm",
    "address": "1530 N 115th St",
    "active": false,
    "unitCount": 2,
    "severity": 0,
    "lat": 47.712306,
    "long": -122.339799,
    "neighborhood": "Haller Lake",
    "neighborhoodGroup": "Northwest",
    "units": "E31 L5"
  },
  {
    "id_str": "F220048122",
    "created_at": "4/27/2022 9:25:29 AM",
    "timestamp": 1651076729000,
    "description": "Aid Response",
    "address": "7777 62nd Ave Ne",
    "active": false,
    "unitCount": 1,
    "severity": 0,
    "lat": 47.686439,
    "long": -122.264243,
    "neighborhood": "Laurelhurst/Sand Point",
    "neighborhoodGroup": "Northeast",
    "units": "E38"
  },
  {
    "id_str": "F220048121",
    "created_at": "4/27/2022 9:23:54 AM",
    "timestamp": 1651076634000,
    "description": "Aid Response",
    "address": "747 N 135th St",
    "active": false,
    "unitCount": 1,
    "severity": 0,
    "lat": 47.726803,
    "long": -122.347793,
    "neighborhood": "Broadview/Bitter Lake",
    "neighborhoodGroup": "Northwest",
    "units": "E24"
  },
  {
    "id_str": "F220048119",
    "created_at": "4/27/2022 9:16:26 AM",
    "timestamp": 1651076186000,
    "description": "MVI - Motor Vehicle Incident",
    "address": "6th Ave S / S Findlay St",
    "active": false,
    "unitCount": 1,
    "severity": 0,
    "lat": 47.552647,
    "long": -122.326869,
    "neighborhood": "Georgetown",
    "neighborhoodGroup": "Greater Duwamish",
    "units": "E27"
  },
  {
    "id_str": "F220048117",
    "created_at": "4/27/2022 9:06:41 AM",
    "timestamp": 1651075601000,
    "description": "Aid Response",
    "address": "1431 Minor Ave",
    "active": false,
    "unitCount": 1,
    "severity": 0,
    "lat": 47.613247,
    "long": -122.327187,
    "neighborhood": "Capitol Hill",
    "neighborhoodGroup": "East",
    "units": "L10"
  },
  {
    "id_str": "F220048115",
    "created_at": "4/27/2022 9:01:39 AM",
    "timestamp": 1651075299000,
    "description": "Aid Response",
    "address": "6301 West Marginal Way Sw",
    "active": false,
    "unitCount": 1,
    "severity": 0,
    "lat": 47.545506,
    "long": -122.344753,
    "neighborhood": "Riverview",
    "neighborhoodGroup": "Delridge Neighborhoods",
    "units": "E11"
  },
  {
    "id_str": "F220048114",
    "created_at": "4/27/2022 8:57:09 AM",
    "timestamp": 1651075029000,
    "description": "Aid Response",
    "address": "3rd Ave / Pike St",
    "active": false,
    "unitCount": 1,
    "severity": 0,
    "lat": 47.60975,
    "long": -122.337793,
    "neighborhood": "Downtown Commercial Core",
    "neighborhoodGroup": "Downtown",
    "units": "A2"
  },
  {
    "id_str": "F220048112",
    "created_at": "4/27/2022 8:51:51 AM",
    "timestamp": 1651074711000,
    "description": "Advised Incident",
    "address": "815 E Pine St",
    "active": false,
    "unitCount": 2,
    "severity": 0,
    "lat": 47.615227,
    "long": -122.321926,
    "neighborhood": "Capitol Hill",
    "neighborhoodGroup": "East",
    "units": "L10 L4"
  },
  {
    "id_str": "F220048110",
    "created_at": "4/27/2022 8:48:00 AM",
    "timestamp": 1651074480000,
    "description": "Aid Response",
    "address": "65 S Washington St",
    "active": false,
    "unitCount": 1,
    "severity": 0,
    "lat": 47.600886,
    "long": -122.335349,
    "neighborhood": "Pioneer Square/International District",
    "neighborhoodGroup": "Downtown",
    "units": "A10"
  },
  {
    "id_str": "F220048109",
    "created_at": "4/27/2022 8:47:47 AM",
    "timestamp": 1651074467000,
    "description": "Aid Response",
    "address": "2121 26th Ave S",
    "active": false,
    "unitCount": 1,
    "severity": 0,
    "lat": 47.584234,
    "long": -122.299024,
    "neighborhood": "Mt. Baker/North Rainier",
    "neighborhoodGroup": "Southeast",
    "units": "E30"
  },
  {
    "id_str": "F220048108",
    "created_at": "4/27/2022 8:45:43 AM",
    "timestamp": 1651074343000,
    "description": "Rescue Elevator",
    "address": "1531 Broadway",
    "active": false,
    "unitCount": 1,
    "severity": 0,
    "lat": 47.614431,
    "long": -122.320786,
    "neighborhood": "Capitol Hill",
    "neighborhoodGroup": "East",
    "units": "L10"
  },
  {
    "id_str": "F220048105",
    "created_at": "4/27/2022 8:32:52 AM",
    "timestamp": 1651073572000,
    "description": "Medic Response",
    "address": "9201 26TH AVE SW",
    "active": false,
    "unitCount": 2,
    "severity": 0,
    "lat": 47.521022,
    "long": -122.365894,
    "neighborhood": "Roxhill/Westwood",
    "neighborhoodGroup": "Delridge Neighborhoods",
    "units": "E37 M26"
  },
  {
    "id_str": "F220048103",
    "created_at": "4/27/2022 8:32:15 AM",
    "timestamp": 1651073535000,
    "description": "Aid Response",
    "address": "Yesler Way / 6th Ave S",
    "active": false,
    "unitCount": 1,
    "severity": 0,
    "lat": 47.60171,
    "long": -122.326351,
    "neighborhood": "Pioneer Square/International District",
    "neighborhoodGroup": "Downtown",
    "units": "A10"
  },
  {
    "id_str": "F220048102",
    "created_at": "4/27/2022 8:31:45 AM",
    "timestamp": 1651073505000,
    "description": "Aid Response",
    "address": "5444 Delridge Way Sw",
    "active": false,
    "unitCount": 3,
    "severity": 0,
    "lat": 47.553321,
    "long": -122.362969,
    "neighborhood": "High Point",
    "neighborhoodGroup": "Delridge Neighborhoods",
    "units": "E32 E36 M32"
  },
  {
    "id_str": "F220048101",
    "created_at": "4/27/2022 8:27:14 AM",
    "timestamp": 1651073234000,
    "description": "Aid Response",
    "address": "2622 Nw Market St",
    "active": false,
    "unitCount": 1,
    "severity": 0,
    "lat": 47.668667,
    "long": -122.390433,
    "neighborhood": "Sunset Hill/Loyal Heights",
    "neighborhoodGroup": "Ballard",
    "units": "E18"
  },
  {
    "id_str": "F220048100",
    "created_at": "4/27/2022 8:24:07 AM",
    "timestamp": 1651073047000,
    "description": "Low Acuity Response",
    "address": "11501 15th Ave Ne",
    "active": false,
    "unitCount": 1,
    "severity": 0,
    "lat": 47.712167,
    "long": -122.312433,
    "neighborhood": "Olympic Hills/Victory Heights",
    "neighborhoodGroup": "North",
    "units": "E39"
  },
  {
    "id_str": "F220048099",
    "created_at": "4/27/2022 8:21:17 AM",
    "timestamp": 1651072877000,
    "description": "Aid Response",
    "address": "852 Rainier Ave S",
    "active": false,
    "unitCount": 1,
    "severity": 0,
    "lat": 47.594244,
    "long": -122.310281,
    "neighborhood": "North Beacon Hill/Jefferson Park",
    "neighborhoodGroup": "Greater Duwamish",
    "units": "A5"
  },
  {
    "id_str": "F220048097",
    "created_at": "4/27/2022 8:08:18 AM",
    "timestamp": 1651072098000,
    "description": "Aid Response",
    "address": "42nd Ave S / S Othello St",
    "active": false,
    "unitCount": 1,
    "severity": 0,
    "lat": 47.537049,
    "long": -122.280735,
    "neighborhood": "Columbia City",
    "neighborhoodGroup": "Southeast",
    "units": "E28"
  },
  {
    "id_str": "F220048096",
    "created_at": "4/27/2022 8:05:29 AM",
    "timestamp": 1651071929000,
    "description": "Aid Response",
    "address": "9000 20th Ave Sw",
    "active": false,
    "unitCount": 1,
    "severity": 0,
    "lat": 47.522863,
    "long": -122.359142,
    "neighborhood": "Roxhill/Westwood",
    "neighborhoodGroup": "Delridge Neighborhoods",
    "units": "E11"
  },
  {
    "id_str": "F220048094",
    "created_at": "4/27/2022 7:58:29 AM",
    "timestamp": 1651071509000,
    "description": "Encampment Fire",
    "address": "N 56th St / Phinney Ave N",
    "active": false,
    "unitCount": 1,
    "severity": 0,
    "lat": 47.669794,
    "long": -122.3544,
    "neighborhood": "Greenwood/Phinney Ridge",
    "neighborhoodGroup": "Northwest",
    "units": "E21"
  },
  {
    "id_str": "F220048093",
    "created_at": "4/27/2022 7:53:49 AM",
    "timestamp": 1651071229000,
    "description": "Aid Response",
    "address": "5632 47th Ave Sw",
    "active": false,
    "unitCount": 1,
    "severity": 0,
    "lat": 47.551981,
    "long": -122.392386,
    "neighborhood": "Fauntleroy/Seaview",
    "neighborhoodGroup": "Southwest",
    "units": "E32"
  },
  {
    "id_str": "F220048091",
    "created_at": "4/27/2022 7:50:12 AM",
    "timestamp": 1651071012000,
    "description": "Aid Response",
    "address": "1740 AIRPORT WAY S",
    "active": false,
    "unitCount": 1,
    "severity": 0,
    "lat": 47.588225,
    "long": -122.321391,
    "neighborhood": "Duwamish/SODO",
    "neighborhoodGroup": "Greater Duwamish",
    "units": "A5"
  },
  {
    "id_str": "F220048089",
    "created_at": "4/27/2022 7:46:40 AM",
    "timestamp": 1651070800000,
    "description": "Auto Fire Alarm",
    "address": "11030 5th Ave Ne",
    "active": false,
    "unitCount": 2,
    "severity": 0,
    "lat": 47.709488,
    "long": -122.323301,
    "neighborhood": "Northgate/Maple Leaf",
    "neighborhoodGroup": "North",
    "units": "E31 L5"
  },
  {
    "id_str": "F220048088",
    "created_at": "4/27/2022 7:36:25 AM",
    "timestamp": 1651070185000,
    "description": "Aid Response",
    "address": "3501 Rainier Ave S",
    "active": false,
    "unitCount": 1,
    "severity": 0,
    "lat": 47.571853,
    "long": -122.293193,
    "neighborhood": "Columbia City",
    "neighborhoodGroup": "Southeast",
    "units": "E13"
  },
  {
    "id_str": "F220048087",
    "created_at": "4/27/2022 7:32:39 AM",
    "timestamp": 1651069959000,
    "description": "Aid Response",
    "address": "4th Ave / Jefferson St",
    "active": false,
    "unitCount": 1,
    "severity": 0,
    "lat": 47.60252,
    "long": -122.329645,
    "neighborhood": "Downtown Commercial Core",
    "neighborhoodGroup": "Downtown",
    "units": "A10"
  },
  {
    "id_str": "F220048086",
    "created_at": "4/27/2022 7:27:27 AM",
    "timestamp": 1651069647000,
    "description": "Aid Response",
    "address": "4538 35th Ave S",
    "active": false,
    "unitCount": 1,
    "severity": 0,
    "lat": 47.562445,
    "long": -122.288818,
    "neighborhood": "Columbia City",
    "neighborhoodGroup": "Southeast",
    "units": "E30"
  },
  {
    "id_str": "F220048085",
    "created_at": "4/27/2022 7:25:27 AM",
    "timestamp": 1651069527000,
    "description": "Aid Response",
    "address": "1715 Nw 59th St",
    "active": false,
    "unitCount": 1,
    "severity": 0,
    "lat": 47.671633,
    "long": -122.379034,
    "neighborhood": "Ballard",
    "neighborhoodGroup": "Ballard",
    "units": "E18"
  },
  {
    "id_str": "F220048084",
    "created_at": "4/27/2022 7:13:12 AM",
    "timestamp": 1651068792000,
    "description": "Rubbish Fire",
    "address": "1516 15th Ave W",
    "active": false,
    "unitCount": 1,
    "severity": 0,
    "lat": 47.632791,
    "long": -122.376045,
    "neighborhood": "Interbay",
    "neighborhoodGroup": "Magnolia/Queen Anne",
    "units": "E20"
  },
  {
    "id_str": "F220048083",
    "created_at": "4/27/2022 7:03:31 AM",
    "timestamp": 1651068211000,
    "description": "Aid Response",
    "address": "2303 23rd Ave S",
    "active": false,
    "unitCount": 1,
    "severity": 0,
    "lat": 47.582916,
    "long": -122.302954,
    "neighborhood": "North Beacon Hill/Jefferson Park",
    "neighborhoodGroup": "Greater Duwamish",
    "units": "E30"
  },
  {
    "id_str": "F220048082",
    "created_at": "4/27/2022 7:01:48 AM",
    "timestamp": 1651068108000,
    "description": "Aid Response",
    "address": "10621 Bagley Ave N",
    "active": false,
    "unitCount": 1,
    "severity": 0,
    "lat": 47.706119,
    "long": -122.332607,
    "neighborhood": "Northgate/Maple Leaf",
    "neighborhoodGroup": "North",
    "units": "E31"
  },
  {
    "id_str": "F220048081",
    "created_at": "4/27/2022 7:00:46 AM",
    "timestamp": 1651068046000,
    "description": "Rubbish Fire",
    "address": "E PINE ST / NAGLE PL",
    "active": false,
    "unitCount": 1,
    "severity": 0,
    "lat": 47.615241,
    "long": -122.320016,
    "neighborhood": "Capitol Hill",
    "neighborhoodGroup": "East",
    "units": "E25"
  },
  {
    "id_str": "F220048080",
    "created_at": "4/27/2022 6:58:25 AM",
    "timestamp": 1651067905000,
    "description": "Aid Response",
    "address": "8703 25th Ave Nw",
    "active": false,
    "unitCount": 1,
    "severity": 0,
    "lat": 47.692371,
    "long": -122.388649,
    "neighborhood": "North Beach/Blue Ridge",
    "neighborhoodGroup": "Ballard",
    "units": "E35"
  },
  {
    "id_str": "F220048076",
    "created_at": "4/27/2022 6:31:48 AM",
    "timestamp": 1651066308000,
    "description": "Aid Response",
    "address": "516 Harrison St",
    "active": false,
    "unitCount": 1,
    "severity": 0,
    "lat": 47.622073,
    "long": -122.347012,
    "neighborhood": "Cascade/Eastlake",
    "neighborhoodGroup": "Lake Union",
    "units": "A2"
  },
  {
    "id_str": "F220048073",
    "created_at": "4/27/2022 5:58:30 AM",
    "timestamp": 1651064310000,
    "description": "Medic Response",
    "address": "9440 27th Ave Sw",
    "active": false,
    "unitCount": 2,
    "severity": 0,
    "lat": 47.518457,
    "long": -122.367275,
    "neighborhood": "Roxhill/Westwood",
    "neighborhoodGroup": "Delridge Neighborhoods",
    "units": "L13 M26"
  },
  {
    "id_str": "F220048072",
    "created_at": "4/27/2022 5:56:09 AM",
    "timestamp": 1651064169000,
    "description": "Aid Response",
    "address": "3280 Sw Avalon Way",
    "active": false,
    "unitCount": 1,
    "severity": 0,
    "lat": 47.564155,
    "long": -122.373284,
    "neighborhood": "North Delridge",
    "neighborhoodGroup": "Delridge Neighborhoods",
    "units": "E36"
  },
  {
    "id_str": "F220048070",
    "created_at": "4/27/2022 5:50:55 AM",
    "timestamp": 1651063855000,
    "description": "Aid Response",
    "address": "5620 29th Ave Sw",
    "active": false,
    "unitCount": 1,
    "severity": 0,
    "lat": 47.551336,
    "long": -122.369615,
    "neighborhood": "High Point",
    "neighborhoodGroup": "Delridge Neighborhoods",
    "units": "E37"
  },
  {
    "id_str": "F220048069",
    "created_at": "4/27/2022 5:43:37 AM",
    "timestamp": 1651063417000,
    "description": "Aid Response",
    "address": "6702 14th Ave Sw",
    "active": false,
    "unitCount": 1,
    "severity": 0,
    "lat": 47.54282,
    "long": -122.352613,
    "neighborhood": "Riverview",
    "neighborhoodGroup": "Delridge Neighborhoods",
    "units": "E11"
  },
  {
    "id_str": "F220048068",
    "created_at": "4/27/2022 5:42:49 AM",
    "timestamp": 1651063369000,
    "description": "Auto Fire Alarm",
    "address": "6420 California Ave Sw",
    "active": false,
    "unitCount": 2,
    "severity": 0,
    "lat": 47.545489,
    "long": -122.387208,
    "neighborhood": "Fauntleroy/Seaview",
    "neighborhoodGroup": "Southwest",
    "units": "E32 L11"
  },
  {
    "id_str": "F220048067",
    "created_at": "4/27/2022 5:37:37 AM",
    "timestamp": 1651063057000,
    "description": "Low Acuity Response",
    "address": "85 Pike St",
    "active": false,
    "unitCount": 1,
    "severity": 0,
    "lat": 47.608584,
    "long": -122.340581,
    "neighborhood": "Downtown Commercial Core",
    "neighborhoodGroup": "Downtown",
    "units": "E5"
  },
  {
    "id_str": "F220048065",
    "created_at": "4/27/2022 5:10:46 AM",
    "timestamp": 1651061446000,
    "description": "Aid Response",
    "address": "3043 S Willow St",
    "active": false,
    "unitCount": 1,
    "severity": 0,
    "lat": 47.540718,
    "long": -122.292519,
    "neighborhood": "South Beacon Hill/NewHolly",
    "neighborhoodGroup": "Greater Duwamish",
    "units": "E28"
  },
  {
    "id_str": "F220048064",
    "created_at": "4/27/2022 5:03:18 AM",
    "timestamp": 1651060998000,
    "description": "Aid Response",
    "address": "710 Cherry St",
    "active": false,
    "unitCount": 1,
    "severity": 0,
    "lat": 47.605387,
    "long": -122.327511,
    "neighborhood": "First Hill",
    "neighborhoodGroup": "East",
    "units": "A5"
  },
  {
    "id_str": "F220048062",
    "created_at": "4/27/2022 4:49:54 AM",
    "timestamp": 1651060194000,
    "description": "Aid Response Yellow",
    "address": "3408 63RD AVE SW",
    "active": false,
    "unitCount": 1,
    "severity": 0,
    "lat": 47.573827,
    "long": -122.413413,
    "neighborhood": "Alki/Admiral",
    "neighborhoodGroup": "Southwest",
    "units": "E29"
  },
  {
    "id_str": "F220048061",
    "created_at": "4/27/2022 4:40:48 AM",
    "timestamp": 1651059648000,
    "description": "Medic Response",
    "address": "116 Stewart St",
    "active": false,
    "unitCount": 2,
    "severity": 0,
    "lat": 47.610387,
    "long": -122.341198,
    "neighborhood": "Belltown",
    "neighborhoodGroup": "Downtown",
    "units": "A2 M10"
  },
  {
    "id_str": "F220048058",
    "created_at": "4/27/2022 4:21:33 AM",
    "timestamp": 1651058493000,
    "description": "Medic Response",
    "address": "1225 10th Ave",
    "active": false,
    "unitCount": 2,
    "severity": 0,
    "lat": 47.612462,
    "long": -122.319394,
    "neighborhood": "Capitol Hill",
    "neighborhoodGroup": "East",
    "units": "A25 M1"
  },
  {
    "id_str": "F220048057",
    "created_at": "4/27/2022 4:16:12 AM",
    "timestamp": 1651058172000,
    "description": "Investigate Out Of Service",
    "address": "2308 Sw Brandon St",
    "active": false,
    "unitCount": 1,
    "severity": 0,
    "lat": 47.553715,
    "long": -122.361831,
    "neighborhood": "Riverview",
    "neighborhoodGroup": "Delridge Neighborhoods",
    "units": "E36"
  },
  {
    "id_str": "F220048055",
    "created_at": "4/27/2022 3:51:56 AM",
    "timestamp": 1651056716000,
    "description": "Aid Response",
    "address": "220 23rd Ave E",
    "active": false,
    "unitCount": 1,
    "severity": 0,
    "lat": 47.620433,
    "long": -122.302496,
    "neighborhood": "Central Area/Squire Park",
    "neighborhoodGroup": "Central",
    "units": "A25"
  },
  {
    "id_str": "F220048054",
    "created_at": "4/27/2022 3:49:25 AM",
    "timestamp": 1651056565000,
    "description": "Aid Response",
    "address": "4003 Airport Way S",
    "active": false,
    "unitCount": 1,
    "severity": 0,
    "lat": 47.568046,
    "long": -122.322673,
    "neighborhood": "Duwamish/SODO",
    "neighborhoodGroup": "Greater Duwamish",
    "units": "A14"
  },
  {
    "id_str": "F220048053",
    "created_at": "4/27/2022 3:15:26 AM",
    "timestamp": 1651054526000,
    "description": "Dumpster Fire",
    "address": "2730 Westlake Ave N",
    "active": false,
    "unitCount": 1,
    "severity": 0,
    "lat": 47.644944,
    "long": -122.347092,
    "neighborhood": "Queen Anne",
    "neighborhoodGroup": "Magnolia/Queen Anne",
    "units": "E9"
  },
  {
    "id_str": "F220048052",
    "created_at": "4/27/2022 3:10:14 AM",
    "timestamp": 1651054214000,
    "description": "Medic Response",
    "address": "5036 25th Ave Ne",
    "active": false,
    "unitCount": 2,
    "severity": 0,
    "lat": 47.665668,
    "long": -122.300628,
    "neighborhood": "Ravenna/Bryant",
    "neighborhoodGroup": "Northeast",
    "units": "E38 M17"
  },
  {
    "id_str": "F220048049",
    "created_at": "4/27/2022 2:35:52 AM",
    "timestamp": 1651052152000,
    "description": "Aid Response",
    "address": "2401 Sw Holden St",
    "active": false,
    "unitCount": 1,
    "severity": 0,
    "lat": 47.533698,
    "long": -122.363185,
    "neighborhood": "High Point",
    "neighborhoodGroup": "Delridge Neighborhoods",
    "units": "E37"
  },
  {
    "id_str": "F220048048",
    "created_at": "4/27/2022 2:31:51 AM",
    "timestamp": 1651051911000,
    "description": "Aid Response",
    "address": "823 Madison St",
    "active": false,
    "unitCount": 1,
    "severity": 0,
    "lat": 47.608054,
    "long": -122.32821,
    "neighborhood": "First Hill",
    "neighborhoodGroup": "East",
    "units": "A10"
  },
  {
    "id_str": "F220048047",
    "created_at": "4/27/2022 2:08:50 AM",
    "timestamp": 1651050530000,
    "description": "Aid Response",
    "address": "501 Rainier Ave S",
    "active": false,
    "unitCount": 1,
    "severity": 0,
    "lat": 47.598322,
    "long": -122.3134,
    "neighborhood": "Judkins Park",
    "neighborhoodGroup": "Central",
    "units": "E6"
  },
  {
    "id_str": "F220048046",
    "created_at": "4/27/2022 2:08:09 AM",
    "timestamp": 1651050489000,
    "description": "Aid Response",
    "address": "1701 Broadway",
    "active": false,
    "unitCount": 1,
    "severity": 0,
    "lat": 47.616403,
    "long": -122.320817,
    "neighborhood": "Capitol Hill",
    "neighborhoodGroup": "East",
    "units": "A25"
  },
  {
    "id_str": "F220048045",
    "created_at": "4/27/2022 1:56:32 AM",
    "timestamp": 1651049792000,
    "description": "Alarm Bell",
    "address": "1039 6th Ave S",
    "active": false,
    "unitCount": 1,
    "severity": 0,
    "lat": 47.593751,
    "long": -122.325968,
    "neighborhood": "Duwamish/SODO",
    "neighborhoodGroup": "Greater Duwamish",
    "units": "E10"
  },
  {
    "id_str": "F220048044",
    "created_at": "4/27/2022 1:55:03 AM",
    "timestamp": 1651049703000,
    "description": "Aid Response",
    "address": "501 S Royal Brougham Way",
    "active": false,
    "unitCount": 1,
    "severity": 0,
    "lat": 47.592396,
    "long": -122.327325,
    "neighborhood": "Duwamish/SODO",
    "neighborhoodGroup": "Greater Duwamish",
    "units": "A5"
  },
  {
    "id_str": "F220048043",
    "created_at": "4/27/2022 1:48:16 AM",
    "timestamp": 1651049296000,
    "description": "Medic Response",
    "address": "3501 Rainier Ave S",
    "active": false,
    "unitCount": 2,
    "severity": 0,
    "lat": 47.571853,
    "long": -122.293193,
    "neighborhood": "Columbia City",
    "neighborhoodGroup": "Southeast",
    "units": "E30 M28"
  },
  {
    "id_str": "F220048041",
    "created_at": "4/27/2022 1:35:37 AM",
    "timestamp": 1651048537000,
    "description": "Medic Response",
    "address": "4127 Linden Ave N",
    "active": false,
    "unitCount": 2,
    "severity": 0,
    "lat": 47.656948,
    "long": -122.348552,
    "neighborhood": "Fremont",
    "neighborhoodGroup": "Lake Union",
    "units": "E9 M17"
  },
  {
    "id_str": "F220048040",
    "created_at": "4/27/2022 1:33:45 AM",
    "timestamp": 1651048425000,
    "description": "Medic Response",
    "address": "442 S Main St",
    "active": false,
    "unitCount": 2,
    "severity": 0,
    "lat": 47.600035,
    "long": -122.328407,
    "neighborhood": "Pioneer Square/International District",
    "neighborhoodGroup": "Downtown",
    "units": "A10 M10"
  },
  {
    "id_str": "F220048039",
    "created_at": "4/27/2022 1:28:11 AM",
    "timestamp": 1651048091000,
    "description": "Aid Response",
    "address": "9541 Ashworth Ave N",
    "active": false,
    "unitCount": 1,
    "severity": 0,
    "lat": 47.698157,
    "long": -122.339707,
    "neighborhood": "Licton Springs",
    "neighborhoodGroup": "Northwest",
    "units": "E31"
  },
  {
    "id_str": "F220048038",
    "created_at": "4/27/2022 1:21:47 AM",
    "timestamp": 1651047707000,
    "description": "Aid Response Yellow",
    "address": "6th Ave S / Airport Way S",
    "active": false,
    "unitCount": 2,
    "severity": 0,
    "lat": 47.594923,
    "long": -122.325967,
    "neighborhood": "Duwamish/SODO",
    "neighborhoodGroup": "Greater Duwamish",
    "units": "A5 E10"
  },
  {
    "id_str": "F220048035",
    "created_at": "4/27/2022 1:03:20 AM",
    "timestamp": 1651046600000,
    "description": "Rubbish Fire",
    "address": "Roosevelt Way Ne / Ne 108th St",
    "active": false,
    "unitCount": 1,
    "severity": 0,
    "lat": 47.707651,
    "long": -122.317839,
    "neighborhood": "Northgate/Maple Leaf",
    "neighborhoodGroup": "North",
    "units": "E31"
  },
  {
    "id_str": "F220048034",
    "created_at": "4/27/2022 1:02:37 AM",
    "timestamp": 1651046557000,
    "description": "Aid Response",
    "address": "1908 Post Al",
    "active": false,
    "unitCount": 1,
    "severity": 0,
    "lat": 47.609999,
    "long": -122.341834,
    "neighborhood": "Belltown",
    "neighborhoodGroup": "Downtown",
    "units": "A2"
  },
  {
    "id_str": "F220048033",
    "created_at": "4/27/2022 1:01:41 AM",
    "timestamp": 1651046501000,
    "description": "Encampment Aid",
    "address": "6th Ave S / Airport Way S",
    "active": false,
    "unitCount": 2,
    "severity": 0,
    "lat": 47.594923,
    "long": -122.325967,
    "neighborhood": "Duwamish/SODO",
    "neighborhoodGroup": "Greater Duwamish",
    "units": "A10 E10"
  },
  {
    "id_str": "F220048029",
    "created_at": "4/27/2022 12:43:01 AM",
    "timestamp": 1651045381000,
    "description": "Medic Response, 7 per Rule",
    "address": "Roosevelt Way Ne / Ne 72nd St",
    "active": false,
    "unitCount": 3,
    "severity": 0,
    "lat": 47.680863,
    "long": -122.317443,
    "neighborhood": "Ravenna/Bryant",
    "neighborhoodGroup": "Northeast",
    "units": "E16 E17 M17"
  },
  {
    "id_str": "F220048026",
    "created_at": "4/27/2022 12:30:44 AM",
    "timestamp": 1651044644000,
    "description": "Aid Response",
    "address": "3rd Ave S / S Main St",
    "active": false,
    "unitCount": 1,
    "severity": 0,
    "lat": 47.599991,
    "long": -122.330342,
    "neighborhood": "Pioneer Square/International District",
    "neighborhoodGroup": "Downtown",
    "units": "A5"
  },
  {
    "id_str": "F220048025",
    "created_at": "4/27/2022 12:26:23 AM",
    "timestamp": 1651044383000,
    "description": "Aid Response Yellow",
    "address": "209 Broadway E",
    "active": false,
    "unitCount": 1,
    "severity": 0,
    "lat": 47.620003,
    "long": -122.320875,
    "neighborhood": "Capitol Hill",
    "neighborhoodGroup": "East",
    "units": "A25"
  },
  {
    "id_str": "F220048022",
    "created_at": "4/27/2022 12:05:31 AM",
    "timestamp": 1651043131000,
    "description": "Aid Response",
    "address": "10507 Aurora Ave N",
    "active": false,
    "unitCount": 1,
    "severity": 0,
    "lat": 47.705096,
    "long": -122.344695,
    "neighborhood": "Licton Springs",
    "neighborhoodGroup": "Northwest",
    "units": "E24"
  },
  {
    "id_str": "F220048023",
    "created_at": "4/27/2022 12:03:37 AM",
    "timestamp": 1651043017000,
    "description": "Aid Response",
    "address": "937 N 96th St",
    "active": false,
    "unitCount": 1,
    "severity": 0,
    "lat": 47.698721,
    "long": -122.34681,
    "neighborhood": "Licton Springs",
    "neighborhoodGroup": "Northwest",
    "units": "E21"
  },
  {
    "id_str": "F220048021",
    "created_at": "4/27/2022 12:01:47 AM",
    "timestamp": 1651042907000,
    "description": "Medic Response",
    "address": "1010 5th Ave N",
    "active": false,
    "unitCount": 2,
    "severity": 0,
    "lat": 47.628116,
    "long": -122.347542,
    "neighborhood": "Queen Anne",
    "neighborhoodGroup": "Magnolia/Queen Anne",
    "units": "E8 M1"
  },
  {
    "id_str": "F220048020",
    "created_at": "4/26/2022 11:55:25 PM",
    "timestamp": 1651042525000,
    "description": "Aid Response",
    "address": "1717 Belmont Ave",
    "active": false,
    "unitCount": 1,
    "severity": 0,
    "lat": 47.616576,
    "long": -122.32449,
    "neighborhood": "Capitol Hill",
    "neighborhoodGroup": "East",
    "units": "A25"
  },
  {
    "id_str": "F220048019",
    "created_at": "4/26/2022 11:54:46 PM",
    "timestamp": 1651042486000,
    "description": "Aid Response",
    "address": "2332 28th Ave S",
    "active": false,
    "unitCount": 1,
    "severity": 0,
    "lat": 47.582332,
    "long": -122.296432,
    "neighborhood": "Mt. Baker/North Rainier",
    "neighborhoodGroup": "Southeast",
    "units": "E30"
  },
  {
    "id_str": "F220048018",
    "created_at": "4/26/2022 11:48:06 PM",
    "timestamp": 1651042086000,
    "description": "Aid Response",
    "address": "2327 2nd Ave",
    "active": false,
    "unitCount": 1,
    "severity": 0,
    "lat": 47.614242,
    "long": -122.346,
    "neighborhood": "Belltown",
    "neighborhoodGroup": "Downtown",
    "units": "A2"
  },
  {
    "id_str": "F220048017",
    "created_at": "4/26/2022 11:48:02 PM",
    "timestamp": 1651042082000,
    "description": "Aid Response",
    "address": "UNIVERSITY WAY NE / NE 47TH ST",
    "active": false,
    "unitCount": 1,
    "severity": 0,
    "lat": 47.663092,
    "long": -122.313102,
    "neighborhood": "University District",
    "neighborhoodGroup": "Northeast",
    "units": "E17"
  },
  {
    "id_str": "F220048014",
    "created_at": "4/26/2022 11:45:18 PM",
    "timestamp": 1651041918000,
    "description": "Auto Fire Alarm",
    "address": "11030 5th Ave Ne",
    "active": false,
    "unitCount": 2,
    "severity": 0,
    "lat": 47.709488,
    "long": -122.323301,
    "neighborhood": "Northgate/Maple Leaf",
    "neighborhoodGroup": "North",
    "units": "E31 L5"
  },
  {
    "id_str": "F220048013",
    "created_at": "4/26/2022 11:43:33 PM",
    "timestamp": 1651041813000,
    "description": "Low Acuity Response",
    "address": "5727 Renton Ave S",
    "active": false,
    "unitCount": 1,
    "severity": 0,
    "lat": 47.551016,
    "long": -122.284995,
    "neighborhood": "Columbia City",
    "neighborhoodGroup": "Southeast",
    "units": "E28"
  },
  {
    "id_str": "F220048012",
    "created_at": "4/26/2022 11:42:40 PM",
    "timestamp": 1651041760000,
    "description": "Medic Response",
    "address": "S Weller St / 5th Ave S",
    "active": false,
    "unitCount": 2,
    "severity": 0,
    "lat": 47.597517,
    "long": -122.327675,
    "neighborhood": "Pioneer Square/International District",
    "neighborhoodGroup": "Downtown",
    "units": "A10 M10"
  },
  {
    "id_str": "F220048011",
    "created_at": "4/26/2022 11:36:54 PM",
    "timestamp": 1651041414000,
    "description": "Aid Response",
    "address": "3441 W Blaine St",
    "active": false,
    "unitCount": 1,
    "severity": 0,
    "lat": 47.634722,
    "long": -122.401284,
    "neighborhood": "Magnolia",
    "neighborhoodGroup": "Magnolia/Queen Anne",
    "units": "E41"
  },
  {
    "id_str": "F220048010",
    "created_at": "4/26/2022 11:31:47 PM",
    "timestamp": 1651041107000,
    "description": "Low Acuity Response",
    "address": "13410 Greenwood Ave N",
    "active": false,
    "unitCount": 1,
    "severity": 0,
    "lat": 47.726531,
    "long": -122.355554,
    "neighborhood": "Broadview/Bitter Lake",
    "neighborhoodGroup": "Northwest",
    "units": "E24"
  },
  {
    "id_str": "F220048009",
    "created_at": "4/26/2022 11:30:33 PM",
    "timestamp": 1651041033000,
    "description": "Encampment Fire",
    "address": "3005 Nw Locks Pl",
    "active": false,
    "unitCount": 1,
    "severity": 0,
    "lat": 47.667821,
    "long": -122.396176,
    "neighborhood": "Sunset Hill/Loyal Heights",
    "neighborhoodGroup": "Ballard",
    "units": "L8"
  },
  {
    "id_str": "F220048008",
    "created_at": "4/26/2022 11:28:00 PM",
    "timestamp": 1651040880000,
    "description": "Aid Response",
    "address": "5144 Ballard Ave Nw",
    "active": false,
    "unitCount": 1,
    "severity": 0,
    "lat": 47.665191,
    "long": -122.381763,
    "neighborhood": "Ballard",
    "neighborhoodGroup": "Ballard",
    "units": "E18"
  },
  {
    "id_str": "F220048006",
    "created_at": "4/26/2022 11:10:26 PM",
    "timestamp": 1651039826000,
    "description": "Aid Response",
    "address": "411 University St",
    "active": false,
    "unitCount": 1,
    "severity": 0,
    "lat": 47.60828,
    "long": -122.334742,
    "neighborhood": "Downtown Commercial Core",
    "neighborhoodGroup": "Downtown",
    "units": "A5"
  },
  {
    "id_str": "F220048005",
    "created_at": "4/26/2022 11:06:45 PM",
    "timestamp": 1651039605000,
    "description": "Aid Response",
    "address": "123 Broadway",
    "active": false,
    "unitCount": 1,
    "severity": 0,
    "lat": 47.602343,
    "long": -122.320739,
    "neighborhood": "First Hill",
    "neighborhoodGroup": "East",
    "units": "A10"
  },
  {
    "id_str": "F220048003",
    "created_at": "4/26/2022 10:57:38 PM",
    "timestamp": 1651039058000,
    "description": "Chimney Fire",
    "address": "3520 Sw 106th St",
    "active": false,
    "unitCount": 1,
    "severity": 0,
    "lat": 47.508191,
    "long": -122.376199,
    "neighborhood": "Arbor Heights",
    "neighborhoodGroup": "Southwest",
    "units": "E37"
  },
  {
    "id_str": "F220047999",
    "created_at": "4/26/2022 10:45:19 PM",
    "timestamp": 1651038319000,
    "description": "Aid Response",
    "address": "2219 Nw 59th St",
    "active": false,
    "unitCount": 1,
    "severity": 0,
    "lat": 47.67164,
    "long": -122.385001,
    "neighborhood": "Ballard",
    "neighborhoodGroup": "Ballard",
    "units": "E21"
  },
  {
    "id_str": "F220047998",
    "created_at": "4/26/2022 10:45:04 PM",
    "timestamp": 1651038304000,
    "description": "Aid Response",
    "address": "4769 S Bond St",
    "active": false,
    "unitCount": 1,
    "severity": 0,
    "lat": 47.514262,
    "long": -122.271445,
    "neighborhood": "South Beacon Hill/NewHolly",
    "neighborhoodGroup": "Greater Duwamish",
    "units": "E33"
  },
  {
    "id_str": "F220047996",
    "created_at": "4/26/2022 10:38:46 PM",
    "timestamp": 1651037926000,
    "description": "1RED 1 Unit",
    "address": "32nd Ave Ne/ne 145th St",
    "active": false,
    "unitCount": 1,
    "severity": 0,
    "lat": 47.733764,
    "long": -122.293809,
    "units": "E40"
  },
  {
    "id_str": "F220047994",
    "created_at": "4/26/2022 10:30:58 PM",
    "timestamp": 1651037458000,
    "description": "Scenes Of Violence 14",
    "address": "223 Yesler Way",
    "active": false,
    "unitCount": 9,
    "severity": 1,
    "lat": 47.601718,
    "long": -122.331581,
    "neighborhood": "Downtown Commercial Core",
    "neighborhoodGroup": "Downtown",
    "units": "A5 B2 E10 E5 L1 M1 M17 M44 SAFT2"
  },
  {
    "id_str": "F220047990",
    "created_at": "4/26/2022 10:16:13 PM",
    "timestamp": 1651036573000,
    "description": "Aid Response",
    "address": "13737 30th Ave Ne",
    "active": false,
    "unitCount": 1,
    "severity": 0,
    "lat": 47.728181,
    "long": -122.296431,
    "neighborhood": "Cedar Park/Meadowbrook",
    "neighborhoodGroup": "North",
    "units": "E39"
  },
  {
    "id_str": "F220047989",
    "created_at": "4/26/2022 10:15:29 PM",
    "timestamp": 1651036529000,
    "description": "2RED - 1 + 1",
    "address": "4251 Aurora Ave N",
    "active": false,
    "unitCount": 2,
    "severity": 0,
    "lat": 47.65932,
    "long": -122.347386,
    "neighborhood": "Fremont",
    "neighborhoodGroup": "Lake Union",
    "units": "E9 L9"
  },
  {
    "id_str": "F220047988",
    "created_at": "4/26/2022 10:12:43 PM",
    "timestamp": 1651036363000,
    "description": "Aid Response",
    "address": "8498 Seaview Pl Nw",
    "active": false,
    "unitCount": 1,
    "severity": 0,
    "lat": 47.69064,
    "long": -122.401969,
    "neighborhood": "Sunset Hill/Loyal Heights",
    "neighborhoodGroup": "Ballard",
    "units": "E35"
  },
  {
    "id_str": "F220047985",
    "created_at": "4/26/2022 10:01:52 PM",
    "timestamp": 1651035712000,
    "description": "Low Acuity Response",
    "address": "103 Ne 54th St",
    "active": false,
    "unitCount": 1,
    "severity": 0,
    "lat": 47.667905,
    "long": -122.328224,
    "neighborhood": "Wallingford",
    "neighborhoodGroup": "Lake Union",
    "units": "E17"
  },
  {
    "id_str": "F220047984",
    "created_at": "4/26/2022 10:01:16 PM",
    "timestamp": 1651035676000,
    "description": "Aid Response",
    "address": "1st Ave / University St",
    "active": false,
    "unitCount": 1,
    "severity": 0,
    "lat": 47.606835,
    "long": -122.338197,
    "neighborhood": "Downtown Commercial Core",
    "neighborhoodGroup": "Downtown",
    "units": "E5"
  },
  {
    "id_str": "F220047982",
    "created_at": "4/26/2022 9:53:17 PM",
    "timestamp": 1651035197000,
    "description": "Medic Response",
    "address": "5421 S Moore St",
    "active": false,
    "unitCount": 2,
    "severity": 0,
    "lat": 47.499265,
    "long": -122.265892,
    "neighborhood": "Rainier Beach",
    "neighborhoodGroup": "Southeast",
    "units": "E33 M28"
  },
  {
    "id_str": "F220047981",
    "created_at": "4/26/2022 9:49:48 PM",
    "timestamp": 1651034988000,
    "description": "Aid Response",
    "address": "University St / 4th Ave",
    "active": false,
    "unitCount": 1,
    "severity": 0,
    "lat": 47.608228,
    "long": -122.334866,
    "neighborhood": "Downtown Commercial Core",
    "neighborhoodGroup": "Downtown",
    "units": "A5"
  },
  {
    "id_str": "F220047980",
    "created_at": "4/26/2022 9:46:34 PM",
    "timestamp": 1651034794000,
    "description": "Medic Response",
    "address": "3414 24th Ave S",
    "active": false,
    "unitCount": 3,
    "severity": 0,
    "lat": 47.573007,
    "long": -122.301713,
    "neighborhood": "North Beacon Hill/Jefferson Park",
    "neighborhoodGroup": "Greater Duwamish",
    "units": "E13 M1 M10"
  },
  {
    "id_str": "F220047979",
    "created_at": "4/26/2022 9:45:49 PM",
    "timestamp": 1651034749000,
    "description": "Aid Response",
    "address": "10037 39th Ave Sw",
    "active": false,
    "unitCount": 1,
    "severity": 0,
    "lat": 47.51343,
    "long": -122.381826,
    "neighborhood": "Arbor Heights",
    "neighborhoodGroup": "Southwest",
    "units": "E37"
  },
  {
    "id_str": "F220047977",
    "created_at": "4/26/2022 9:40:12 PM",
    "timestamp": 1651034412000,
    "description": "Aid Response Yellow",
    "address": "515 Madison St",
    "active": false,
    "unitCount": 1,
    "severity": 0,
    "lat": 47.606624,
    "long": -122.331628,
    "neighborhood": "First Hill",
    "neighborhoodGroup": "East",
    "units": "A10"
  },
  {
    "id_str": "F220047976",
    "created_at": "4/26/2022 9:38:22 PM",
    "timestamp": 1651034302000,
    "description": "Aid Response",
    "address": "1112 Pike St",
    "active": false,
    "unitCount": 1,
    "severity": 0,
    "lat": 47.613523,
    "long": -122.328777,
    "neighborhood": "First Hill",
    "neighborhoodGroup": "East",
    "units": "A25"
  },
  {
    "id_str": "F220047975",
    "created_at": "4/26/2022 9:33:00 PM",
    "timestamp": 1651033980000,
    "description": "Aid Response",
    "address": "810 Virginia St",
    "active": false,
    "unitCount": 2,
    "severity": 0,
    "lat": 47.615789,
    "long": -122.336507,
    "neighborhood": "Cascade/Eastlake",
    "neighborhoodGroup": "Lake Union",
    "units": "A2 L4"
  },
  {
    "id_str": "F220047972",
    "created_at": "4/26/2022 9:21:22 PM",
    "timestamp": 1651033282000,
    "description": "Medic Response",
    "address": "4739 Ballard Ave Nw",
    "active": false,
    "unitCount": 3,
    "severity": 0,
    "lat": 47.663725,
    "long": -122.380037,
    "neighborhood": "Ballard",
    "neighborhoodGroup": "Ballard",
    "units": "E18 L8 M18"
  },
  {
    "id_str": "F220047969",
    "created_at": "4/26/2022 9:15:39 PM",
    "timestamp": 1651032939000,
    "description": "Aid Response",
    "address": "8103 17th Ave Sw",
    "active": false,
    "unitCount": 1,
    "severity": 0,
    "lat": 47.530059,
    "long": -122.356402,
    "neighborhood": "Roxhill/Westwood",
    "neighborhoodGroup": "Delridge Neighborhoods",
    "units": "E11"
  },
  {
    "id_str": "F220047968",
    "created_at": "4/26/2022 9:13:17 PM",
    "timestamp": 1651032797000,
    "description": "Aid Response",
    "address": "848 E Gwinn Pl",
    "active": false,
    "unitCount": 1,
    "severity": 0,
    "lat": 47.647825,
    "long": -122.320037,
    "neighborhood": "Montlake/Portage Bay",
    "neighborhoodGroup": "Northeast",
    "units": "E22"
  },
  {
    "id_str": "F220047967",
    "created_at": "4/26/2022 9:08:17 PM",
    "timestamp": 1651032497000,
    "description": "Aid Response",
    "address": "525 MINOR AVE N",
    "active": false,
    "unitCount": 1,
    "severity": 0,
    "lat": 47.623398,
    "long": -122.333002,
    "neighborhood": "Cascade/Eastlake",
    "neighborhoodGroup": "Lake Union",
    "units": "A2"
  },
  {
    "id_str": "F220047966",
    "created_at": "4/26/2022 9:02:17 PM",
    "timestamp": 1651032137000,
    "description": "Aid Response",
    "address": "900 Poplar Pl S",
    "active": false,
    "unitCount": 1,
    "severity": 0,
    "lat": 47.594759,
    "long": -122.312014,
    "neighborhood": "North Beacon Hill/Jefferson Park",
    "neighborhoodGroup": "Greater Duwamish",
    "units": "A5"
  },
  {
    "id_str": "F220047964",
    "created_at": "4/26/2022 8:47:31 PM",
    "timestamp": 1651031251000,
    "description": "Encampment Fire",
    "address": "1532 15th Ave W",
    "active": false,
    "unitCount": 1,
    "severity": 0,
    "lat": 47.632915,
    "long": -122.376096,
    "neighborhood": "Interbay",
    "neighborhoodGroup": "Magnolia/Queen Anne",
    "units": "E2"
  },
  {
    "id_str": "F220047963",
    "created_at": "4/26/2022 8:45:50 PM",
    "timestamp": 1651031150000,
    "description": "Aid Response",
    "address": "Mercer St / Queen Anne Ave N",
    "active": false,
    "unitCount": 1,
    "severity": 0,
    "lat": 47.624583,
    "long": -122.356709,
    "neighborhood": "Queen Anne",
    "neighborhoodGroup": "Magnolia/Queen Anne",
    "units": "L6"
  },
  {
    "id_str": "F220047962",
    "created_at": "4/26/2022 8:41:42 PM",
    "timestamp": 1651030902000,
    "description": "Investigate Out Of Service",
    "address": "3942 S Juneau St",
    "active": false,
    "unitCount": 1,
    "severity": 0,
    "lat": 47.549723,
    "long": -122.283042,
    "neighborhood": "Columbia City",
    "neighborhoodGroup": "Southeast",
    "units": "E28"
  },
  {
    "id_str": "F220047961",
    "created_at": "4/26/2022 8:39:02 PM",
    "timestamp": 1651030742000,
    "description": "Aid Response",
    "address": "1902 2nd Ave",
    "active": false,
    "unitCount": 1,
    "severity": 0,
    "lat": 47.610972,
    "long": -122.340465,
    "neighborhood": "Belltown",
    "neighborhoodGroup": "Downtown",
    "units": "L4"
  },
  {
    "id_str": "F220047960",
    "created_at": "4/26/2022 8:36:44 PM",
    "timestamp": 1651030604000,
    "description": "Medic Response",
    "address": "12505 Greenwood Ave N",
    "active": false,
    "unitCount": 3,
    "severity": 0,
    "lat": 47.719638,
    "long": -122.355539,
    "neighborhood": "Broadview/Bitter Lake",
    "neighborhoodGroup": "Northwest",
    "units": "E31 M26 M31"
  },
  {
    "id_str": "F220047957",
    "created_at": "4/26/2022 8:28:16 PM",
    "timestamp": 1651030096000,
    "description": "Automatic Fire Alarm Resd",
    "address": "2022 S Pearl St",
    "active": false,
    "unitCount": 1,
    "severity": 0,
    "lat": 47.556863,
    "long": -122.306536,
    "neighborhood": "Beacon Hill",
    "neighborhoodGroup": "Greater Duwamish",
    "units": "E28"
  },
  {
    "id_str": "F220047956",
    "created_at": "4/26/2022 8:22:36 PM",
    "timestamp": 1651029756000,
    "description": "Aid Response",
    "address": "2212 S Jackson St",
    "active": false,
    "unitCount": 1,
    "severity": 0,
    "lat": 47.599276,
    "long": -122.303156,
    "neighborhood": "Judkins Park",
    "neighborhoodGroup": "Central",
    "units": "L3"
  },
  {
    "id_str": "F220047955",
    "created_at": "4/26/2022 8:21:47 PM",
    "timestamp": 1651029707000,
    "description": "Medic Response",
    "address": "2416 34th Ave W",
    "active": false,
    "unitCount": 2,
    "severity": 0,
    "lat": 47.639859,
    "long": -122.400995,
    "neighborhood": "Magnolia",
    "neighborhoodGroup": "Magnolia/Queen Anne",
    "units": "E18 M26"
  },
  {
    "id_str": "F220047954",
    "created_at": "4/26/2022 8:21:13 PM",
    "timestamp": 1651029673000,
    "description": "Low Acuity Response",
    "address": "1304 Ne 42nd St",
    "active": false,
    "unitCount": 1,
    "severity": 0,
    "lat": 47.658328,
    "long": -122.314316,
    "neighborhood": "University District",
    "neighborhoodGroup": "Northeast",
    "units": "E17"
  },
  {
    "id_str": "F220047953",
    "created_at": "4/26/2022 8:20:19 PM",
    "timestamp": 1651029619000,
    "description": "Medic Response",
    "address": "11244 Greenwood Ave N",
    "active": false,
    "unitCount": 3,
    "severity": 0,
    "lat": 47.710791,
    "long": -122.355496,
    "neighborhood": "North Beach/Blue Ridge",
    "neighborhoodGroup": "Ballard",
    "units": "E24 M31 M32"
  },
  {
    "id_str": "F220047952",
    "created_at": "4/26/2022 8:18:27 PM",
    "timestamp": 1651029507000,
    "description": "Aid Response",
    "address": "1999 Western Ave",
    "active": false,
    "unitCount": 1,
    "severity": 0,
    "lat": 47.610321,
    "long": -122.343637,
    "neighborhood": "Downtown Commercial Core",
    "neighborhoodGroup": "Downtown",
    "units": "A2"
  },
  {
    "id_str": "F220047950",
    "created_at": "4/26/2022 8:14:27 PM",
    "timestamp": 1651029267000,
    "description": "Aid Response",
    "address": "1807 13th Ave S",
    "active": false,
    "unitCount": 1,
    "severity": 0,
    "lat": 47.586714,
    "long": -122.315981,
    "neighborhood": "North Beacon Hill/Jefferson Park",
    "neighborhoodGroup": "Greater Duwamish",
    "units": "E13"
  },
  {
    "id_str": "F220047948",
    "created_at": "4/26/2022 8:13:17 PM",
    "timestamp": 1651029197000,
    "description": "MVI - Motor Vehicle Incident",
    "address": "15th Ave W / W Newton St",
    "active": false,
    "unitCount": 1,
    "severity": 0,
    "lat": 47.636719,
    "long": -122.376141,
    "neighborhood": "Interbay",
    "neighborhoodGroup": "Magnolia/Queen Anne",
    "units": "E18"
  },
  {
    "id_str": "F220047947",
    "created_at": "4/26/2022 8:12:47 PM",
    "timestamp": 1651029167000,
    "description": "MVI Medic",
    "address": "15th Ave W / W Howe St",
    "active": false,
    "unitCount": 7,
    "severity": 1,
    "lat": 47.635953,
    "long": -122.376138,
    "neighborhood": "Interbay",
    "neighborhoodGroup": "Magnolia/Queen Anne",
    "units": "A2 A4 E2 E8 M31 M32 M44"
  },
  {
    "id_str": "F220047946",
    "created_at": "4/26/2022 8:11:56 PM",
    "timestamp": 1651029116000,
    "description": "Automatic Fire Alarm Resd",
    "address": "8515 Paisley Dr Ne",
    "active": false,
    "unitCount": 1,
    "severity": 0,
    "lat": 47.690691,
    "long": -122.274704,
    "neighborhood": "Wedgwood/View Ridge",
    "neighborhoodGroup": "Northeast",
    "units": "E40"
  },
  {
    "id_str": "F220047945",
    "created_at": "4/26/2022 8:10:14 PM",
    "timestamp": 1651029014000,
    "description": "Medic Response",
    "address": "3711 29th Ave W",
    "active": false,
    "unitCount": 3,
    "severity": 0,
    "lat": 47.653261,
    "long": -122.394218,
    "neighborhood": "Magnolia",
    "neighborhoodGroup": "Magnolia/Queen Anne",
    "units": "E18 E20 M1"
  },
  {
    "id_str": "F220047944",
    "created_at": "4/26/2022 8:05:12 PM",
    "timestamp": 1651028712000,
    "description": "Auto Fire Alarm",
    "address": "6420 California Ave Sw",
    "active": false,
    "unitCount": 2,
    "severity": 0,
    "lat": 47.545489,
    "long": -122.387208,
    "neighborhood": "Fauntleroy/Seaview",
    "neighborhoodGroup": "Southwest",
    "units": "E37 L13"
  },
  {
    "id_str": "F220047941",
    "created_at": "4/26/2022 8:00:41 PM",
    "timestamp": 1651028441000,
    "description": "Medic Response",
    "address": "4800 Sand Point Way Ne",
    "active": false,
    "unitCount": 2,
    "severity": 0,
    "lat": 47.664275,
    "long": -122.283475,
    "neighborhood": "Laurelhurst/Sand Point",
    "neighborhoodGroup": "Northeast",
    "units": "E38 M17"
  },
  {
    "id_str": "F220047939",
    "created_at": "4/26/2022 7:51:05 PM",
    "timestamp": 1651027865000,
    "description": "Aid Response",
    "address": "9240 2nd Ave Sw",
    "active": false,
    "unitCount": 1,
    "severity": 0,
    "lat": 47.520451,
    "long": -122.336003,
    "units": "E11"
  },
  {
    "id_str": "F220047935",
    "created_at": "4/26/2022 7:45:38 PM",
    "timestamp": 1651027538000,
    "description": "Medic Response",
    "address": "1635 S King St",
    "active": false,
    "unitCount": 2,
    "severity": 0,
    "lat": 47.598327,
    "long": -122.311119,
    "neighborhood": "Judkins Park",
    "neighborhoodGroup": "Central",
    "units": "E6 M10"
  },
  {
    "id_str": "F220047934",
    "created_at": "4/26/2022 7:44:11 PM",
    "timestamp": 1651027451000,
    "description": "Aid Response",
    "address": "3501 Rainier Ave S",
    "active": false,
    "unitCount": 1,
    "severity": 0,
    "lat": 47.571853,
    "long": -122.293193,
    "neighborhood": "Columbia City",
    "neighborhoodGroup": "Southeast",
    "units": "E30"
  },
  {
    "id_str": "F220047933",
    "created_at": "4/26/2022 7:44:04 PM",
    "timestamp": 1651027444000,
    "description": "Illegal Burn",
    "address": "17th Ave Ne / Ne 143rd St",
    "active": false,
    "unitCount": 1,
    "severity": 0,
    "lat": 47.732097,
    "long": -122.310026,
    "neighborhood": "Olympic Hills/Victory Heights",
    "neighborhoodGroup": "North",
    "units": "E39"
  },
  {
    "id_str": "F220047932",
    "created_at": "4/26/2022 7:43:01 PM",
    "timestamp": 1651027381000,
    "description": "Aid Response",
    "address": "1120 Broadway",
    "active": false,
    "unitCount": 1,
    "severity": 0,
    "lat": 47.611368,
    "long": -122.32076,
    "neighborhood": "Capitol Hill",
    "neighborhoodGroup": "East",
    "units": "E25"
  },
  {
    "id_str": "F220047931",
    "created_at": "4/26/2022 7:42:10 PM",
    "timestamp": 1651027330000,
    "description": "Aid Response",
    "address": "Broadway / Madison St",
    "active": false,
    "unitCount": 1,
    "severity": 0,
    "lat": 47.611169,
    "long": -122.32076,
    "neighborhood": "Capitol Hill",
    "neighborhoodGroup": "East",
    "units": "A25"
  },
  {
    "id_str": "F220047928",
    "created_at": "4/26/2022 7:39:10 PM",
    "timestamp": 1651027150000,
    "description": "MVI - Motor Vehicle Incident",
    "address": "Ne 103rd St / 15th Ave Ne",
    "active": false,
    "unitCount": 1,
    "severity": 0,
    "lat": 47.703067,
    "long": -122.312342,
    "neighborhood": "Northgate/Maple Leaf",
    "neighborhoodGroup": "North",
    "units": "E31"
  },
  {
    "id_str": "F220047926",
    "created_at": "4/26/2022 7:35:41 PM",
    "timestamp": 1651026941000,
    "description": "Aid Response",
    "address": "2209 1st Ave",
    "active": false,
    "unitCount": 1,
    "severity": 0,
    "lat": 47.612669,
    "long": -122.345319,
    "neighborhood": "Belltown",
    "neighborhoodGroup": "Downtown",
    "units": "A4"
  },
  {
    "id_str": "F220047925",
    "created_at": "4/26/2022 7:34:08 PM",
    "timestamp": 1651026848000,
    "description": "Aid Response",
    "address": "674 S Orcas St",
    "active": false,
    "unitCount": 1,
    "severity": 0,
    "lat": 47.55144,
    "long": -122.325073,
    "neighborhood": "Georgetown",
    "neighborhoodGroup": "Greater Duwamish",
    "units": "E27"
  },
  {
    "id_str": "F220047924",
    "created_at": "4/26/2022 7:29:54 PM",
    "timestamp": 1651026594000,
    "description": "Illegal Burn",
    "address": "Aurora Ave N / N 50th St",
    "active": false,
    "unitCount": 1,
    "severity": 0,
    "lat": 47.665007,
    "long": -122.34718,
    "neighborhood": "Green Lake",
    "neighborhoodGroup": "Northwest",
    "units": "E9"
  },
  {
    "id_str": "F220047922",
    "created_at": "4/26/2022 7:17:07 PM",
    "timestamp": 1651025827000,
    "description": "Illegal Burn",
    "address": "601 Alaskan Way",
    "active": false,
    "unitCount": 1,
    "severity": 0,
    "lat": 47.601718,
    "long": -122.336582,
    "neighborhood": "Downtown Commercial Core",
    "neighborhoodGroup": "Downtown",
    "units": "E10"
  },
  {
    "id_str": "F220047921",
    "created_at": "4/26/2022 7:15:57 PM",
    "timestamp": 1651025757000,
    "description": "Aid Response",
    "address": "S Walker St / 3rd Ave S",
    "active": false,
    "unitCount": 1,
    "severity": 0,
    "lat": 47.583975,
    "long": -122.329969,
    "neighborhood": "Duwamish/SODO",
    "neighborhoodGroup": "Greater Duwamish",
    "units": "A10"
  },
  {
    "id_str": "F220047919",
    "created_at": "4/26/2022 7:15:11 PM",
    "timestamp": 1651025711000,
    "description": "Medic Response, 7 per Rule",
    "address": "4244 33rd Ave W",
    "active": false,
    "unitCount": 3,
    "severity": 0,
    "lat": 47.658169,
    "long": -122.399516,
    "neighborhood": "Magnolia",
    "neighborhoodGroup": "Magnolia/Queen Anne",
    "units": "E20 E41 M18"
  },
  {
    "id_str": "F220047918",
    "created_at": "4/26/2022 7:10:20 PM",
    "timestamp": 1651025420000,
    "description": "Encampment Fire",
    "address": "2501 N Northlake Way",
    "active": false,
    "unitCount": 1,
    "severity": 0,
    "lat": 47.651994,
    "long": -122.329083,
    "neighborhood": "Fremont",
    "neighborhoodGroup": "Lake Union",
    "units": "E17"
  },
  {
    "id_str": "F220047917",
    "created_at": "4/26/2022 7:07:58 PM",
    "timestamp": 1651025278000,
    "description": "Medic Response",
    "address": "3203 Ne 88th St",
    "active": false,
    "unitCount": 3,
    "severity": 0,
    "lat": 47.692363,
    "long": -122.293356,
    "neighborhood": "Wedgwood/View Ridge",
    "neighborhoodGroup": "Northeast",
    "units": "E38 E40 M17"
  },
  {
    "id_str": "F220047914",
    "created_at": "4/26/2022 6:42:27 PM",
    "timestamp": 1651023747000,
    "description": "Aid Response",
    "address": "511 S DEARBORN ST",
    "active": false,
    "unitCount": 1,
    "severity": 0,
    "lat": 47.595834,
    "long": -122.324409,
    "neighborhood": "Pioneer Square/International District",
    "neighborhoodGroup": "Downtown",
    "units": "L1"
  },
  {
    "id_str": "F220047913",
    "created_at": "4/26/2022 6:36:40 PM",
    "timestamp": 1651023400000,
    "description": "Medic Response",
    "address": "2nd Ave S / S Jackson St",
    "active": false,
    "unitCount": 2,
    "severity": 0,
    "lat": 47.599201,
    "long": -122.331578,
    "neighborhood": "Duwamish/SODO",
    "neighborhoodGroup": "Greater Duwamish",
    "units": "E10 M1"
  },
  {
    "id_str": "F220047912",
    "created_at": "4/26/2022 6:29:58 PM",
    "timestamp": 1651022998000,
    "description": "Investigate Out Of Service",
    "address": "11th Ave Ne / Ne 45th St",
    "active": false,
    "unitCount": 1,
    "severity": 0,
    "lat": 47.661292,
    "long": -122.316579,
    "neighborhood": "University District",
    "neighborhoodGroup": "Northeast",
    "units": "E17"
  },
  {
    "id_str": "F220047910",
    "created_at": "4/26/2022 6:26:53 PM",
    "timestamp": 1651022813000,
    "description": "Medic Response",
    "address": "3rd Ave / Union St",
    "active": false,
    "unitCount": 2,
    "severity": 0,
    "lat": 47.608756,
    "long": -122.336885,
    "neighborhood": "Downtown Commercial Core",
    "neighborhoodGroup": "Downtown",
    "units": "A10 M10"
  },
  {
    "id_str": "F220047909",
    "created_at": "4/26/2022 6:25:04 PM",
    "timestamp": 1651022704000,
    "description": "Fire in Building",
    "address": "3233 Walnut Ave Sw",
    "active": false,
    "unitCount": 20,
    "severity": 2,
    "lat": 47.575202,
    "long": -122.383568,
    "neighborhood": "West Seattle Junction/Genesee Hill",
    "neighborhoodGroup": "Southwest",
    "units": "A14 A5 AIR10 B5 B7 DEP1 E11 E13 E32 E36 E37 L11 L13 M32 M44 MAR5 R1 REHAB1 SAFT2 STAF10"
  },
  {
    "id_str": "F220047908",
    "created_at": "4/26/2022 6:24:26 PM",
    "timestamp": 1651022666000,
    "description": "Aid Response",
    "address": "1915 4TH AVE",
    "active": false,
    "unitCount": 2,
    "severity": 0,
    "lat": 47.586059,
    "long": -122.329062,
    "neighborhood": "Duwamish/SODO",
    "neighborhoodGroup": "Greater Duwamish",
    "units": "A14 A4"
  },
  {
    "id_str": "F220047907",
    "created_at": "4/26/2022 6:23:55 PM",
    "timestamp": 1651022635000,
    "description": "Medic Response",
    "address": "1448 Nw Market St",
    "active": false,
    "unitCount": 2,
    "severity": 0,
    "lat": 47.668666,
    "long": -122.374848,
    "neighborhood": "Ballard",
    "neighborhoodGroup": "Ballard",
    "units": "E18 M18"
  },
  {
    "id_str": "F220047906",
    "created_at": "4/26/2022 6:21:29 PM",
    "timestamp": 1651022489000,
    "description": "Aid Response",
    "address": "4322 Sw Seattle St",
    "active": false,
    "unitCount": 1,
    "severity": 0,
    "lat": 47.589325,
    "long": -122.386517,
    "neighborhood": "Alki/Admiral",
    "neighborhoodGroup": "Southwest",
    "units": "E29"
  },
  {
    "id_str": "F220047905",
    "created_at": "4/26/2022 6:20:15 PM",
    "timestamp": 1651022415000,
    "description": "Auto Fire Alarm",
    "address": "1415 2nd Ave",
    "active": false,
    "unitCount": 2,
    "severity": 0,
    "lat": 47.608434,
    "long": -122.338125,
    "neighborhood": "Downtown Commercial Core",
    "neighborhoodGroup": "Downtown",
    "units": "E5 L4"
  },
  {
    "id_str": "F220047904",
    "created_at": "4/26/2022 6:14:30 PM",
    "timestamp": 1651022070000,
    "description": "Medic Response",
    "address": "4638 S Austin St",
    "active": false,
    "unitCount": 3,
    "severity": 0,
    "lat": 47.534702,
    "long": -122.274812,
    "neighborhood": "Columbia City",
    "neighborhoodGroup": "Southeast",
    "units": "E28 L12 M28"
  },
  {
    "id_str": "F220047902",
    "created_at": "4/26/2022 6:08:46 PM",
    "timestamp": 1651021726000,
    "description": "Rubbish Fire",
    "address": "3rd Ave S / S Holgate St",
    "active": false,
    "unitCount": 1,
    "severity": 0,
    "lat": 47.58617,
    "long": -122.329979,
    "neighborhood": "Duwamish/SODO",
    "neighborhoodGroup": "Greater Duwamish",
    "units": "E10"
  },
  {
    "id_str": "F220047901",
    "created_at": "4/26/2022 6:06:30 PM",
    "timestamp": 1651021590000,
    "description": "Illegal Burn",
    "address": "5701 22nd Ave Nw",
    "active": false,
    "unitCount": 1,
    "severity": 0,
    "lat": 47.670183,
    "long": -122.384743,
    "neighborhood": "Ballard",
    "neighborhoodGroup": "Ballard",
    "units": "E18"
  },