[
  {
    "id_str": "F220045020",
    "created_at": "4/19/2022 4:55:44 PM",
    "timestamp": 1650412544000,
    "description": "Medic Response",
    "address": "3802 S Othello St",
    "active": false,
    "unitCount": 2,
    "severity": 0,
    "lat": 47.537035,
    "long": -122.28468,
    "neighborhood": "South Beacon Hill/NewHolly",
    "neighborhoodGroup": "Greater Duwamish",
    "units": "E28 M28"
  },
  {
    "id_str": "F220045021",
    "created_at": "4/19/2022 4:55:33 PM",
    "timestamp": 1650412533000,
    "description": "Auto Fire Alarm",
    "address": "1101 2nd Ave",
    "active": false,
    "unitCount": 2,
    "severity": 0,
    "lat": 47.605873,
    "long": -122.335782,
    "neighborhood": "Downtown Commercial Core",
    "neighborhoodGroup": "Downtown",
    "units": "E25 L1"
  },
  {
    "id_str": "F220045018",
    "created_at": "4/19/2022 4:54:00 PM",
    "timestamp": 1650412440000,
    "description": "Aid Response",
    "address": "Ne 65th St / 16th Ave Ne",
    "active": false,
    "unitCount": 1,
    "severity": 0,
    "lat": 47.675782,
    "long": -122.310858,
    "neighborhood": "University District",
    "neighborhoodGroup": "Northeast",
    "units": "E16"
  },
  {
    "id_str": "F220045017",
    "created_at": "4/19/2022 4:52:18 PM",
    "timestamp": 1650412338000,
    "description": "Aid Response Yellow",
    "address": "6264 Stanley Ave S",
    "active": false,
    "unitCount": 1,
    "severity": 0,
    "lat": 47.546723,
    "long": -122.314626,
    "neighborhood": "Georgetown",
    "neighborhoodGroup": "Greater Duwamish",
    "units": "E27"
  },
  {
    "id_str": "F220045016",
    "created_at": "4/19/2022 4:50:02 PM",
    "timestamp": 1650412202000,
    "description": "Medic Response",
    "address": "6th Ave N / Thomas St",
    "active": false,
    "unitCount": 3,
    "severity": 0,
    "lat": 47.620898,
    "long": -122.345008,
    "neighborhood": "Cascade/Eastlake",
    "neighborhoodGroup": "Lake Union",
    "units": "A4 E2 M1"
  },
  {
    "id_str": "F220045013",
    "created_at": "4/19/2022 4:41:55 PM",
    "timestamp": 1650411715000,
    "description": "Low Acuity Response",
    "address": "120 6th Ave S",
    "active": false,
    "unitCount": 1,
    "severity": 0,
    "lat": 47.601539,
    "long": -122.326352,
    "neighborhood": "Pioneer Square/International District",
    "neighborhoodGroup": "Downtown",
    "units": "H1"
  },
  {
    "id_str": "F220045014",
    "created_at": "4/19/2022 4:41:47 PM",
    "timestamp": 1650411707000,
    "description": "Aid Response",
    "address": "4550 11th Ave Ne",
    "active": false,
    "unitCount": 1,
    "severity": 0,
    "lat": 47.661747,
    "long": -122.316567,
    "neighborhood": "University District",
    "neighborhoodGroup": "Northeast",
    "units": "L9"
  },
  {
    "id_str": "F220045012",
    "created_at": "4/19/2022 4:38:57 PM",
    "timestamp": 1650411537000,
    "description": "MVI - Motor Vehicle Incident",
    "address": "4th Ave / Cherry St",
    "active": false,
    "unitCount": 1,
    "severity": 0,
    "lat": 47.603948,
    "long": -122.330952,
    "neighborhood": "Downtown Commercial Core",
    "neighborhoodGroup": "Downtown",
    "units": "E10"
  },
  {
    "id_str": "F220045009",
    "created_at": "4/19/2022 4:37:22 PM",
    "timestamp": 1650411442000,
    "description": "Aid Response",
    "address": "26TH AVE SW / SW THISTLE ST",
    "active": false,
    "unitCount": 1,
    "severity": 0,
    "lat": 47.52828,
    "long": -122.365857,
    "neighborhood": "Roxhill/Westwood",
    "neighborhoodGroup": "Delridge Neighborhoods",
    "units": "L13"
  },
  {
    "id_str": "F220045010",
    "created_at": "4/19/2022 4:36:10 PM",
    "timestamp": 1650411370000,
    "description": "Low Acuity Response",
    "address": "2615 Sw Trenton St",
    "active": false,
    "unitCount": 1,
    "severity": 0,
    "lat": 47.52468,
    "long": -122.366071,
    "neighborhood": "Roxhill/Westwood",
    "neighborhoodGroup": "Delridge Neighborhoods",
    "units": "E37"
  },
  {
    "id_str": "F220045008",
    "created_at": "4/19/2022 4:33:40 PM",
    "timestamp": 1650411220000,
    "description": "MVI - Motor Vehicle Incident",
    "address": "Aurora Ave N / N 117th Pl",
    "active": false,
    "unitCount": 1,
    "severity": 0,
    "lat": 47.714777,
    "long": -122.344853,
    "neighborhood": "Broadview/Bitter Lake",
    "neighborhoodGroup": "Northwest",
    "units": "E31"
  },
  {
    "id_str": "F220045005",
    "created_at": "4/19/2022 4:30:24 PM",
    "timestamp": 1650411024000,
    "description": "Aid Response",
    "address": "614 E Union St",
    "active": false,
    "unitCount": 1,
    "severity": 0,
    "lat": 47.612987,
    "long": -122.324301,
    "neighborhood": "Capitol Hill",
    "neighborhoodGroup": "East",
    "units": "A25"
  },
  {
    "id_str": "F220045004",
    "created_at": "4/19/2022 4:27:07 PM",
    "timestamp": 1650410827000,
    "description": "Aid Response",
    "address": "120 Broadway",
    "active": false,
    "unitCount": 1,
    "severity": 0,
    "lat": 47.602255,
    "long": -122.320739,
    "neighborhood": "First Hill",
    "neighborhoodGroup": "East",
    "units": "A5"
  },
  {
    "id_str": "F220045003",
    "created_at": "4/19/2022 4:26:09 PM",
    "timestamp": 1650410769000,
    "description": "Auto Fire Alarm",
    "address": "1670 S Roberto Maestas Fest St",
    "active": false,
    "unitCount": 2,
    "severity": 0,
    "lat": 47.579467,
    "long": -122.311135,
    "neighborhood": "North Beacon Hill/Jefferson Park",
    "neighborhoodGroup": "Greater Duwamish",
    "units": "E30 R1"
  },
  {
    "id_str": "F220045001",
    "created_at": "4/19/2022 4:21:18 PM",
    "timestamp": 1650410478000,
    "description": "Aid Response",
    "address": "8436 Seward Park Ave S",
    "active": false,
    "unitCount": 1,
    "severity": 0,
    "lat": 47.527638,
    "long": -122.265989,
    "neighborhood": "Rainier Beach",
    "neighborhoodGroup": "Southeast",
    "units": "E33"
  },
  {
    "id_str": "F220044998",
    "created_at": "4/19/2022 4:18:37 PM",
    "timestamp": 1650410317000,
    "description": "Aid Response",
    "address": "41st Ave Sw / Sw Alaska St",
    "active": false,
    "unitCount": 2,
    "severity": 0,
    "lat": 47.561096,
    "long": -122.384137,
    "neighborhood": "West Seattle Junction/Genesee Hill",
    "neighborhoodGroup": "Southwest",
    "units": "E32 L11"
  },
  {
    "id_str": "F220044997",
    "created_at": "4/19/2022 4:12:46 PM",
    "timestamp": 1650409966000,
    "description": "Aid Response",
    "address": "3924 Montlake Blvd Ne",
    "active": false,
    "unitCount": 1,
    "severity": 0,
    "lat": 47.652514,
    "long": -122.303103,
    "neighborhood": "University District",
    "neighborhoodGroup": "Northeast",
    "units": "E17"
  },
  {
    "id_str": "F220044996",
    "created_at": "4/19/2022 4:06:16 PM",
    "timestamp": 1650409576000,
    "description": "Aid Response",
    "address": "2127 Belvidere Ave Sw",
    "active": false,
    "unitCount": 1,
    "severity": 0,
    "lat": 47.584885,
    "long": -122.380644,
    "neighborhood": "Alki/Admiral",
    "neighborhoodGroup": "Southwest",
    "units": "E29"
  },
  {
    "id_str": "F220044995",
    "created_at": "4/19/2022 3:55:16 PM",
    "timestamp": 1650408916000,
    "description": "Medic Response",
    "address": "12035 Palatine Ave N",
    "active": false,
    "unitCount": 3,
    "severity": 0,
    "lat": 47.7163,
    "long": -122.356935,
    "neighborhood": "Broadview/Bitter Lake",
    "neighborhoodGroup": "Northwest",
    "units": "E24 E31 M18"
  },
  {
    "id_str": "F220044994",
    "created_at": "4/19/2022 3:52:21 PM",
    "timestamp": 1650408741000,
    "description": "Aid Response",
    "address": "805 4th Ave N",
    "active": false,
    "unitCount": 1,
    "severity": 0,
    "lat": 47.626322,
    "long": -122.348863,
    "neighborhood": "Queen Anne",
    "neighborhoodGroup": "Magnolia/Queen Anne",
    "units": "A2"
  },
  {
    "id_str": "F220044992",
    "created_at": "4/19/2022 3:52:11 PM",
    "timestamp": 1650408731000,
    "description": "Medic Response",
    "address": "1205 Thomas St",
    "active": false,
    "unitCount": 2,
    "severity": 0,
    "lat": 47.620814,
    "long": -122.332852,
    "neighborhood": "Cascade/Eastlake",
    "neighborhoodGroup": "Lake Union",
    "units": "E2 M1"
  },
  {
    "id_str": "F220044991",
    "created_at": "4/19/2022 3:50:30 PM",
    "timestamp": 1650408630000,
    "description": "Aid Response",
    "address": "94 Bay St",
    "active": false,
    "unitCount": 2,
    "severity": 0,
    "lat": 47.618412,
    "long": -122.355206,
    "neighborhood": "Belltown",
    "neighborhoodGroup": "Downtown",
    "units": "A2 A4"
  },
  {
    "id_str": "F220044990",
    "created_at": "4/19/2022 3:49:21 PM",
    "timestamp": 1650408561000,
    "description": "Aid Response",
    "address": "450 Ne 100th St",
    "active": false,
    "unitCount": 1,
    "severity": 0,
    "lat": 47.701329,
    "long": -122.323684,
    "neighborhood": "Northgate/Maple Leaf",
    "neighborhoodGroup": "North",
    "units": "A31"
  },
  {
    "id_str": "F220044989",
    "created_at": "4/19/2022 3:40:28 PM",
    "timestamp": 1650408028000,
    "description": "Medic Response",
    "address": "113 23rd Ave S",
    "active": false,
    "unitCount": 3,
    "severity": 0,
    "lat": 47.601601,
    "long": -122.302284,
    "neighborhood": "Madrona/Leschi",
    "neighborhoodGroup": "Central",
    "units": "E6 M10 M44"
  },
  {
    "id_str": "F220044988",
    "created_at": "4/19/2022 3:39:31 PM",
    "timestamp": 1650407971000,
    "description": "MVI - Motor Vehicle Incident",
    "address": "Eastlake Ave E / Fairview Ave N",
    "active": false,
    "unitCount": 1,
    "severity": 0,
    "lat": 47.632303,
    "long": -122.326053,
    "neighborhood": "Cascade/Eastlake",
    "neighborhoodGroup": "Lake Union",
    "units": "E22"
  },
  {
    "id_str": "F220044986",
    "created_at": "4/19/2022 3:34:05 PM",
    "timestamp": 1650407645000,
    "description": "Aid Response",
    "address": "2742 Alki Ave Sw",
    "active": false,
    "unitCount": 1,
    "severity": 0,
    "lat": 47.579039,
    "long": -122.410941,
    "neighborhood": "Alki/Admiral",
    "neighborhoodGroup": "Southwest",
    "units": "E29"
  },
  {
    "id_str": "F220044985",
    "created_at": "4/19/2022 3:25:35 PM",
    "timestamp": 1650407135000,
    "description": "Aid Response",
    "address": "4515 29th Ave S",
    "active": false,
    "unitCount": 1,
    "severity": 0,
    "lat": 47.562273,
    "long": -122.295699,
    "neighborhood": "North Beacon Hill/Jefferson Park",
    "neighborhoodGroup": "Greater Duwamish",
    "units": "E28"
  },
  {
    "id_str": "F220044984",
    "created_at": "4/19/2022 3:25:16 PM",
    "timestamp": 1650407116000,
    "description": "Aid Response",
    "address": "23rd Ave / E Cherry St",
    "active": false,
    "unitCount": 1,
    "severity": 0,
    "lat": 47.608009,
    "long": -122.30277,
    "neighborhood": "Central Area/Squire Park",
    "neighborhoodGroup": "Central",
    "units": "A25"
  },
  {
    "id_str": "F220044983",
    "created_at": "4/19/2022 3:23:51 PM",
    "timestamp": 1650407031000,
    "description": "Aid Response",
    "address": "7th Ave / Columbia St",
    "active": false,
    "unitCount": 2,
    "severity": 0,
    "lat": 47.606053,
    "long": -122.328277,
    "neighborhood": "First Hill",
    "neighborhoodGroup": "East",
    "units": "A10 M1"
  },
  {
    "id_str": "F220044982",
    "created_at": "4/19/2022 3:19:20 PM",
    "timestamp": 1650406760000,
    "description": "Low Acuity Response",
    "address": "2018 32nd Ave S",
    "active": false,
    "unitCount": 1,
    "severity": 0,
    "lat": 47.584999,
    "long": -122.291925,
    "neighborhood": "Mt. Baker/North Rainier",
    "neighborhoodGroup": "Southeast",
    "units": "L3"
  },
  {
    "id_str": "F220044981",
    "created_at": "4/19/2022 3:16:15 PM",
    "timestamp": 1650406575000,
    "description": "Auto Fire Alarm",
    "address": "2717 Western Ave",
    "active": false,
    "unitCount": 2,
    "severity": 0,
    "lat": 47.615227,
    "long": -122.351628,
    "neighborhood": "Belltown",
    "neighborhoodGroup": "Downtown",
    "units": "E2 L4"
  },
  {
    "id_str": "F220044980",
    "created_at": "4/19/2022 3:15:48 PM",
    "timestamp": 1650406548000,
    "description": "Aid Response",
    "address": "2805 Rainier Ave S",
    "active": false,
    "unitCount": 1,
    "severity": 0,
    "lat": 47.578308,
    "long": -122.298119,
    "neighborhood": "Mt. Baker/North Rainier",
    "neighborhoodGroup": "Southeast",
    "units": "E6"
  },
  {
    "id_str": "F220044978",
    "created_at": "4/19/2022 3:13:26 PM",
    "timestamp": 1650406406000,
    "description": "Low Acuity Response",
    "address": "1601 E Yesler Way",
    "active": false,
    "unitCount": 1,
    "severity": 0,
    "lat": 47.601683,
    "long": -122.311556,
    "neighborhood": "Central Area/Squire Park",
    "neighborhoodGroup": "Central",
    "units": "A5"
  },
  {
    "id_str": "F220044976",
    "created_at": "4/19/2022 3:11:52 PM",
    "timestamp": 1650406312000,
    "description": "Aid Response",
    "address": "3642 33rd Ave S",
    "active": false,
    "unitCount": 1,
    "severity": 0,
    "lat": 47.571233,
    "long": -122.291003,
    "neighborhood": "Columbia City",
    "neighborhoodGroup": "Southeast",
    "units": "E30"
  },
  {
    "id_str": "F220044975",
    "created_at": "4/19/2022 3:10:51 PM",
    "timestamp": 1650406251000,
    "description": "AFA4 - Auto Alarm 2 + 1 + 1",
    "address": "1418 NW 65TH ST",
    "active": false,
    "unitCount": 2,
    "severity": 0,
    "lat": 47.675953,
    "long": -122.37406,
    "neighborhood": "Whittier Heights",
    "neighborhoodGroup": "Ballard",
    "units": "E18 L8"
  },
  {
    "id_str": "F220044973",
    "created_at": "4/19/2022 3:03:53 PM",
    "timestamp": 1650405833000,
    "description": "Aid Response",
    "address": "40th Ave Sw / Sw Alaska St",
    "active": false,
    "unitCount": 2,
    "severity": 0,
    "lat": 47.561091,
    "long": -122.382816,
    "neighborhood": "West Seattle Junction/Genesee Hill",
    "neighborhoodGroup": "Southwest",
    "units": "E29 L11"
  },
  {
    "id_str": "F220044972",
    "created_at": "4/19/2022 2:59:29 PM",
    "timestamp": 1650405569000,
    "description": "Aid Response",
    "address": "9456 16th Ave Sw",
    "active": false,
    "unitCount": 1,
    "severity": 0,
    "lat": 47.518677,
    "long": -122.355151,
    "neighborhood": "Highland Park",
    "neighborhoodGroup": "Delridge Neighborhoods",
    "units": "E11"
  },
  {
    "id_str": "F220044971",
    "created_at": "4/19/2022 2:56:12 PM",
    "timestamp": 1650405372000,
    "description": "Low Acuity Response",
    "address": "3123 S Holly St",
    "active": false,
    "unitCount": 2,
    "severity": 0,
    "lat": 47.542648,
    "long": -122.292572,
    "neighborhood": "South Beacon Hill/NewHolly",
    "neighborhoodGroup": "Greater Duwamish",
    "units": "E28 L12"
  },
  {
    "id_str": "F220044970",
    "created_at": "4/19/2022 2:51:47 PM",
    "timestamp": 1650405107000,
    "description": "Aid Response",
    "address": "Stone Way N / N 40th St",
    "active": false,
    "unitCount": 1,
    "severity": 0,
    "lat": 47.655383,
    "long": -122.342439,
    "neighborhood": "Fremont",
    "neighborhoodGroup": "Lake Union",
    "units": "E9"
  },
  {
    "id_str": "F220044969",
    "created_at": "4/19/2022 2:46:26 PM",
    "timestamp": 1650404786000,
    "description": "Aid Response",
    "address": "3rd Ave / Lenora St",
    "active": false,
    "unitCount": 1,
    "severity": 0,
    "lat": 47.613167,
    "long": -122.342193,
    "neighborhood": "Cascade/Eastlake",
    "neighborhoodGroup": "Lake Union",
    "units": "A4"
  },
  {
    "id_str": "F220044966",
    "created_at": "4/19/2022 2:41:07 PM",
    "timestamp": 1650404467000,
    "description": "Auto Fire Alarm",
    "address": "8815 Seward Park Ave S",
    "active": false,
    "unitCount": 2,
    "severity": 0,
    "lat": 47.52412,
    "long": -122.264611,
    "neighborhood": "Rainier Beach",
    "neighborhoodGroup": "Southeast",
    "units": "E33 L12"
  },
  {
    "id_str": "F220044965",
    "created_at": "4/19/2022 2:40:42 PM",
    "timestamp": 1650404442000,
    "description": "Aid Response",
    "address": "7801 Detroit Ave Sw",
    "active": false,
    "unitCount": 1,
    "severity": 0,
    "lat": 47.533045,
    "long": -122.337863,
    "neighborhood": "Highland Park",
    "neighborhoodGroup": "Delridge Neighborhoods",
    "units": "E26"
  },
  {
    "id_str": "F220044964",
    "created_at": "4/19/2022 2:35:24 PM",
    "timestamp": 1650404124000,
    "description": "Aid Response",
    "address": "4831 35th Ave Sw",
    "active": false,
    "unitCount": 1,
    "severity": 0,
    "lat": 47.558988,
    "long": -122.376234,
    "neighborhood": "West Seattle Junction/Genesee Hill",
    "neighborhoodGroup": "Southwest",
    "units": "E32"
  },
  {
    "id_str": "F220044962",
    "created_at": "4/19/2022 2:24:34 PM",
    "timestamp": 1650403474000,
    "description": "Aid Response",
    "address": "222 PIKE ST",
    "active": false,
    "unitCount": 1,
    "severity": 0,
    "lat": 47.60975,
    "long": -122.337793,
    "neighborhood": "Downtown Commercial Core",
    "neighborhoodGroup": "Downtown",
    "units": "A2"
  },
  {
    "id_str": "F220044960",
    "created_at": "4/19/2022 2:14:55 PM",
    "timestamp": 1650402895000,
    "description": "Low Acuity Response",
    "address": "2401 Ne Blakeley St",
    "active": false,
    "unitCount": 1,
    "severity": 0,
    "lat": 47.665845,
    "long": -122.301932,
    "neighborhood": "Ravenna/Bryant",
    "neighborhoodGroup": "Northeast",
    "units": "E38"
  },
  {
    "id_str": "F220044958",
    "created_at": "4/19/2022 2:08:57 PM",
    "timestamp": 1650402537000,
    "description": "Aid Response",
    "address": "1500 ALASKAN WAY",
    "active": false,
    "unitCount": 1,
    "severity": 0,
    "lat": 47.60739,
    "long": -122.332564,
    "neighborhood": "Downtown Commercial Core",
    "neighborhoodGroup": "Downtown",
    "units": "A5"
  },
  {
    "id_str": "F220044957",
    "created_at": "4/19/2022 1:59:26 PM",
    "timestamp": 1650401966000,
    "description": "Aid Response",
    "address": "12024 Greenwood Ave N",
    "active": false,
    "unitCount": 1,
    "severity": 0,
    "lat": 47.716184,
    "long": -122.355524,
    "neighborhood": "Broadview/Bitter Lake",
    "neighborhoodGroup": "Northwest",
    "units": "E31"
  },
  {
    "id_str": "F220044955",
    "created_at": "4/19/2022 1:56:06 PM",
    "timestamp": 1650401766000,
    "description": "Aid Response",
    "address": "Thomas St / 7th Ave N",
    "active": false,
    "unitCount": 1,
    "severity": 0,
    "lat": 47.620893,
    "long": -122.343685,
    "neighborhood": "Cascade/Eastlake",
    "neighborhoodGroup": "Lake Union",
    "units": "A4"
  },
  {
    "id_str": "F220044956",
    "created_at": "4/19/2022 1:55:43 PM",
    "timestamp": 1650401743000,
    "description": "Aid Response",
    "address": "4700 38th Ave Sw",
    "active": false,
    "unitCount": 1,
    "severity": 0,
    "lat": 47.561082,
    "long": -122.380063,
    "neighborhood": "West Seattle Junction/Genesee Hill",
    "neighborhoodGroup": "Southwest",
    "units": "L11"
  },
  {
    "id_str": "F220044954",
    "created_at": "4/19/2022 1:51:57 PM",
    "timestamp": 1650401517000,
    "description": "Aid Response",
    "address": "40th Ave Sw / Sw Alaska St",
    "active": false,
    "unitCount": 1,
    "severity": 0,
    "lat": 47.561091,
    "long": -122.382816,
    "neighborhood": "West Seattle Junction/Genesee Hill",
    "neighborhoodGroup": "Southwest",
    "units": "E32"
  },
  {
    "id_str": "F220044952",
    "created_at": "4/19/2022 1:49:25 PM",
    "timestamp": 1650401365000,
    "description": "Aid Response",
    "address": "1200 University St",
    "active": false,
    "unitCount": 1,
    "severity": 0,
    "lat": 47.611943,
    "long": -122.325987,
    "neighborhood": "First Hill",
    "neighborhoodGroup": "East",
    "units": "A25"
  },
  {
    "id_str": "F220044951",
    "created_at": "4/19/2022 1:46:09 PM",
    "timestamp": 1650401169000,
    "description": "Aid Response",
    "address": "747 N 135th St",
    "active": false,
    "unitCount": 1,
    "severity": 0,
    "lat": 47.726803,
    "long": -122.347793,
    "neighborhood": "Broadview/Bitter Lake",
    "neighborhoodGroup": "Northwest",
    "units": "E24"
  },
  {
    "id_str": "F220044949",
    "created_at": "4/19/2022 1:39:11 PM",
    "timestamp": 1650400751000,
    "description": "Aid Response",
    "address": "400 23rd Ave",
    "active": false,
    "unitCount": 1,
    "severity": 0,
    "lat": 47.605147,
    "long": -122.30279,
    "neighborhood": "Central Area/Squire Park",
    "neighborhoodGroup": "Central",
    "units": "E6"
  },
  {
    "id_str": "F220044947",
    "created_at": "4/19/2022 1:36:23 PM",
    "timestamp": 1650400583000,
    "description": "Aid Response",
    "address": "829 Ne Northgate Way",
    "active": false,
    "unitCount": 1,
    "severity": 0,
    "lat": 47.708575,
    "long": -122.320164,
    "neighborhood": "Northgate/Maple Leaf",
    "neighborhoodGroup": "North",
    "units": "A31"
  },
  {
    "id_str": "F220044946",
    "created_at": "4/19/2022 1:32:18 PM",
    "timestamp": 1650400338000,
    "description": "Aid Response",
    "address": "3220 17th Ave S",
    "active": false,
    "unitCount": 1,
    "severity": 0,
    "lat": 47.574882,
    "long": -122.31126,
    "neighborhood": "North Beacon Hill/Jefferson Park",
    "neighborhoodGroup": "Greater Duwamish",
    "units": "E13"
  },
  {
    "id_str": "F220044945",
    "created_at": "4/19/2022 1:29:07 PM",
    "timestamp": 1650400147000,
    "description": "Medic Response, 6 per Rule",
    "address": "2418 28th Ave W",
    "active": false,
    "unitCount": 3,
    "severity": 0,
    "lat": 47.640048,
    "long": -122.392993,
    "neighborhood": "Interbay",
    "neighborhoodGroup": "Magnolia/Queen Anne",
    "units": "E20 E41 M18"
  },
  {
    "id_str": "F220044944",
    "created_at": "4/19/2022 1:25:34 PM",
    "timestamp": 1650399934000,
    "description": "Aid Response",
    "address": "800 Ne 67th St",
    "active": false,
    "unitCount": 1,
    "severity": 0,
    "lat": 47.677309,
    "long": -122.320095,
    "neighborhood": "Green Lake",
    "neighborhoodGroup": "Northwest",
    "units": "E16"
  },
  {
    "id_str": "F220044943",
    "created_at": "4/19/2022 1:21:48 PM",
    "timestamp": 1650399708000,
    "description": "Auto Fire Alarm",
    "address": "1325 4th Ave",
    "active": false,
    "unitCount": 2,
    "severity": 0,
    "lat": 47.608471,
    "long": -122.335089,
    "neighborhood": "Downtown Commercial Core",
    "neighborhoodGroup": "Downtown",
    "units": "E5 L4"
  },
  {
    "id_str": "F220044942",
    "created_at": "4/19/2022 1:20:10 PM",
    "timestamp": 1650399610000,
    "description": "Low Acuity Response",
    "address": "10050 41st Ave Ne",
    "active": false,
    "unitCount": 1,
    "severity": 0,
    "lat": 47.70179,
    "long": -122.284298,
    "neighborhood": "Wedgwood/View Ridge",
    "neighborhoodGroup": "Northeast",
    "units": "E40"
  },
  {
    "id_str": "F220044941",
    "created_at": "4/19/2022 1:16:51 PM",
    "timestamp": 1650399411000,
    "description": "Low Acuity Response",
    "address": "4725 4th Ave Ne",
    "active": false,
    "unitCount": 3,
    "severity": 0,
    "lat": 47.663305,
    "long": -122.324008,
    "neighborhood": "Wallingford",
    "neighborhoodGroup": "Lake Union",
    "units": "E17 H1 MIH"
  },
  {
    "id_str": "F220044940",
    "created_at": "4/19/2022 1:14:31 PM",
    "timestamp": 1650399271000,
    "description": "Medic Response",
    "address": "910 Marion St",
    "active": false,
    "unitCount": 2,
    "severity": 0,
    "lat": 47.607742,
    "long": -122.326595,
    "neighborhood": "First Hill",
    "neighborhoodGroup": "East",
    "units": "A10 M10"
  },
  {
    "id_str": "F220044939",
    "created_at": "4/19/2022 1:08:56 PM",
    "timestamp": 1650398936000,
    "description": "4RED - 2 + 1 + 1",
    "address": "Highland Park Way Sw / 2nd Ave Sw",
    "active": false,
    "unitCount": 4,
    "severity": 0,
    "lat": 47.539813,
    "long": -122.337111,
    "neighborhood": "South Park",
    "neighborhoodGroup": "Greater Duwamish",
    "units": "B7 E11 E27 L13"
  },
  {
    "id_str": "F220044937",
    "created_at": "4/19/2022 1:05:32 PM",
    "timestamp": 1650398732000,
    "description": "Aid Response",
    "address": "10049 College Way N",
    "active": false,
    "unitCount": 1,
    "severity": 0,
    "lat": 47.701742,
    "long": -122.335029,
    "neighborhood": "Licton Springs",
    "neighborhoodGroup": "Northwest",
    "units": "A31"
  },
  {
    "id_str": "F220044936",
    "created_at": "4/19/2022 1:02:01 PM",
    "timestamp": 1650398521000,
    "description": "Aid Response",
    "address": "9230 2nd Ave Sw",
    "active": false,
    "unitCount": 1,
    "severity": 0,
    "lat": 47.520679,
    "long": -122.335803,
    "units": "E26"
  },
  {
    "id_str": "F220044935",
    "created_at": "4/19/2022 1:01:29 PM",
    "timestamp": 1650398489000,
    "description": "Aid Response",
    "address": "116 Stewart St",
    "active": false,
    "unitCount": 1,
    "severity": 0,
    "lat": 47.610387,
    "long": -122.341198,
    "neighborhood": "Belltown",
    "neighborhoodGroup": "Downtown",
    "units": "A4"
  },
  {
    "id_str": "F220044934",
    "created_at": "4/19/2022 12:57:16 PM",
    "timestamp": 1650398236000,
    "description": "Medic Response",
    "address": "424 Minor Ave N",
    "active": false,
    "unitCount": 2,
    "severity": 0,
    "lat": 47.622242,
    "long": -122.332995,
    "neighborhood": "Cascade/Eastlake",
    "neighborhoodGroup": "Lake Union",
    "units": "A2 M1"
  },
  {
    "id_str": "F220044930",
    "created_at": "4/19/2022 12:47:46 PM",
    "timestamp": 1650397666000,
    "description": "Aid Response",
    "address": "1211 E Alder St",
    "active": false,
    "unitCount": 1,
    "severity": 0,
    "lat": 47.60419,
    "long": -122.316781,
    "neighborhood": "First Hill",
    "neighborhoodGroup": "East",
    "units": "A25"
  },
  {
    "id_str": "F220044929",
    "created_at": "4/19/2022 12:44:46 PM",
    "timestamp": 1650397486000,
    "description": "Aid Response Yellow",
    "address": "4225 Roosevelt Way Ne",
    "active": false,
    "unitCount": 1,
    "severity": 0,
    "lat": 47.657942,
    "long": -122.317791,
    "neighborhood": "Wallingford",
    "neighborhoodGroup": "Lake Union",
    "units": "E17"
  },
  {
    "id_str": "F220044928",
    "created_at": "4/19/2022 12:40:03 PM",
    "timestamp": 1650397203000,
    "description": "Aid Response",
    "address": "10330 MERIDIAN AVE N",
    "active": false,
    "unitCount": 1,
    "severity": 0,
    "lat": 47.703486,
    "long": -122.333907,
    "neighborhood": "Northgate/Maple Leaf",
    "neighborhoodGroup": "North",
    "units": "E31"
  },
  {
    "id_str": "F220044926",
    "created_at": "4/19/2022 12:35:47 PM",
    "timestamp": 1650396947000,
    "description": "Medic Response",
    "address": "1167 Republican St",
    "active": false,
    "unitCount": 2,
    "severity": 0,
    "lat": 47.62312,
    "long": -122.333818,
    "neighborhood": "Cascade/Eastlake",
    "neighborhoodGroup": "Lake Union",
    "units": "A2 M1"
  },
  {
    "id_str": "F220044925",
    "created_at": "4/19/2022 12:35:23 PM",
    "timestamp": 1650396923000,
    "description": "Aid Response",
    "address": "10507 Aurora Ave N",
    "active": false,
    "unitCount": 1,
    "severity": 0,
    "lat": 47.705096,
    "long": -122.344695,
    "neighborhood": "Licton Springs",
    "neighborhoodGroup": "Northwest",
    "units": "A31"
  },
  {
    "id_str": "F220044923",
    "created_at": "4/19/2022 12:32:42 PM",
    "timestamp": 1650396762000,
    "description": "Aid Response",
    "address": "4609 14th Ave Nw",
    "active": false,
    "unitCount": 1,
    "severity": 0,
    "lat": 47.662262,
    "long": -122.373595,
    "neighborhood": "Ballard",
    "neighborhoodGroup": "Ballard",
    "units": "E9"
  },
  {
    "id_str": "F220044920",
    "created_at": "4/19/2022 12:31:12 PM",
    "timestamp": 1650396672000,
    "description": "Low Acuity Response",
    "address": "1004 S Cloverdale St",
    "active": false,
    "unitCount": 1,
    "severity": 0,
    "lat": 47.526457,
    "long": -122.320229,
    "neighborhood": "South Park",
    "neighborhoodGroup": "Greater Duwamish",
    "units": "E26"
  },
  {
    "id_str": "F220044918",
    "created_at": "4/19/2022 12:26:36 PM",
    "timestamp": 1650396396000,
    "description": "Aid Response",
    "address": "Lenny Wilkens Way / Warren Ave N",
    "active": false,
    "unitCount": 1,
    "severity": 0,
    "lat": 47.620931,
    "long": -122.354128,
    "neighborhood": "Queen Anne",
    "neighborhoodGroup": "Magnolia/Queen Anne",
    "units": "A4"
  },
  {
    "id_str": "F220044917",
    "created_at": "4/19/2022 12:25:55 PM",
    "timestamp": 1650396355000,
    "description": "Aid Response",
    "address": "8340 15th Ave Nw",
    "active": false,
    "unitCount": 1,
    "severity": 0,
    "lat": 47.689099,
    "long": -122.3768,
    "neighborhood": "Whittier Heights",
    "neighborhoodGroup": "Ballard",
    "units": "E35"
  },
  {
    "id_str": "F220044913",
    "created_at": "4/19/2022 12:16:40 PM",
    "timestamp": 1650395800000,
    "description": "Aid Response",
    "address": "13530 Linden Ave N",
    "active": false,
    "unitCount": 2,
    "severity": 0,
    "lat": 47.727791,
    "long": -122.347725,
    "neighborhood": "Broadview/Bitter Lake",
    "neighborhoodGroup": "Northwest",
    "units": "E24 L5"
  },
  {
    "id_str": "F220044910",
    "created_at": "4/19/2022 12:06:53 PM",
    "timestamp": 1650395213000,
    "description": "Aid Response",
    "address": "3101 E Ward St",
    "active": false,
    "unitCount": 1,
    "severity": 0,
    "lat": 47.627413,
    "long": -122.292303,
    "neighborhood": "Madison Park",
    "neighborhoodGroup": "East",
    "units": "E34"
  },
  {
    "id_str": "F220044909",
    "created_at": "4/19/2022 12:06:41 PM",
    "timestamp": 1650395201000,
    "description": "Aid Response",
    "address": "3220 17th Ave S",
    "active": false,
    "unitCount": 1,
    "severity": 0,
    "lat": 47.574882,
    "long": -122.31126,
    "neighborhood": "North Beacon Hill/Jefferson Park",
    "neighborhoodGroup": "Greater Duwamish",
    "units": "E13"
  },
  {
    "id_str": "F220044908",
    "created_at": "4/19/2022 12:03:12 PM",
    "timestamp": 1650394992000,
    "description": "Aid Response",
    "address": "1401 2nd Ave",
    "active": false,
    "unitCount": 1,
    "severity": 0,
    "lat": 47.608292,
    "long": -122.337995,
    "neighborhood": "Downtown Commercial Core",
    "neighborhoodGroup": "Downtown",
    "units": "A4"
  },
  {
    "id_str": "F220044905",
    "created_at": "4/19/2022 11:58:29 AM",
    "timestamp": 1650394709000,
    "description": "Aid Response",
    "address": "11th Ave Nw / Nw Ballard Way",
    "active": false,
    "unitCount": 1,
    "severity": 0,
    "lat": 47.662929,
    "long": -122.370767,
    "neighborhood": "Ballard",
    "neighborhoodGroup": "Ballard",
    "units": "E9"
  },
  {
    "id_str": "F220044904",
    "created_at": "4/19/2022 11:57:18 AM",
    "timestamp": 1650394638000,
    "description": "Low Acuity Response",
    "address": "314 E Pike St",
    "active": false,
    "unitCount": 1,
    "severity": 0,
    "lat": 47.613984,
    "long": -122.327676,
    "neighborhood": "Capitol Hill",
    "neighborhoodGroup": "East",
    "units": "H1"
  },
  {
    "id_str": "F220044903",
    "created_at": "4/19/2022 11:55:45 AM",
    "timestamp": 1650394545000,
    "description": "Aid Response",
    "address": "1100 Minor Ave",
    "active": false,
    "unitCount": 1,
    "severity": 0,
    "lat": 47.610516,
    "long": -122.324681,
    "neighborhood": "First Hill",
    "neighborhoodGroup": "East",
    "units": "A25"
  },
  {
    "id_str": "F220044902",
    "created_at": "4/19/2022 11:52:26 AM",
    "timestamp": 1650394346000,
    "description": "Aid Response",
    "address": "4321 15th Ave S",
    "active": false,
    "unitCount": 1,
    "severity": 0,
    "lat": 47.564826,
    "long": -122.313497,
    "neighborhood": "North Beacon Hill/Jefferson Park",
    "neighborhoodGroup": "Greater Duwamish",
    "units": "E13"
  },
  {
    "id_str": "F220044901",
    "created_at": "4/19/2022 11:49:37 AM",
    "timestamp": 1650394177000,
    "description": "Aid Response",
    "address": "4739 44th Ave Sw",
    "active": false,
    "unitCount": 1,
    "severity": 0,
    "lat": 47.560423,
    "long": -122.388152,
    "neighborhood": "West Seattle Junction/Genesee Hill",
    "neighborhoodGroup": "Southwest",
    "units": "A14"
  },
  {
    "id_str": "F220044899",
    "created_at": "4/19/2022 11:48:42 AM",
    "timestamp": 1650394122000,
    "description": "Low Acuity Response",
    "address": "4545 42nd Ave Sw",
    "active": false,
    "unitCount": 1,
    "severity": 0,
    "lat": 47.562472,
    "long": -122.385455,
    "neighborhood": "West Seattle Junction/Genesee Hill",
    "neighborhoodGroup": "Southwest",
    "units": "E29"
  },
  {
    "id_str": "F220044898",
    "created_at": "4/19/2022 11:47:45 AM",
    "timestamp": 1650394065000,
    "description": "Aid Response",
    "address": "2519 1st Ave",
    "active": false,
    "unitCount": 1,
    "severity": 0,
    "lat": 47.614798,
    "long": -122.348918,
    "neighborhood": "Belltown",
    "neighborhoodGroup": "Downtown",
    "units": "A4"
  },
  {
    "id_str": "F220044897",
    "created_at": "4/19/2022 11:46:37 AM",
    "timestamp": 1650393997000,
    "description": "Rescue Elevator",
    "address": "6520 35th Ave Sw",
    "active": false,
    "unitCount": 1,
    "severity": 0,
    "lat": 47.544499,
    "long": -122.376449,
    "neighborhood": "High Point",
    "neighborhoodGroup": "Delridge Neighborhoods",
    "units": "L13"
  },
  {
    "id_str": "F220044896",
    "created_at": "4/19/2022 11:45:28 AM",
    "timestamp": 1650393928000,
    "description": "Aid Response",
    "address": "12318 15th Ave Ne",
    "active": false,
    "unitCount": 1,
    "severity": 0,
    "lat": 47.717758,
    "long": -122.312622,
    "neighborhood": "Olympic Hills/Victory Heights",
    "neighborhoodGroup": "North",
    "units": "A31"
  },
  {
    "id_str": "F220044892",
    "created_at": "4/19/2022 11:28:41 AM",
    "timestamp": 1650392921000,
    "description": "Aid Response",
    "address": "3601 Ne 123rd St",
    "active": false,
    "unitCount": 1,
    "severity": 0,
    "lat": 47.717331,
    "long": -122.289297,
    "neighborhood": "Cedar Park/Meadowbrook",
    "neighborhoodGroup": "North",
    "units": "E39"
  },
  {
    "id_str": "F220044891",
    "created_at": "4/19/2022 11:21:56 AM",
    "timestamp": 1650392516000,
    "description": "Unk Odor",
    "address": "615 S Holgate St",
    "active": false,
    "unitCount": 1,
    "severity": 0,
    "lat": 47.586169,
    "long": -122.325786,
    "neighborhood": "Duwamish/SODO",
    "neighborhoodGroup": "Greater Duwamish",
    "units": "R1"
  },
  {
    "id_str": "F220044889",
    "created_at": "4/19/2022 11:16:43 AM",
    "timestamp": 1650392203000,
    "description": "Aid Response",
    "address": "2014 Nw 57th St",
    "active": false,
    "unitCount": 1,
    "severity": 0,
    "lat": 47.67018,
    "long": -122.382305,
    "neighborhood": "Ballard",
    "neighborhoodGroup": "Ballard",
    "units": "E18"
  },
  {
    "id_str": "F220044887",
    "created_at": "4/19/2022 11:16:06 AM",
    "timestamp": 1650392166000,
    "description": "Alarm Bell",
    "address": "10311 Fremont Ave N",
    "active": false,
    "unitCount": 1,
    "severity": 0,
    "lat": 47.703693,
    "long": -122.350059,
    "neighborhood": "Licton Springs",
    "neighborhoodGroup": "Northwest",
    "units": "E31"
  },
  {
    "id_str": "F220044888",
    "created_at": "4/19/2022 11:15:54 AM",
    "timestamp": 1650392154000,
    "description": "Aid Response",
    "address": "223 W Galer St",
    "active": false,
    "unitCount": 2,
    "severity": 0,
    "lat": 47.632321,
    "long": -122.359809,
    "neighborhood": "Queen Anne",
    "neighborhoodGroup": "Magnolia/Queen Anne",
    "units": "E8 L6"
  },
  {
    "id_str": "F220044886",
    "created_at": "4/19/2022 11:08:18 AM",
    "timestamp": 1650391698000,
    "description": "Auto Fire Alarm",
    "address": "2125 1st Ave",
    "active": false,
    "unitCount": 2,
    "severity": 0,
    "lat": 47.612025,
    "long": -122.344231,
    "neighborhood": "Belltown",
    "neighborhoodGroup": "Downtown",
    "units": "E5 L6"
  },
  {
    "id_str": "F220044885",
    "created_at": "4/19/2022 11:07:43 AM",
    "timestamp": 1650391663000,
    "description": "Aid Response",
    "address": "1212 Queen Anne Ave N",
    "active": false,
    "unitCount": 1,
    "severity": 0,
    "lat": 47.62967,
    "long": -122.356621,
    "neighborhood": "Queen Anne",
    "neighborhoodGroup": "Magnolia/Queen Anne",
    "units": "E8"
  },
  {
    "id_str": "F220044884",
    "created_at": "4/19/2022 11:07:21 AM",
    "timestamp": 1650391641000,
    "description": "Medic Response",
    "address": "1301 E Yesler Way",
    "active": false,
    "unitCount": 3,
    "severity": 0,
    "lat": 47.601688,
    "long": -122.314922,
    "neighborhood": "Judkins Park",
    "neighborhoodGroup": "Central",
    "units": "A10 M10 M17"
  },
  {
    "id_str": "F220044883",
    "created_at": "4/19/2022 10:55:49 AM",
    "timestamp": 1650390949000,
    "description": "Aid Response",
    "address": "612 2nd Ave",
    "active": false,
    "unitCount": 1,
    "severity": 0,
    "lat": 47.602386,
    "long": -122.332592,
    "neighborhood": "Downtown Commercial Core",
    "neighborhoodGroup": "Downtown",
    "units": "A5"
  },
  {
    "id_str": "F220044882",
    "created_at": "4/19/2022 10:53:39 AM",
    "timestamp": 1650390819000,
    "description": "Medic Response",
    "address": "515 Minor Ave",
    "active": false,
    "unitCount": 3,
    "severity": 0,
    "lat": 47.606467,
    "long": -122.32091,
    "neighborhood": "First Hill",
    "neighborhoodGroup": "East",
    "units": "L10 M1 M31"
  },
  {
    "id_str": "F220044881",
    "created_at": "4/19/2022 10:38:27 AM",
    "timestamp": 1650389907000,
    "description": "Aid Response",
    "address": "111 Cedar St",
    "active": false,
    "unitCount": 1,
    "severity": 0,
    "lat": 47.615877,
    "long": -122.35052,
    "neighborhood": "Belltown",
    "neighborhoodGroup": "Downtown",
    "units": "A4"
  },
  {
    "id_str": "F220044879",
    "created_at": "4/19/2022 10:25:58 AM",
    "timestamp": 1650389158000,
    "description": "Aid Response",
    "address": "301 Broadway E",
    "active": false,
    "unitCount": 1,
    "severity": 0,
    "lat": 47.621076,
    "long": -122.320892,
    "neighborhood": "Capitol Hill",
    "neighborhoodGroup": "East",
    "units": "E34"
  },
  {
    "id_str": "F220044877",
    "created_at": "4/19/2022 10:23:39 AM",
    "timestamp": 1650389019000,
    "description": "Brush Fire",
    "address": "6940 Beacon Ave S",
    "active": false,
    "unitCount": 2,
    "severity": 0,
    "lat": 47.53956,
    "long": -122.296978,
    "neighborhood": "South Beacon Hill/NewHolly",
    "neighborhoodGroup": "Greater Duwamish",
    "units": "E28 E33"
  },
  {
    "id_str": "F220044878",
    "created_at": "4/19/2022 10:23:31 AM",
    "timestamp": 1650389011000,
    "description": "Automatic Fire Alarm Resd",
    "address": "3959 Ne Surber Dr",
    "active": false,
    "unitCount": 1,
    "severity": 0,
    "lat": 47.65575,
    "long": -122.283957,
    "neighborhood": "Laurelhurst/Sand Point",
    "neighborhoodGroup": "Northeast",
    "units": "L9"
  },
  {
    "id_str": "F220044876",
    "created_at": "4/19/2022 10:21:10 AM",
    "timestamp": 1650388870000,
    "description": "Aid Response",
    "address": "1501 17th Ave",
    "active": false,
    "unitCount": 1,
    "severity": 0,
    "lat": 47.614106,
    "long": -122.310161,
    "neighborhood": "Central Area/Squire Park",
    "neighborhoodGroup": "Central",
    "units": "L10"
  },
  {
    "id_str": "F220044875",
    "created_at": "4/19/2022 10:16:53 AM",
    "timestamp": 1650388613000,
    "description": "Low Acuity Response",
    "address": "14021 15th Ave Ne",
    "active": false,
    "unitCount": 1,
    "severity": 0,
    "lat": 47.730447,
    "long": -122.312702,
    "neighborhood": "Olympic Hills/Victory Heights",
    "neighborhoodGroup": "North",
    "units": "E39"
  },
  {
    "id_str": "F220044874",
    "created_at": "4/19/2022 10:16:45 AM",
    "timestamp": 1650388605000,
    "description": "Aid Response",
    "address": "6416 17th Ave Nw",
    "active": false,
    "unitCount": 1,
    "severity": 0,
    "lat": 47.675389,
    "long": -122.378881,
    "neighborhood": "Whittier Heights",
    "neighborhoodGroup": "Ballard",
    "units": "E18"
  },
  {
    "id_str": "F220044873",
    "created_at": "4/19/2022 10:15:18 AM",
    "timestamp": 1650388518000,
    "description": "MVI - Motor Vehicle Incident",
    "address": "S Adams St / Rainier Ave S",
    "active": false,
    "unitCount": 1,
    "severity": 0,
    "lat": 47.56565,
    "long": -122.288612,
    "neighborhood": "Columbia City",
    "neighborhoodGroup": "Southeast",
    "units": "E30"
  },
  {
    "id_str": "F220044872",
    "created_at": "4/19/2022 10:14:17 AM",
    "timestamp": 1650388457000,
    "description": "Aid Response",
    "address": "3835 17th Ave Sw",
    "active": false,
    "unitCount": 2,
    "severity": 0,
    "lat": 47.569464,
    "long": -122.355888,
    "neighborhood": "North Delridge",
    "neighborhoodGroup": "Delridge Neighborhoods",
    "units": "A14 H2"
  },
  {
    "id_str": "F220044871",
    "created_at": "4/19/2022 10:11:57 AM",
    "timestamp": 1650388317000,
    "description": "Medic Response",
    "address": "909 Boren Ave",
    "active": false,
    "unitCount": 2,
    "severity": 0,
    "lat": 47.608682,
    "long": -122.32454,
    "neighborhood": "First Hill",
    "neighborhoodGroup": "East",
    "units": "E25 M10"
  },
  {
    "id_str": "F220044869",
    "created_at": "4/19/2022 10:07:59 AM",
    "timestamp": 1650388079000,
    "description": "Auto Fire Alarm",
    "address": "1660 S Columbian Way",
    "active": false,
    "unitCount": 2,
    "severity": 0,
    "lat": 47.561845,
    "long": -122.310824,
    "neighborhood": "North Beacon Hill/Jefferson Park",
    "neighborhoodGroup": "Greater Duwamish",
    "units": "E13 R1"
  },
  {
    "id_str": "F220044868",
    "created_at": "4/19/2022 9:52:49 AM",
    "timestamp": 1650387169000,
    "description": "Medic Response",
    "address": "14002 Linden Ave N",
    "active": false,
    "unitCount": 2,
    "severity": 0,
    "lat": 47.730569,
    "long": -122.347758,
    "neighborhood": "Broadview/Bitter Lake",
    "neighborhoodGroup": "Northwest",
    "units": "E24 M31"
  },
  {
    "id_str": "F220044867",
    "created_at": "4/19/2022 9:48:00 AM",
    "timestamp": 1650386880000,
    "description": "MVI - Motor Vehicle Incident",
    "address": "S Hanford St / 23rd Ave S",
    "active": false,
    "unitCount": 1,
    "severity": 0,
    "lat": 47.575083,
    "long": -122.303329,
    "neighborhood": "North Beacon Hill/Jefferson Park",
    "neighborhoodGroup": "Greater Duwamish",
    "units": "E13"
  },
  {
    "id_str": "F220044866",
    "created_at": "4/19/2022 9:44:28 AM",
    "timestamp": 1650386668000,
    "description": "Aid Response",
    "address": "3306 E Spring St",
    "active": false,
    "unitCount": 1,
    "severity": 0,
    "lat": 47.611636,
    "long": -122.290336,
    "neighborhood": "Madrona/Leschi",
    "neighborhoodGroup": "Central",
    "units": "E34"
  },
  {
    "id_str": "F220044865",
    "created_at": "4/19/2022 9:39:54 AM",
    "timestamp": 1650386394000,
    "description": "Aid Response",
    "address": "2615 Sw Barton St",
    "active": false,
    "unitCount": 1,
    "severity": 0,
    "lat": 47.521023,
    "long": -122.366095,
    "neighborhood": "Roxhill/Westwood",
    "neighborhoodGroup": "Delridge Neighborhoods",
    "units": "E11"
  },
  {
    "id_str": "F220044864",
    "created_at": "4/19/2022 9:39:17 AM",
    "timestamp": 1650386357000,
    "description": "Aid Response",
    "address": "3rd Ave / Union St",
    "active": false,
    "unitCount": 1,
    "severity": 0,
    "lat": 47.608756,
    "long": -122.336885,
    "neighborhood": "Downtown Commercial Core",
    "neighborhoodGroup": "Downtown",
    "units": "E5"
  },
  {
    "id_str": "F220044863",
    "created_at": "4/19/2022 9:39:10 AM",
    "timestamp": 1650386350000,
    "description": "Aid Response",
    "address": "715 Spring St",
    "active": false,
    "unitCount": 1,
    "severity": 0,
    "lat": 47.608268,
    "long": -122.330056,
    "neighborhood": "First Hill",
    "neighborhoodGroup": "East",
    "units": "A10"
  },
  {
    "id_str": "F220044861",
    "created_at": "4/19/2022 9:34:28 AM",
    "timestamp": 1650386068000,
    "description": "Medic Response",
    "address": "4400 Stone Way N",
    "active": false,
    "unitCount": 2,
    "severity": 0,
    "lat": 47.65996,
    "long": -122.342217,
    "neighborhood": "Wallingford",
    "neighborhoodGroup": "Lake Union",
    "units": "E9 M18"
  },
  {
    "id_str": "F220044860",
    "created_at": "4/19/2022 9:33:21 AM",
    "timestamp": 1650386001000,
    "description": "Aid Response",
    "address": "1220 Ne 143rd St",
    "active": false,
    "unitCount": 1,
    "severity": 0,
    "lat": 47.732149,
    "long": -122.315237,
    "neighborhood": "Olympic Hills/Victory Heights",
    "neighborhoodGroup": "North",
    "units": "E39"
  },
  {
    "id_str": "F220044859",
    "created_at": "4/19/2022 9:32:43 AM",
    "timestamp": 1650385963000,
    "description": "Medic Response",
    "address": "7340 35th Ave Ne",
    "active": false,
    "unitCount": 2,
    "severity": 0,
    "lat": 47.68159,
    "long": -122.290438,
    "neighborhood": "Wedgwood/View Ridge",
    "neighborhoodGroup": "Northeast",
    "units": "E40 M17"
  },
  {
    "id_str": "F220044857",
    "created_at": "4/19/2022 9:30:19 AM",
    "timestamp": 1650385819000,
    "description": "Aid Response Freeway",
    "address": "Nb I5 At Albro",
    "active": false,
    "unitCount": 3,
    "severity": 0,
    "lat": 47.542027,
    "long": -122.303649,
    "neighborhood": "South Beacon Hill/NewHolly",
    "neighborhoodGroup": "Greater Duwamish",
    "units": "A14 E27 E33"
  },
  {
    "id_str": "F220044855",
    "created_at": "4/19/2022 9:27:51 AM",
    "timestamp": 1650385671000,
    "description": "Low Acuity Response",
    "address": "23RD AVE S / S GRAND ST",
    "active": false,
    "unitCount": 3,
    "severity": 0,
    "lat": 47.586919,
    "long": -122.302689,
    "neighborhood": "Mt. Baker/North Rainier",
    "neighborhoodGroup": "Southeast",
    "units": "E30 H1 MIH"
  },
  {
    "id_str": "F220044854",
    "created_at": "4/19/2022 9:25:05 AM",
    "timestamp": 1650385505000,
    "description": "Aid Response",
    "address": "523 11th Ave E",
    "active": false,
    "unitCount": 1,
    "severity": 0,
    "lat": 47.623375,
    "long": -122.317801,
    "neighborhood": "Capitol Hill",
    "neighborhoodGroup": "East",
    "units": "E25"
  },
  {
    "id_str": "F220044853",
    "created_at": "4/19/2022 9:17:51 AM",
    "timestamp": 1650385071000,
    "description": "Aid Response",
    "address": "937 N 96th St",
    "active": false,
    "unitCount": 1,
    "severity": 0,
    "lat": 47.698721,
    "long": -122.34681,
    "neighborhood": "Licton Springs",
    "neighborhoodGroup": "Northwest",
    "units": "A31"
  },
  {
    "id_str": "F220044852",
    "created_at": "4/19/2022 9:16:06 AM",
    "timestamp": 1650384966000,
    "description": "Aid Response",
    "address": "2119 3rd Ave",
    "active": false,
    "unitCount": 1,
    "severity": 0,
    "lat": 47.613308,
    "long": -122.342432,
    "neighborhood": "Cascade/Eastlake",
    "neighborhoodGroup": "Lake Union",
    "units": "A4"
  },
  {
    "id_str": "F220044849",
    "created_at": "4/19/2022 9:00:15 AM",
    "timestamp": 1650384015000,
    "description": "Aid Response",
    "address": "515 Minor Ave",
    "active": false,
    "unitCount": 1,
    "severity": 0,
    "lat": 47.606467,
    "long": -122.32091,
    "neighborhood": "First Hill",
    "neighborhoodGroup": "East",
    "units": "A10"
  },
  {
    "id_str": "F220044848",
    "created_at": "4/19/2022 8:56:12 AM",
    "timestamp": 1650383772000,
    "description": "Medic Response",
    "address": "4615 Sw Thistle St",
    "active": false,
    "unitCount": 2,
    "severity": 0,
    "lat": 47.528566,
    "long": -122.391658,
    "neighborhood": "Fauntleroy/Seaview",
    "neighborhoodGroup": "Southwest",
    "units": "E37 M32"
  },
  {
    "id_str": "F220044847",
    "created_at": "4/19/2022 8:42:13 AM",
    "timestamp": 1650382933000,
    "description": "Aid Response",
    "address": "12501 Greenwood Ave N",
    "active": false,
    "unitCount": 1,
    "severity": 0,
    "lat": 47.719601,
    "long": -122.355539,
    "neighborhood": "Broadview/Bitter Lake",
    "neighborhoodGroup": "Northwest",
    "units": "E31"
  },
  {
    "id_str": "F220044844",
    "created_at": "4/19/2022 8:31:31 AM",
    "timestamp": 1650382291000,
    "description": "Aid Response",
    "address": "5th Ave S / S Dearborn St",
    "active": false,
    "unitCount": 1,
    "severity": 0,
    "lat": 47.595794,
    "long": -122.327683,
    "neighborhood": "Duwamish/SODO",
    "neighborhoodGroup": "Greater Duwamish",
    "units": "A5"
  },
  {
    "id_str": "F220044843",
    "created_at": "4/19/2022 8:29:10 AM",
    "timestamp": 1650382150000,
    "description": "Rescue Elevator",
    "address": "2312 Nw 98th St",
    "active": false,
    "unitCount": 1,
    "severity": 0,
    "lat": 47.700463,
    "long": -122.385547,
    "neighborhood": "North Beach/Blue Ridge",
    "neighborhoodGroup": "Ballard",
    "units": "L8"
  },
  {
    "id_str": "F220044842",
    "created_at": "4/19/2022 8:26:12 AM",
    "timestamp": 1650381972000,
    "description": "Aid Response",
    "address": "1900 5th Ave",
    "active": false,
    "unitCount": 1,
    "severity": 0,
    "lat": 47.612958,
    "long": -122.337873,
    "neighborhood": "Cascade/Eastlake",
    "neighborhoodGroup": "Lake Union",
    "units": "A2"
  },
  {
    "id_str": "F220044841",
    "created_at": "4/19/2022 8:19:01 AM",
    "timestamp": 1650381541000,
    "description": "Aid Response",
    "address": "2648 West Viewmont Way W",
    "active": false,
    "unitCount": 1,
    "severity": 0,
    "lat": 47.643646,
    "long": -122.409647,
    "neighborhood": "Magnolia",
    "neighborhoodGroup": "Magnolia/Queen Anne",
    "units": "E41"
  },
  {
    "id_str": "F220044840",
    "created_at": "4/19/2022 8:09:52 AM",
    "timestamp": 1650380992000,
    "description": "Medic Response",
    "address": "620 N 130th St",
    "active": false,
    "unitCount": 2,
    "severity": 0,
    "lat": 47.723223,
    "long": -122.351366,
    "neighborhood": "Broadview/Bitter Lake",
    "neighborhoodGroup": "Northwest",
    "units": "E24 M31"
  },
  {
    "id_str": "F220044838",
    "created_at": "4/19/2022 8:00:30 AM",
    "timestamp": 1650380430000,
    "description": "Aid Response",
    "address": "3204 Sw Morgan St",
    "active": false,
    "unitCount": 1,
    "severity": 0,
    "lat": 47.544669,
    "long": -122.373777,
    "neighborhood": "High Point",
    "neighborhoodGroup": "Delridge Neighborhoods",
    "units": "E37"
  },
  {
    "id_str": "F220044836",
    "created_at": "4/19/2022 7:49:27 AM",
    "timestamp": 1650379767000,
    "description": "Aid Response",
    "address": "85 Pike St",
    "active": false,
    "unitCount": 1,
    "severity": 0,
    "lat": 47.608584,
    "long": -122.340581,
    "neighborhood": "Downtown Commercial Core",
    "neighborhoodGroup": "Downtown",
    "units": "E5"
  },
  {
    "id_str": "F220044832",
    "created_at": "4/19/2022 7:27:48 AM",
    "timestamp": 1650378468000,
    "description": "Aid Response",
    "address": "5013 Sw Dakota St",
    "active": false,
    "unitCount": 1,
    "severity": 0,
    "lat": 47.566669,
    "long": -122.396316,
    "neighborhood": "West Seattle Junction/Genesee Hill",
    "neighborhoodGroup": "Southwest",
    "units": "E32"
  },
  {
    "id_str": "F220044831",
    "created_at": "4/19/2022 7:26:11 AM",
    "timestamp": 1650378371000,
    "description": "Aid Response",
    "address": "3020 Ne 127th St",
    "active": false,
    "unitCount": 1,
    "severity": 0,
    "lat": 47.721092,
    "long": -122.295892,
    "neighborhood": "Cedar Park/Meadowbrook",
    "neighborhoodGroup": "North",
    "units": "E39"
  },
  {
    "id_str": "F220044830",
    "created_at": "4/19/2022 7:13:40 AM",
    "timestamp": 1650377620000,
    "description": "Low Acuity Response",
    "address": "10408 42nd Ave Ne",
    "active": false,
    "unitCount": 1,
    "severity": 0,
    "lat": 47.703848,
    "long": -122.282752,
    "neighborhood": "Wedgwood/View Ridge",
    "neighborhoodGroup": "Northeast",
    "units": "E40"
  },
  {
    "id_str": "F220044828",
    "created_at": "4/19/2022 7:11:40 AM",
    "timestamp": 1650377500000,
    "description": "Medic Response, 7 per Rule",
    "address": "955 Alaskan Way W",
    "active": false,
    "unitCount": 3,
    "severity": 0,
    "lat": 47.630456,
    "long": -122.375685,
    "neighborhood": "Interbay",
    "neighborhoodGroup": "Magnolia/Queen Anne",
    "units": "E20 E41 M18"
  },
  {
    "id_str": "F220044827",
    "created_at": "4/19/2022 7:08:41 AM",
    "timestamp": 1650377321000,
    "description": "Aid Response",
    "address": "116 Stewart St",
    "active": false,
    "unitCount": 2,
    "severity": 0,
    "lat": 47.610387,
    "long": -122.341198,
    "neighborhood": "Belltown",
    "neighborhoodGroup": "Downtown",
    "units": "A2 M1"
  },
  {
    "id_str": "F220044826",
    "created_at": "4/19/2022 7:08:28 AM",
    "timestamp": 1650377308000,
    "description": "Low Acuity Response",
    "address": "9230 2nd Ave Sw",
    "active": false,
    "unitCount": 1,
    "severity": 0,
    "lat": 47.520679,
    "long": -122.335803,
    "units": "E26"
  },
  {
    "id_str": "F220044825",
    "created_at": "4/19/2022 7:02:37 AM",
    "timestamp": 1650376957000,
    "description": "Auto Fire Alarm",
    "address": "1720 E Olive St",
    "active": false,
    "unitCount": 2,
    "severity": 0,
    "lat": 47.616442,
    "long": -122.309884,
    "neighborhood": "Central Area/Squire Park",
    "neighborhoodGroup": "Central",
    "units": "E25 L10"
  },
  {
    "id_str": "F220044821",
    "created_at": "4/19/2022 6:49:21 AM",
    "timestamp": 1650376161000,
    "description": "Aid Response",
    "address": "1716 E Highland Dr",
    "active": false,
    "unitCount": 1,
    "severity": 0,
    "lat": 47.630628,
    "long": -122.309701,
    "neighborhood": "Miller Park",
    "neighborhoodGroup": "East",
    "units": "A25"
  },
  {
    "id_str": "F220044818",
    "created_at": "4/19/2022 6:39:33 AM",
    "timestamp": 1650375573000,
    "description": "Aid Response",
    "address": "715 2nd Ave W",
    "active": false,
    "unitCount": 1,
    "severity": 0,
    "lat": 47.625795,
    "long": -122.359313,
    "neighborhood": "Queen Anne",
    "neighborhoodGroup": "Magnolia/Queen Anne",
    "units": "E8"
  },
  {
    "id_str": "F220044816",
    "created_at": "4/19/2022 6:26:01 AM",
    "timestamp": 1650374761000,
    "description": "Aid Response",
    "address": "2900 3rd Ave W",
    "active": false,
    "unitCount": 1,
    "severity": 0,
    "lat": 47.645803,
    "long": -122.360896,
    "neighborhood": "Queen Anne",
    "neighborhoodGroup": "Magnolia/Queen Anne",
    "units": "E9"
  },
  {
    "id_str": "F220044814",
    "created_at": "4/19/2022 6:18:53 AM",
    "timestamp": 1650374333000,
    "description": "Low Acuity Response",
    "address": "9240 2nd Ave Sw",
    "active": false,
    "unitCount": 1,
    "severity": 0,
    "lat": 47.520451,
    "long": -122.336003,
    "units": "E26"
  },
  {
    "id_str": "F220044813",
    "created_at": "4/19/2022 6:16:10 AM",
    "timestamp": 1650374170000,
    "description": "Low Acuity Response",
    "address": "3244 Nw 54th St",
    "active": false,
    "unitCount": 1,
    "severity": 0,
    "lat": 47.667464,
    "long": -122.399817,
    "neighborhood": "Sunset Hill/Loyal Heights",
    "neighborhoodGroup": "Ballard",
    "units": "E18"
  },
  {
    "id_str": "F220044812",
    "created_at": "4/19/2022 6:12:07 AM",
    "timestamp": 1650373927000,
    "description": "Medic Response",
    "address": "2205 8th Ave",
    "active": false,
    "unitCount": 2,
    "severity": 0,
    "lat": 47.61729,
    "long": -122.339248,
    "neighborhood": "Cascade/Eastlake",
    "neighborhoodGroup": "Lake Union",
    "units": "E2 M10"
  },
  {
    "id_str": "F220044810",
    "created_at": "4/19/2022 6:08:46 AM",
    "timestamp": 1650373726000,
    "description": "Aid Response",
    "address": "1811 Eastlake Ave",
    "active": false,
    "unitCount": 1,
    "severity": 0,
    "lat": 47.618002,
    "long": -122.329182,
    "neighborhood": "Cascade/Eastlake",
    "neighborhoodGroup": "Lake Union",
    "units": "A2"
  },
  {
    "id_str": "F220044808",
    "created_at": "4/19/2022 6:06:01 AM",
    "timestamp": 1650373561000,
    "description": "Aid Response",
    "address": "13025 Aurora Ave N",
    "active": false,
    "unitCount": 1,
    "severity": 0,
    "lat": 47.723387,
    "long": -122.344979,
    "neighborhood": "Haller Lake",
    "neighborhoodGroup": "Northwest",
    "units": "E24"
  },
  {
    "id_str": "F220044807",
    "created_at": "4/19/2022 6:01:19 AM",
    "timestamp": 1650373279000,
    "description": "Aid Response",
    "address": "9455 27th Ave Sw",
    "active": false,
    "unitCount": 1,
    "severity": 0,
    "lat": 47.518178,
    "long": -122.367277,
    "neighborhood": "Roxhill/Westwood",
    "neighborhoodGroup": "Delridge Neighborhoods",
    "units": "E37"
  },
  {
    "id_str": "F220044806",
    "created_at": "4/19/2022 5:42:01 AM",
    "timestamp": 1650372121000,
    "description": "Aid Response",
    "address": "12740 33rd Ave Ne",
    "active": false,
    "unitCount": 1,
    "severity": 0,
    "lat": 47.720938,
    "long": -122.292513,
    "neighborhood": "Cedar Park/Meadowbrook",
    "neighborhoodGroup": "North",
    "units": "E39"
  },
  {
    "id_str": "F220044804",
    "created_at": "4/19/2022 5:10:02 AM",
    "timestamp": 1650370202000,
    "description": "4RED - 2 + 1 + 1",
    "address": "817 11th Ave",
    "active": false,
    "unitCount": 5,
    "severity": 1,
    "lat": 47.609423,
    "long": -122.318059,
    "neighborhood": "First Hill",
    "neighborhoodGroup": "East",
    "units": "B2 E10 E25 L1 L10"
  },
  {
    "id_str": "F220044803",
    "created_at": "4/19/2022 5:02:15 AM",
    "timestamp": 1650369735000,
    "description": "Medic Response, 7 per Rule",
    "address": "12006 31ST AVE NE",
    "active": false,
    "unitCount": 3,
    "severity": 0,
    "lat": 47.715605,
    "long": -122.295257,
    "neighborhood": "Olympic Hills/Victory Heights",
    "neighborhoodGroup": "North",
    "units": "E39 E40 M31"
  },
  {
    "id_str": "F220044801",
    "created_at": "4/19/2022 4:38:33 AM",
    "timestamp": 1650368313000,
    "description": "Medic Response",
    "address": "4028 California Ave Sw",
    "active": false,
    "unitCount": 2,
    "severity": 0,
    "lat": 47.567861,
    "long": -122.38677,
    "neighborhood": "West Seattle Junction/Genesee Hill",
    "neighborhoodGroup": "Southwest",
    "units": "E32 M32"
  },
  {
    "id_str": "F220044799",
    "created_at": "4/19/2022 4:33:40 AM",
    "timestamp": 1650368020000,
    "description": "Aid Response",
    "address": "1820 Minor Ave",
    "active": false,
    "unitCount": 1,
    "severity": 0,
    "lat": 47.616989,
    "long": -122.330811,
    "neighborhood": "Cascade/Eastlake",
    "neighborhoodGroup": "Lake Union",
    "units": "A25"
  },
  {
    "id_str": "F220044798",
    "created_at": "4/19/2022 4:08:34 AM",
    "timestamp": 1650366514000,
    "description": "Aid Response",
    "address": "9245 16th Ave Sw",
    "active": false,
    "unitCount": 1,
    "severity": 0,
    "lat": 47.520615,
    "long": -122.35513,
    "neighborhood": "Highland Park",
    "neighborhoodGroup": "Delridge Neighborhoods",
    "units": "E11"
  },
  {
    "id_str": "F220044797",
    "created_at": "4/19/2022 4:05:23 AM",
    "timestamp": 1650366323000,
    "description": "Rubbish Fire",
    "address": "4th Ave S / S Jackson St",
    "active": false,
    "unitCount": 1,
    "severity": 0,
    "lat": 47.599197,
    "long": -122.328968,
    "neighborhood": "Pioneer Square/International District",
    "neighborhoodGroup": "Downtown",
    "units": "E5"
  },
  {
    "id_str": "F220044796",
    "created_at": "4/19/2022 4:00:10 AM",
    "timestamp": 1650366010000,
    "description": "Aid Response",
    "address": "4600 Fremont Ave N",
    "active": false,
    "unitCount": 1,
    "severity": 0,
    "lat": 47.662136,
    "long": -122.350034,
    "neighborhood": "Fremont",
    "neighborhoodGroup": "Lake Union",
    "units": "E9"
  },
  {
    "id_str": "F220044795",
    "created_at": "4/19/2022 3:39:35 AM",
    "timestamp": 1650364775000,
    "description": "Aid Response",
    "address": "6th Ave S / S Royal Brougham Way",
    "active": false,
    "unitCount": 1,
    "severity": 0,
    "lat": 47.592393,
    "long": -122.325968,
    "neighborhood": "Duwamish/SODO",
    "neighborhoodGroup": "Greater Duwamish",
    "units": "L1"
  },
  {
    "id_str": "F220044792",
    "created_at": "4/19/2022 3:35:21 AM",
    "timestamp": 1650364521000,
    "description": "Medic Response",
    "address": "8340 15th Ave Nw",
    "active": false,
    "unitCount": 2,
    "severity": 0,
    "lat": 47.689099,
    "long": -122.3768,
    "neighborhood": "Whittier Heights",
    "neighborhoodGroup": "Ballard",
    "units": "E35 M18"
  },
  {
    "id_str": "F220044791",
    "created_at": "4/19/2022 3:33:59 AM",
    "timestamp": 1650364439000,
    "description": "Aid Response",
    "address": "1325 6th Ave",
    "active": false,
    "unitCount": 1,
    "severity": 0,
    "lat": 47.609402,
    "long": -122.332864,
    "neighborhood": "First Hill",
    "neighborhoodGroup": "East",
    "units": "A10"
  },
  {
    "id_str": "F220044790",
    "created_at": "4/19/2022 3:26:44 AM",
    "timestamp": 1650364004000,
    "description": "Medic Response, 7 per Rule",
    "address": "500 5th Ave",
    "active": false,
    "unitCount": 3,
    "severity": 0,
    "lat": 47.602985,
    "long": -122.328535,
    "neighborhood": "First Hill",
    "neighborhoodGroup": "East",
    "units": "A5 E10 M1"
  },
  {
    "id_str": "F220044789",
    "created_at": "4/19/2022 3:17:39 AM",
    "timestamp": 1650363459000,
    "description": "Low Acuity Response",
    "address": "10507 Aurora Ave N",
    "active": false,
    "unitCount": 1,
    "severity": 0,
    "lat": 47.705096,
    "long": -122.344695,
    "neighborhood": "Licton Springs",
    "neighborhoodGroup": "Northwest",
    "units": "E31"
  },
  {
    "id_str": "F220044788",
    "created_at": "4/19/2022 3:15:35 AM",
    "timestamp": 1650363335000,
    "description": "Aid Response",
    "address": "13540 Wallingford Ave N",
    "active": false,
    "unitCount": 1,
    "severity": 0,
    "lat": 47.727212,
    "long": -122.33691,
    "neighborhood": "Haller Lake",
    "neighborhoodGroup": "Northwest",
    "units": "E24"
  },
  {
    "id_str": "F220044787",
    "created_at": "4/19/2022 3:08:49 AM",
    "timestamp": 1650362929000,
    "description": "Aid Response",
    "address": "8729 15th Ave Nw",
    "active": false,
    "unitCount": 1,
    "severity": 0,
    "lat": 47.693181,
    "long": -122.376641,
    "neighborhood": "North Beach/Blue Ridge",
    "neighborhoodGroup": "Ballard",
    "units": "E35"
  },
  {
    "id_str": "F220044786",
    "created_at": "4/19/2022 3:06:26 AM",
    "timestamp": 1650362786000,
    "description": "Medic Response",
    "address": "5433 Leary Ave Nw",
    "active": false,
    "unitCount": 2,
    "severity": 0,
    "lat": 47.667504,
    "long": -122.38311,
    "neighborhood": "Ballard",
    "neighborhoodGroup": "Ballard",
    "units": "E18 M18"
  },
  {
    "id_str": "F220044785",
    "created_at": "4/19/2022 3:02:53 AM",
    "timestamp": 1650362573000,
    "description": "Aid Response",
    "address": "1039 6th Ave S",
    "active": false,
    "unitCount": 1,
    "severity": 0,
    "lat": 47.593751,
    "long": -122.325968,
    "neighborhood": "Duwamish/SODO",
    "neighborhoodGroup": "Greater Duwamish",
    "units": "A10"
  },
  {
    "id_str": "F220044783",
    "created_at": "4/19/2022 2:41:47 AM",
    "timestamp": 1650361307000,
    "description": "Aid Response",
    "address": "4725 4th Ave Ne",
    "active": false,
    "unitCount": 1,
    "severity": 0,
    "lat": 47.663305,
    "long": -122.324008,
    "neighborhood": "Wallingford",
    "neighborhoodGroup": "Lake Union",
    "units": "E17"
  },
  {
    "id_str": "F220044782",
    "created_at": "4/19/2022 2:39:02 AM",
    "timestamp": 1650361142000,
    "description": "Aid Response",
    "address": "12012 10th Pl Ne",
    "active": false,
    "unitCount": 1,
    "severity": 0,
    "lat": 47.716145,
    "long": -122.317338,
    "neighborhood": "Haller Lake",
    "neighborhoodGroup": "Northwest",
    "units": "E39"
  },
  {
    "id_str": "F220044781",
    "created_at": "4/19/2022 2:39:02 AM",
    "timestamp": 1650361142000,
    "description": "Low Acuity Response",
    "address": "2401 Ne Blakeley St",
    "active": false,
    "unitCount": 1,
    "severity": 0,
    "lat": 47.665845,
    "long": -122.301932,
    "neighborhood": "Ravenna/Bryant",
    "neighborhoodGroup": "Northeast",
    "units": "E38"
  },
  {
    "id_str": "F220044780",
    "created_at": "4/19/2022 2:34:03 AM",
    "timestamp": 1650360843000,
    "description": "Aid Response",
    "address": "1712 Summit Ave",
    "active": false,
    "unitCount": 1,
    "severity": 0,
    "lat": 47.616499,
    "long": -122.325545,
    "neighborhood": "Capitol Hill",
    "neighborhoodGroup": "East",
    "units": "A25"
  },
  {
    "id_str": "F220044779",
    "created_at": "4/19/2022 2:24:07 AM",
    "timestamp": 1650360247000,
    "description": "Medic Response",
    "address": "6940 M L King Jr Way S",
    "active": false,
    "unitCount": 2,
    "severity": 0,
    "lat": 47.540318,
    "long": -122.282693,
    "neighborhood": "South Beacon Hill/NewHolly",
    "neighborhoodGroup": "Greater Duwamish",
    "units": "E28 M28"
  },
  {
    "id_str": "F220044778",
    "created_at": "4/19/2022 2:21:55 AM",
    "timestamp": 1650360115000,
    "description": "Medic Response",
    "address": "221 10th Ave S",
    "active": false,
    "unitCount": 2,
    "severity": 0,
    "lat": 47.600715,
    "long": -122.319304,
    "neighborhood": "Pioneer Square/International District",
    "neighborhoodGroup": "Downtown",
    "units": "A5 M10"
  },
  {
    "id_str": "F220044777",
    "created_at": "4/19/2022 2:16:10 AM",
    "timestamp": 1650359770000,
    "description": "Aid Response",
    "address": "1005 Terrace St",
    "active": false,
    "unitCount": 1,
    "severity": 0,
    "lat": 47.604615,
    "long": -122.32228,
    "neighborhood": "First Hill",
    "neighborhoodGroup": "East",
    "units": "A10"
  },
  {
    "id_str": "F220044773",
    "created_at": "4/19/2022 1:51:16 AM",
    "timestamp": 1650358276000,
    "description": "1RED 1 Unit",
    "address": "414 Ne Ravenna Blvd",
    "active": false,
    "unitCount": 1,
    "severity": 0,
    "lat": 47.678831,
    "long": -122.324639,
    "neighborhood": "Green Lake",
    "neighborhoodGroup": "Northwest",
    "units": "E16"
  },
  {
    "id_str": "F220044772",
    "created_at": "4/19/2022 1:48:15 AM",
    "timestamp": 1650358095000,
    "description": "Aid Response",
    "address": "500 S Royal Brougham Way",
    "active": false,
    "unitCount": 1,
    "severity": 0,
    "lat": 47.592394,
    "long": -122.327395,
    "neighborhood": "Duwamish/SODO",
    "neighborhoodGroup": "Greater Duwamish",
    "units": "A5"
  },
  {
    "id_str": "F220044770",
    "created_at": "4/19/2022 1:36:22 AM",
    "timestamp": 1650357382000,
    "description": "BC Aid Response",
    "address": "100 Melrose Ave E",
    "active": false,
    "unitCount": 2,
    "severity": 0,
    "lat": 47.618497,
    "long": -122.327854,
    "neighborhood": "Capitol Hill",
    "neighborhoodGroup": "East",
    "units": "A10 B2"
  },
  {
    "id_str": "F220044769",
    "created_at": "4/19/2022 1:34:44 AM",
    "timestamp": 1650357284000,
    "description": "Aid Response",
    "address": "1700 17th Ave",
    "active": false,
    "unitCount": 1,
    "severity": 0,
    "lat": 47.616443,
    "long": -122.310151,
    "neighborhood": "Central Area/Squire Park",
    "neighborhoodGroup": "Central",
    "units": "E25"
  },
  {
    "id_str": "F220044768",
    "created_at": "4/19/2022 1:32:24 AM",
    "timestamp": 1650357144000,
    "description": "Aid Response",
    "address": "10049 College Way N",
    "active": false,
    "unitCount": 1,
    "severity": 0,
    "lat": 47.701742,
    "long": -122.335029,
    "neighborhood": "Licton Springs",
    "neighborhoodGroup": "Northwest",
    "units": "E31"
  },
  {
    "id_str": "F220044767",
    "created_at": "4/19/2022 1:32:24 AM",
    "timestamp": 1650357144000,
    "description": "Aid Response",
    "address": "334 1st Ave N",
    "active": false,
    "unitCount": 1,
    "severity": 0,
    "lat": 47.621329,
    "long": -122.355431,
    "neighborhood": "Queen Anne",
    "neighborhoodGroup": "Magnolia/Queen Anne",
    "units": "A2"
  },
  {
    "id_str": "F220044765",
    "created_at": "4/19/2022 1:28:21 AM",
    "timestamp": 1650356901000,
    "description": "Medic Response",
    "address": "5915 Shaffer Ave S",
    "active": false,
    "unitCount": 2,
    "severity": 0,
    "lat": 47.549742,
    "long": -122.294757,
    "neighborhood": "Beacon Hill",
    "neighborhoodGroup": "Greater Duwamish",
    "units": "E28 M28"
  },
  {
    "id_str": "F220044764",
    "created_at": "4/19/2022 1:24:15 AM",
    "timestamp": 1650356655000,
    "description": "Aid Response",
    "address": "1400 3rd Ave",
    "active": false,
    "unitCount": 2,
    "severity": 0,
    "lat": 47.608756,
    "long": -122.336885,
    "neighborhood": "Downtown Commercial Core",
    "neighborhoodGroup": "Downtown",
    "units": "A10 M1"
  },
  {
    "id_str": "F220044763",
    "created_at": "4/19/2022 1:22:33 AM",
    "timestamp": 1650356553000,
    "description": "Aid Response",
    "address": "903 Union St",
    "active": false,
    "unitCount": 1,
    "severity": 0,
    "lat": 47.611557,
    "long": -122.330191,
    "neighborhood": "First Hill",
    "neighborhoodGroup": "East",
    "units": "A25"
  },
  {
    "id_str": "F220044762",
    "created_at": "4/19/2022 1:21:24 AM",
    "timestamp": 1650356484000,
    "description": "Aid Response",
    "address": "255 S King St",
    "active": false,
    "unitCount": 1,
    "severity": 0,
    "lat": 47.598287,
    "long": -122.330894,
    "neighborhood": "Duwamish/SODO",
    "neighborhoodGroup": "Greater Duwamish",
    "units": "A5"
  },
  {
    "id_str": "F220044758",
    "created_at": "4/19/2022 12:50:28 AM",
    "timestamp": 1650354628000,
    "description": "Aid Response",
    "address": "1523 E Madison St",
    "active": false,
    "unitCount": 1,
    "severity": 0,
    "lat": 47.614627,
    "long": -122.312463,
    "neighborhood": "Central Area/Squire Park",
    "neighborhoodGroup": "Central",
    "units": "A25"
  },
  {
    "id_str": "F220044756",
    "created_at": "4/19/2022 12:20:48 AM",
    "timestamp": 1650352848000,
    "description": "Low Acuity Response",
    "address": "10507 Aurora Ave N",
    "active": false,
    "unitCount": 1,
    "severity": 0,
    "lat": 47.705096,
    "long": -122.344695,
    "neighborhood": "Licton Springs",
    "neighborhoodGroup": "Northwest",
    "units": "E31"
  },
  {
    "id_str": "F220044754",
    "created_at": "4/19/2022 12:13:50 AM",
    "timestamp": 1650352430000,
    "description": "Low Acuity Response",
    "address": "120 6th Ave S",
    "active": false,
    "unitCount": 1,
    "severity": 0,
    "lat": 47.601539,
    "long": -122.326352,
    "neighborhood": "Pioneer Square/International District",
    "neighborhoodGroup": "Downtown",
    "units": "A10"
  },
  {
    "id_str": "F220044753",
    "created_at": "4/19/2022 12:11:39 AM",
    "timestamp": 1650352299000,
    "description": "Aid Response",
    "address": "Pine St / Boren Ave",
    "active": false,
    "unitCount": 1,
    "severity": 0,
    "lat": 47.614457,
    "long": -122.329822,
    "neighborhood": "First Hill",
    "neighborhoodGroup": "East",
    "units": "A25"
  },
  {
    "id_str": "F220044752",
    "created_at": "4/18/2022 11:54:17 PM",
    "timestamp": 1650351257000,
    "description": "Auto Fire Alarm",
    "address": "4528 8th Ave Ne",
    "active": false,
    "unitCount": 2,
    "severity": 0,
    "lat": 47.661559,
    "long": -122.319565,
    "neighborhood": "Wallingford",
    "neighborhoodGroup": "Lake Union",
    "units": "E17 L9"
  },
  {
    "id_str": "F220044751",
    "created_at": "4/18/2022 11:48:21 PM",
    "timestamp": 1650350901000,
    "description": "Aid Response",
    "address": "3rd Ave / Union St",
    "active": false,
    "unitCount": 1,
    "severity": 0,
    "lat": 47.608756,
    "long": -122.336885,
    "neighborhood": "Downtown Commercial Core",
    "neighborhoodGroup": "Downtown",
    "units": "A5"
  },
  {
    "id_str": "F220044750",
    "created_at": "4/18/2022 11:44:42 PM",
    "timestamp": 1650350682000,
    "description": "Aid Response",
    "address": "17th Ave S / S Spokane St",
    "active": false,
    "unitCount": 1,
    "severity": 0,
    "lat": 47.571925,
    "long": -122.311408,
    "neighborhood": "North Beacon Hill/Jefferson Park",
    "neighborhoodGroup": "Greater Duwamish",
    "units": "E13"
  },
  {
    "id_str": "F220044748",
    "created_at": "4/18/2022 11:37:28 PM",
    "timestamp": 1650350248000,
    "description": "Medic Response",
    "address": "526 N 102nd St",
    "active": false,
    "unitCount": 2,
    "severity": 0,
    "lat": 47.7029,
    "long": -122.352244,
    "neighborhood": "Greenwood/Phinney Ridge",
    "neighborhoodGroup": "Northwest",
    "units": "E31 M31"
  },
  {
    "id_str": "F220044747",
    "created_at": "4/18/2022 11:16:23 PM",
    "timestamp": 1650348983000,
    "description": "Aid Response",
    "address": "Ne Pacific Pl / Ne Pacific St",
    "active": false,
    "unitCount": 1,
    "severity": 0,
    "lat": 47.650543,
    "long": -122.307616,
    "neighborhood": "University District",
    "neighborhoodGroup": "Northeast",
    "units": "L9"
  },
  {
    "id_str": "F220044746",
    "created_at": "4/18/2022 11:14:53 PM",
    "timestamp": 1650348893000,
    "description": "Aid Response",
    "address": "5TH AVE / PINE ST",
    "active": false,
    "unitCount": 1,
    "severity": 0,
    "lat": 47.611672,
    "long": -122.336484,
    "neighborhood": "Downtown Commercial Core",
    "neighborhoodGroup": "Downtown",
    "units": "A2"
  },
  {
    "id_str": "F220044744",
    "created_at": "4/18/2022 10:53:04 PM",
    "timestamp": 1650347584000,
    "description": "Rubbish Fire",
    "address": "Airport Way S / S Hinds St",
    "active": false,
    "unitCount": 1,
    "severity": 0,
    "lat": 47.573457,
    "long": -122.321699,
    "neighborhood": "Duwamish/SODO",
    "neighborhoodGroup": "Greater Duwamish",
    "units": "E13"
  },
  {
    "id_str": "F220044743",
    "created_at": "4/18/2022 10:52:47 PM",
    "timestamp": 1650347567000,
    "description": "1RED 1 Unit",
    "address": "4507 Brooklyn Ave Ne",
    "active": false,
    "unitCount": 1,
    "severity": 0,
    "lat": 47.661332,
    "long": -122.314285,
    "neighborhood": "University District",
    "neighborhoodGroup": "Northeast",
    "units": "E17"
  },
  {
    "id_str": "F220044741",
    "created_at": "4/18/2022 10:40:46 PM",
    "timestamp": 1650346846000,
    "description": "Illegal Burn",
    "address": "1st Ave / Union St",
    "active": false,
    "unitCount": 1,
    "severity": 0,
    "lat": 47.607828,
    "long": -122.339105,
    "neighborhood": "Downtown Commercial Core",
    "neighborhoodGroup": "Downtown",
    "units": "E5"
  },
  {
    "id_str": "F220044739",
    "created_at": "4/18/2022 10:35:22 PM",
    "timestamp": 1650346522000,
    "description": "Aid Response",
    "address": "30TH AVE NE / NE 127TH ST",
    "active": false,
    "unitCount": 1,
    "severity": 0,
    "lat": 47.721237,
    "long": -122.294075,
    "neighborhood": "Cedar Park/Meadowbrook",
    "neighborhoodGroup": "North",
    "units": "E39"
  },
  {
    "id_str": "F220044738",
    "created_at": "4/18/2022 10:28:36 PM",
    "timestamp": 1650346116000,
    "description": "Medic Response",
    "address": "404 Terry Ave",
    "active": false,
    "unitCount": 2,
    "severity": 0,
    "lat": 47.604613,
    "long": -122.322357,
    "neighborhood": "First Hill",
    "neighborhoodGroup": "East",
    "units": "A10 M10"
  },
  {
    "id_str": "F220044737",
    "created_at": "4/18/2022 10:18:13 PM",
    "timestamp": 1650345493000,
    "description": "Aid Response",
    "address": "9th Ave / Pike St",
    "active": false,
    "unitCount": 1,
    "severity": 0,
    "lat": 47.612535,
    "long": -122.331134,
    "neighborhood": "First Hill",
    "neighborhoodGroup": "East",
    "units": "A25"
  },
  {
    "id_str": "F220044734",
    "created_at": "4/18/2022 10:13:42 PM",
    "timestamp": 1650345222000,
    "description": "Investigate Out Of Service",
    "address": "6901 Delridge Way Sw",
    "active": false,
    "unitCount": 1,
    "severity": 0,
    "lat": 47.540874,
    "long": -122.360855,
    "neighborhood": "Riverview",
    "neighborhoodGroup": "Delridge Neighborhoods",
    "units": "E11"
  },
  {
    "id_str": "F220044733",
    "created_at": "4/18/2022 10:09:36 PM",
    "timestamp": 1650344976000,
    "description": "Aid Response",
    "address": "202 Occidental Ave S",
    "active": false,
    "unitCount": 1,
    "severity": 0,
    "lat": 47.600865,
    "long": -122.332877,
    "neighborhood": "Pioneer Square/International District",
    "neighborhoodGroup": "Downtown",
    "units": "A5"
  },
  {
    "id_str": "F220044732",
    "created_at": "4/18/2022 10:06:14 PM",
    "timestamp": 1650344774000,
    "description": "Illegal Burn",
    "address": "30th Ave Ne / Ne 127th St",
    "active": false,
    "unitCount": 1,
    "severity": 0,
    "lat": 47.721092,
    "long": -122.296336,
    "neighborhood": "Cedar Park/Meadowbrook",
    "neighborhoodGroup": "North",
    "units": "E39"
  },
  {
    "id_str": "F220044731",
    "created_at": "4/18/2022 10:02:25 PM",
    "timestamp": 1650344545000,
    "description": "Aid Response",
    "address": "207 Pontius Ave N",
    "active": false,
    "unitCount": 1,
    "severity": 0,
    "lat": 47.619736,
    "long": -122.331697,
    "neighborhood": "Cascade/Eastlake",
    "neighborhoodGroup": "Lake Union",
    "units": "E2"
  },
  {
    "id_str": "F220044730",
    "created_at": "4/18/2022 10:01:14 PM",
    "timestamp": 1650344474000,
    "description": "Aid Response",
    "address": "617 3rd Ave W",
    "active": false,
    "unitCount": 1,
    "severity": 0,
    "lat": 47.624795,
    "long": -122.360627,
    "neighborhood": "Queen Anne",
    "neighborhoodGroup": "Magnolia/Queen Anne",
    "units": "A2"
  },
  {
    "id_str": "F220044727",
    "created_at": "4/18/2022 9:56:04 PM",
    "timestamp": 1650344164000,
    "description": "Aid Response",
    "address": "2200 Nw 58th St",
    "active": false,
    "unitCount": 1,
    "severity": 0,
    "lat": 47.670912,
    "long": -122.384743,
    "neighborhood": "Ballard",
    "neighborhoodGroup": "Ballard",
    "units": "E18"
  },
  {
    "id_str": "F220044726",
    "created_at": "4/18/2022 9:54:18 PM",
    "timestamp": 1650344058000,
    "description": "Automatic Fire Alarm Resd",
    "address": "4228 2nd Ave Nw",
    "active": false,
    "unitCount": 1,
    "severity": 0,
    "lat": 47.658092,
    "long": -122.358394,
    "neighborhood": "Fremont",
    "neighborhoodGroup": "Lake Union",
    "units": "E9"
  },
  {
    "id_str": "F220044725",
    "created_at": "4/18/2022 9:51:06 PM",
    "timestamp": 1650343866000,
    "description": "Aid Response",
    "address": "500 S Lander St",
    "active": false,
    "unitCount": 1,
    "severity": 0,
    "lat": 47.579809,
    "long": -122.327192,
    "neighborhood": "Duwamish/SODO",
    "neighborhoodGroup": "Greater Duwamish",
    "units": "A14"
  },
  {
    "id_str": "F220044724",
    "created_at": "4/18/2022 9:49:54 PM",
    "timestamp": 1650343794000,
    "description": "Medic Response",
    "address": "3108 Sw Trenton St",
    "active": false,
    "unitCount": 2,
    "severity": 0,
    "lat": 47.524663,
    "long": -122.372698,
    "neighborhood": "Roxhill/Westwood",
    "neighborhoodGroup": "Delridge Neighborhoods",
    "units": "E37 M32"
  },
  {
    "id_str": "F220044722",
    "created_at": "4/18/2022 9:47:34 PM",
    "timestamp": 1650343654000,
    "description": "1RED 1 Unit",
    "address": "32nd Ave W / W Armour St",
    "active": false,
    "unitCount": 1,
    "severity": 0,
    "lat": 47.644606,
    "long": -122.398283,
    "neighborhood": "Magnolia",
    "neighborhoodGroup": "Magnolia/Queen Anne",
    "units": "E41"
  },
  {
    "id_str": "F220044723",
    "created_at": "4/18/2022 9:46:55 PM",
    "timestamp": 1650343615000,
    "description": "Aid Response",
    "address": "4225 Beach Dr Sw",
    "active": false,
    "unitCount": 1,
    "severity": 0,
    "lat": 47.565587,
    "long": -122.407826,
    "neighborhood": "Alki/Admiral",
    "neighborhoodGroup": "Southwest",
    "units": "E32"
  },
  {
    "id_str": "F220044720",
    "created_at": "4/18/2022 9:43:33 PM",
    "timestamp": 1650343413000,
    "description": "Medic Response",
    "address": "500 5th Ave",
    "active": false,
    "unitCount": 2,
    "severity": 0,
    "lat": 47.602985,
    "long": -122.328535,
    "neighborhood": "First Hill",
    "neighborhoodGroup": "East",
    "units": "A10 M1"
  },
  {
    "id_str": "F220044719",
    "created_at": "4/18/2022 9:39:48 PM",
    "timestamp": 1650343188000,
    "description": "MVI - Motor Vehicle Incident",
    "address": "BEACON AVE S / S COLUMBIAN WAY",
    "active": false,
    "unitCount": 1,
    "severity": 0,
    "lat": 47.559608,
    "long": -122.304656,
    "neighborhood": "Beacon Hill",
    "neighborhoodGroup": "Greater Duwamish",
    "units": "E13"
  },
  {
    "id_str": "F220044716",
    "created_at": "4/18/2022 9:23:08 PM",
    "timestamp": 1650342188000,
    "description": "Aid Response",
    "address": "Ne 47th St / 12th Ave Ne",
    "active": false,
    "unitCount": 1,
    "severity": 0,
    "lat": 47.663106,
    "long": -122.315263,
    "neighborhood": "University District",
    "neighborhoodGroup": "Northeast",
    "units": "L9"
  },
  {
    "id_str": "F220044713",
    "created_at": "4/18/2022 9:10:27 PM",
    "timestamp": 1650341427000,
    "description": "Aid Response Yellow",
    "address": "6807 Aurora Ave N",
    "active": false,
    "unitCount": 1,
    "severity": 0,
    "lat": 47.679555,
    "long": -122.34542,
    "neighborhood": "Greenwood/Phinney Ridge",
    "neighborhoodGroup": "Northwest",
    "units": "E21"
  },
  {
    "id_str": "F220044711",
    "created_at": "4/18/2022 9:06:08 PM",
    "timestamp": 1650341168000,
    "description": "Aid Response",
    "address": "2425 Sw Holden St",
    "active": false,
    "unitCount": 1,
    "severity": 0,
    "lat": 47.533699,
    "long": -122.363504,
    "neighborhood": "High Point",
    "neighborhoodGroup": "Delridge Neighborhoods",
    "units": "E37"
  },
  {
    "id_str": "F220044709",
    "created_at": "4/18/2022 9:05:51 PM",
    "timestamp": 1650341151000,
    "description": "Aid Response",
    "address": "94 Bay St",
    "active": false,
    "unitCount": 1,
    "severity": 0,
    "lat": 47.618412,
    "long": -122.355206,
    "neighborhood": "Belltown",
    "neighborhoodGroup": "Downtown",
    "units": "A2"
  },
  {
    "id_str": "F220044710",
    "created_at": "4/18/2022 9:04:37 PM",
    "timestamp": 1650341077000,
    "description": "1RED 1 Unit",
    "address": "6500 Lake Shore Dr Ne",
    "active": false,
    "unitCount": 2,
    "severity": 0,
    "lat": 47.675868,
    "long": -122.253441,
    "neighborhood": "Laurelhurst/Sand Point",
    "neighborhoodGroup": "Northeast",
    "units": "FB3 FIREBOAT"
  },
  {
    "id_str": "F220044707",
    "created_at": "4/18/2022 8:53:40 PM",
    "timestamp": 1650340420000,
    "description": "Illegal Burn",
    "address": "1518 Nw 58th St",
    "active": false,
    "unitCount": 1,
    "severity": 0,
    "lat": 47.6709,
    "long": -122.376445,
    "neighborhood": "Ballard",
    "neighborhoodGroup": "Ballard",
    "units": "E18"
  },
  {
    "id_str": "F220044705",
    "created_at": "4/18/2022 8:36:54 PM",
    "timestamp": 1650339414000,
    "description": "Aid Response",
    "address": "2101 E Yesler Way",
    "active": false,
    "unitCount": 1,
    "severity": 0,
    "lat": 47.601672,
    "long": -122.305031,
    "neighborhood": "Central Area/Squire Park",
    "neighborhoodGroup": "Central",
    "units": "E6"
  },
  {
    "id_str": "F220044704",
    "created_at": "4/18/2022 8:34:41 PM",
    "timestamp": 1650339281000,
    "description": "Auto Fire Alarm",
    "address": "2208 2nd Ave",
    "active": false,
    "unitCount": 2,
    "severity": 0,
    "lat": 47.613326,
    "long": -122.344446,
    "neighborhood": "Belltown",
    "neighborhoodGroup": "Downtown",
    "units": "E2 L4"
  },
  {
    "id_str": "F220044703",
    "created_at": "4/18/2022 8:26:08 PM",
    "timestamp": 1650338768000,
    "description": "Medic Response",
    "address": "5625 15th Ave Ne",
    "active": false,
    "unitCount": 2,
    "severity": 0,
    "lat": 47.669772,
    "long": -122.311889,
    "neighborhood": "University District",
    "neighborhoodGroup": "Northeast",
    "units": "E17 M17"
  },
  {
    "id_str": "F220044699",
    "created_at": "4/18/2022 8:13:33 PM",
    "timestamp": 1650338013000,
    "description": "Auto Fire Alarm",
    "address": "2121 6th Ave",
    "active": false,
    "unitCount": 2,
    "severity": 0,
    "lat": 47.615317,
    "long": -122.33988,
    "neighborhood": "Cascade/Eastlake",
    "neighborhoodGroup": "Lake Union",
    "units": "E2 L4"
  },
  {
    "id_str": "F220044698",
    "created_at": "4/18/2022 8:12:14 PM",
    "timestamp": 1650337934000,
    "description": "MVI - Motor Vehicle Incident",
    "address": "15th Ave S / S Lucile St",
    "active": false,
    "unitCount": 1,
    "severity": 0,
    "lat": 47.553443,
    "long": -122.313473,
    "neighborhood": "Beacon Hill",
    "neighborhoodGroup": "Greater Duwamish",
    "units": "E13"
  },
  {
    "id_str": "F220044696",
    "created_at": "4/18/2022 8:07:33 PM",
    "timestamp": 1650337653000,
    "description": "Aid Response",
    "address": "607 3rd Ave",
    "active": false,
    "unitCount": 1,
    "severity": 0,
    "lat": 47.602813,
    "long": -122.331449,
    "neighborhood": "Downtown Commercial Core",
    "neighborhoodGroup": "Downtown",
    "units": "A5"
  },
  {
    "id_str": "F220044695",
    "created_at": "4/18/2022 8:05:27 PM",
    "timestamp": 1650337527000,
    "description": "MVI - Motor Vehicle Incident",
    "address": "SB SR99 AT HOLGATE",
    "active": false,
    "unitCount": 3,
    "severity": 0,
    "lat": 47.586022,
    "long": -122.339623,
    "neighborhood": "Duwamish/SODO",
    "neighborhoodGroup": "Greater Duwamish",
    "units": "A10 E10 E5"
  },
  {
    "id_str": "F220044693",
    "created_at": "4/18/2022 8:02:34 PM",
    "timestamp": 1650337354000,
    "description": "Medic Response, 7 per Rule",
    "address": "1811 Eastlake Ave",
    "active": false,
    "unitCount": 6,
    "severity": 1,
    "lat": 47.618002,
    "long": -122.329182,
    "neighborhood": "Cascade/Eastlake",
    "neighborhoodGroup": "Lake Union",
    "units": "A14 A2 E2 L4 M10 R1"
  },
  {
    "id_str": "F220044691",
    "created_at": "4/18/2022 7:47:49 PM",
    "timestamp": 1650336469000,
    "description": "Aid Response",
    "address": "225 Ward St",
    "active": false,
    "unitCount": 1,
    "severity": 0,
    "lat": 47.627975,
    "long": -122.352445,
    "neighborhood": "Queen Anne",
    "neighborhoodGroup": "Magnolia/Queen Anne",
    "units": "E8"
  },
  {
    "id_str": "F220044690",
    "created_at": "4/18/2022 7:40:49 PM",
    "timestamp": 1650336049000,
    "description": "Medic Response",
    "address": "3512 Sw Alaska St",
    "active": false,
    "unitCount": 3,
    "severity": 0,
    "lat": 47.561066,
    "long": -122.376355,
    "neighborhood": "West Seattle Junction/Genesee Hill",
    "neighborhoodGroup": "Southwest",
    "units": "E32 M26 M32"
  },
  {
    "id_str": "F220044689",
    "created_at": "4/18/2022 7:39:40 PM",
    "timestamp": 1650335980000,
    "description": "Aid Response",
    "address": "1205 Thomas St",
    "active": false,
    "unitCount": 1,
    "severity": 0,
    "lat": 47.620814,
    "long": -122.332852,
    "neighborhood": "Cascade/Eastlake",
    "neighborhoodGroup": "Lake Union",
    "units": "A2"
  },
  {
    "id_str": "F220044688",
    "created_at": "4/18/2022 7:39:19 PM",
    "timestamp": 1650335959000,
    "description": "Aid Response",
    "address": "1421 Minor Ave",
    "active": false,
    "unitCount": 1,
    "severity": 0,
    "lat": 47.613146,
    "long": -122.327096,
    "neighborhood": "Capitol Hill",
    "neighborhoodGroup": "East",
    "units": "A25"
  },
  {
    "id_str": "F220044686",
    "created_at": "4/18/2022 7:32:29 PM",
    "timestamp": 1650335549000,
    "description": "Aid Response",
    "address": "2519 1st Ave",
    "active": false,
    "unitCount": 1,
    "severity": 0,
    "lat": 47.614798,
    "long": -122.348918,
    "neighborhood": "Belltown",
    "neighborhoodGroup": "Downtown",
    "units": "A4"
  },
  {
    "id_str": "F220044685",
    "created_at": "4/18/2022 7:28:23 PM",
    "timestamp": 1650335303000,
    "description": "Alarm Bell",
    "address": "12532 Greenwood Ave N",
    "active": false,
    "unitCount": 1,
    "severity": 0,
    "lat": 47.719885,
    "long": -122.35554,
    "neighborhood": "Broadview/Bitter Lake",
    "neighborhoodGroup": "Northwest",
    "units": "E24"
  },
  {
    "id_str": "F220044683",
    "created_at": "4/18/2022 7:25:10 PM",
    "timestamp": 1650335110000,
    "description": "1RED 1 Unit",
    "address": "12334 33rd Ave Ne",
    "active": false,
    "unitCount": 1,
    "severity": 0,
    "lat": 47.717663,
    "long": -122.292772,
    "neighborhood": "Olympic Hills/Victory Heights",
    "neighborhoodGroup": "North",
    "units": "E39"
  },
  {
    "id_str": "F220044682",
    "created_at": "4/18/2022 7:12:51 PM",
    "timestamp": 1650334371000,
    "description": "Aid Response",
    "address": "2326 Rainier Ave S",
    "active": false,
    "unitCount": 1,
    "severity": 0,
    "lat": 47.582182,
    "long": -122.301074,
    "neighborhood": "Mt. Baker/North Rainier",
    "neighborhoodGroup": "Southeast",
    "units": "E30"
  },
  {
    "id_str": "F220044681",
    "created_at": "4/18/2022 7:06:01 PM",
    "timestamp": 1650333961000,
    "description": "Aid Response",
    "address": "N 53rd St / Meridian Ave N",
    "active": false,
    "unitCount": 1,
    "severity": 0,
    "lat": 47.667219,
    "long": -122.3337,
    "neighborhood": "Green Lake",
    "neighborhoodGroup": "Northwest",
    "units": "E16"
  },
  {
    "id_str": "F220044680",
    "created_at": "4/18/2022 6:58:26 PM",
    "timestamp": 1650333506000,
    "description": "Aid Response",
    "address": "E Olive Way / Summit Ave E",
    "active": false,
    "unitCount": 1,
    "severity": 0,
    "lat": 47.618896,
    "long": -122.325288,
    "neighborhood": "Capitol Hill",
    "neighborhoodGroup": "East",
    "units": "A25"
  },
  {
    "id_str": "F220044679",
    "created_at": "4/18/2022 6:56:30 PM",
    "timestamp": 1650333390000,
    "description": "Aid Response",
    "address": "8340 15th Ave Nw",
    "active": false,
    "unitCount": 1,
    "severity": 0,
    "lat": 47.689099,
    "long": -122.3768,
    "neighborhood": "Whittier Heights",
    "neighborhoodGroup": "Ballard",
    "units": "L8"
  },
  {
    "id_str": "F220044676",
    "created_at": "4/18/2022 6:53:26 PM",
    "timestamp": 1650333206000,
    "description": "Medic Response, 7 per Rule",
    "address": "4544 7th Ave Ne",
    "active": false,
    "unitCount": 5,
    "severity": 1,
    "lat": 47.662004,
    "long": -122.320724,
    "neighborhood": "Wallingford",
    "neighborhoodGroup": "Lake Union",
    "units": "CHAP7 E17 L9 M1 M28"
  },
  {
    "id_str": "F220044675",
    "created_at": "4/18/2022 6:47:03 PM",
    "timestamp": 1650332823000,
    "description": "Aid Response",
    "address": "3625 Interlake Ave N",
    "active": false,
    "unitCount": 3,
    "severity": 0,
    "lat": 47.650789,
    "long": -122.34137,
    "neighborhood": "Fremont",
    "neighborhoodGroup": "Lake Union",
    "units": "E21 E9 M1"
  },
  {
    "id_str": "F220044673",
    "created_at": "4/18/2022 6:46:04 PM",
    "timestamp": 1650332764000,
    "description": "Auto Fire Alarm",
    "address": "1301 6th Ave",
    "active": false,
    "unitCount": 2,
    "severity": 0,
    "lat": 47.60916,
    "long": -122.33264,
    "neighborhood": "First Hill",
    "neighborhoodGroup": "East",
    "units": "E5 L1"
  },
  {
    "id_str": "F220044674",
    "created_at": "4/18/2022 6:45:58 PM",
    "timestamp": 1650332758000,
    "description": "Medic Response",
    "address": "2575 5th Ave W",
    "active": false,
    "unitCount": 2,
    "severity": 0,
    "lat": 47.642899,
    "long": -122.36358,
    "neighborhood": "Queen Anne",
    "neighborhoodGroup": "Magnolia/Queen Anne",
    "units": "E8 M32"
  },
  {
    "id_str": "F220044670",
    "created_at": "4/18/2022 6:42:21 PM",
    "timestamp": 1650332541000,
    "description": "Auto Fire Alarm",
    "address": "14115 Aurora Ave N",
    "active": false,
    "unitCount": 2,
    "severity": 0,
    "lat": 47.731129,
    "long": -122.345064,
    "neighborhood": "Haller Lake",
    "neighborhoodGroup": "Northwest",
    "units": "E24 L5"
  },
  {
    "id_str": "F220044668",
    "created_at": "4/18/2022 6:38:41 PM",
    "timestamp": 1650332321000,
    "description": "Aid Response",
    "address": "13730 Lake City Way Ne",
    "active": false,
    "unitCount": 1,
    "severity": 0,
    "lat": 47.728466,
    "long": -122.292256,
    "neighborhood": "Cedar Park/Meadowbrook",
    "neighborhoodGroup": "North",
    "units": "E39"
  },
  {
    "id_str": "F220044667",
    "created_at": "4/18/2022 6:37:45 PM",
    "timestamp": 1650332265000,
    "description": "Aid Response",
    "address": "E Olive Way / Summit Ave E",
    "active": false,
    "unitCount": 2,
    "severity": 0,
    "lat": 47.618896,
    "long": -122.325288,
    "neighborhood": "Capitol Hill",
    "neighborhoodGroup": "East",
    "units": "E25 L10"
  },
  {
    "id_str": "F220044666",
    "created_at": "4/18/2022 6:27:12 PM",
    "timestamp": 1650331632000,
    "description": "Wires Down",
    "address": "323 Nw 86th St",
    "active": false,
    "unitCount": 1,
    "severity": 0,
    "lat": 47.69135,
    "long": -122.36085,
    "neighborhood": "Greenwood/Phinney Ridge",
    "neighborhoodGroup": "Northwest",
    "units": "E35"
  },
  {
    "id_str": "F220044665",
    "created_at": "4/18/2022 6:21:34 PM",
    "timestamp": 1650331294000,
    "description": "Aid Response",
    "address": "6758 28th Ave S",
    "active": false,
    "unitCount": 1,
    "severity": 0,
    "lat": 47.541457,
    "long": -122.296893,
    "neighborhood": "South Beacon Hill/NewHolly",
    "neighborhoodGroup": "Greater Duwamish",
    "units": "E28"
  },
  {
    "id_str": "F220044664",
    "created_at": "4/18/2022 6:21:21 PM",
    "timestamp": 1650331281000,
    "description": "Aid Response",
    "address": "6534 25th Ave Sw",
    "active": false,
    "unitCount": 1,
    "severity": 0,
    "lat": 47.54442,
    "long": -122.364579,
    "neighborhood": "High Point",
    "neighborhoodGroup": "Delridge Neighborhoods",
    "units": "E11"
  },
  {
    "id_str": "F220044662",
    "created_at": "4/18/2022 6:14:05 PM",
    "timestamp": 1650330845000,
    "description": "Wires Down",
    "address": "9025 2nd Ave Ne",
    "active": false,
    "unitCount": 1,
    "severity": 0,
    "lat": 47.694298,
    "long": -122.327073,
    "neighborhood": "Northgate/Maple Leaf",
    "neighborhoodGroup": "North",
    "units": "E16"
  },
  {
    "id_str": "F220044661",
    "created_at": "4/18/2022 6:13:17 PM",
    "timestamp": 1650330797000,
    "description": "Electrical Problem",
    "address": "811 Hiawatha Pl S",
    "active": false,
    "unitCount": 1,
    "severity": 0,
    "lat": 47.595712,
    "long": -122.310095,
    "neighborhood": "North Beacon Hill/Jefferson Park",
    "neighborhoodGroup": "Greater Duwamish",
    "units": "E6"
  },
  {
    "id_str": "F220044660",
    "created_at": "4/18/2022 6:12:17 PM",
    "timestamp": 1650330737000,
    "description": "Aid Response",
    "address": "1219 E Marion St",
    "active": false,
    "unitCount": 1,
    "severity": 0,
    "lat": 47.610394,
    "long": -122.31652,
    "neighborhood": "First Hill",
    "neighborhoodGroup": "East",
    "units": "E25"
  },
  {
    "id_str": "F220044659",
    "created_at": "4/18/2022 6:09:58 PM",
    "timestamp": 1650330598000,
    "description": "Medic Response",
    "address": "900 University St",
    "active": false,
    "unitCount": 2,
    "severity": 0,
    "lat": 47.61055,
    "long": -122.329318,
    "neighborhood": "First Hill",
    "neighborhoodGroup": "East",
    "units": "A25 M10"
  },
  {
    "id_str": "F220044656",
    "created_at": "4/18/2022 5:51:38 PM",
    "timestamp": 1650329498000,
    "description": "MVI - Motor Vehicle Incident",
    "address": "Boren Ave / Howell St",
    "active": false,
    "unitCount": 1,
    "severity": 0,
    "lat": 47.616171,
    "long": -122.331417,
    "neighborhood": "Cascade/Eastlake",
    "neighborhoodGroup": "Lake Union",
    "units": "E25"
  },
  {
    "id_str": "F220044657",
    "created_at": "4/18/2022 5:51:36 PM",
    "timestamp": 1650329496000,
    "description": "Aid Response",
    "address": "1801 16th Ave Sw",
    "active": false,
    "unitCount": 1,
    "severity": 0,
    "lat": 47.586231,
    "long": -122.355429,
    "neighborhood": "North Delridge",
    "neighborhoodGroup": "Delridge Neighborhoods",
    "units": "E36"
  },
  {
    "id_str": "F220044653",
    "created_at": "4/18/2022 5:40:01 PM",
    "timestamp": 1650328801000,
    "description": "Medic Response",
    "address": "721 N 79th St",
    "active": false,
    "unitCount": 2,
    "severity": 0,
    "lat": 47.686218,
    "long": -122.349616,
    "neighborhood": "Greenwood/Phinney Ridge",
    "neighborhoodGroup": "Northwest",
    "units": "E21 M31"
  },
  {
    "id_str": "F220044651",
    "created_at": "4/18/2022 5:37:59 PM",
    "timestamp": 1650328679000,
    "description": "Aid Response",
    "address": "1400 3RD AVE",
    "active": false,
    "unitCount": 1,
    "severity": 0,
    "lat": 47.608756,
    "long": -122.336885,
    "neighborhood": "Downtown Commercial Core",
    "neighborhoodGroup": "Downtown",
    "units": "A5"
  },