[
  {
    "id_str": "F190064188",
    "created_at": "6/19/2019 4:59:16 PM",
    "derived": {
      "lat": 47.587553,
      "long": -122.325972,
      "timestamp": 1560988756000,
      "description": "Aid Response",
      "entries": 1,
      "neighborhood": "Duwamish/SODO",
      "neighborhoodGroup": "Greater Duwamish",
      "unitCount": 1,
      "severity": 0,
      "units": "A10",
      "address": "1765 6th Av S"
    }
  },
  {
    "id_str": "F190064187",
    "created_at": "6/19/2019 4:58:08 PM",
    "derived": {
      "lat": 47.613167,
      "long": -122.342193,
      "timestamp": 1560988688000,
      "description": "Aid Response",
      "entries": 1,
      "neighborhood": "Cascade/Eastlake",
      "neighborhoodGroup": "Lake Union",
      "unitCount": 1,
      "severity": 0,
      "units": "A2",
      "address": "3rd Av / Lenora St"
    }
  },
  {
    "id_str": "F190064186",
    "created_at": "6/19/2019 4:56:08 PM",
    "derived": {
      "lat": 47.712167,
      "long": -122.312433,
      "timestamp": 1560988568000,
      "description": "Aid Response",
      "entries": 1,
      "neighborhood": "Olympic Hills/Victory Heights",
      "neighborhoodGroup": "North",
      "unitCount": 1,
      "severity": 0,
      "units": "E31",
      "address": "11501 15th Av Ne"
    }
  },
  {
    "id_str": "F190064185",
    "created_at": "6/19/2019 4:53:05 PM",
    "derived": {
      "lat": 47.592399,
      "long": -122.327256,
      "timestamp": 1560988385000,
      "description": "Aid Response Yellow",
      "entries": 1,
      "neighborhood": "Duwamish/SODO",
      "neighborhoodGroup": "Greater Duwamish",
      "unitCount": 1,
      "severity": 0,
      "units": "A5",
      "address": "503 S Royal Brougham Way"
    }
  },
  {
    "id_str": "F190064184",
    "created_at": "6/19/2019 4:52:33 PM",
    "derived": {
      "lat": 47.615473,
      "long": -122.346094,
      "timestamp": 1560988353000,
      "description": "Aid Response",
      "entries": 1,
      "neighborhood": "Cascade/Eastlake",
      "neighborhoodGroup": "Lake Union",
      "unitCount": 1,
      "severity": 0,
      "units": "A4",
      "address": "3rd Av / Battery St"
    }
  },
  {
    "id_str": "F190064182",
    "created_at": "6/19/2019 4:44:26 PM",
    "derived": {
      "lat": 47.698223,
      "long": -122.355381,
      "timestamp": 1560987866000,
      "description": "Aid Response",
      "entries": 1,
      "neighborhood": "Greenwood/Phinney Ridge",
      "neighborhoodGroup": "Northwest",
      "unitCount": 1,
      "severity": 0,
      "units": "E35",
      "address": "9543 Greenwood Av N"
    }
  },
  {
    "id_str": "F190064177",
    "created_at": "6/19/2019 4:34:02 PM",
    "derived": {
      "lat": 47.616815,
      "long": -122.311453,
      "timestamp": 1560987242000,
      "description": "Aid Response",
      "entries": 1,
      "neighborhood": "Central Area/Squire Park",
      "neighborhoodGroup": "Central",
      "unitCount": 1,
      "severity": 0,
      "units": "A25",
      "address": "1732 16th Av"
    }
  },
  {
    "id_str": "F190064176",
    "created_at": "6/19/2019 4:33:43 PM",
    "derived": {
      "lat": 47.510455,
      "long": -122.238809,
      "timestamp": 1560987223000,
      "description": "Aid Response",
      "entries": 1,
      "neighborhood": "Rainier Beach",
      "neighborhoodGroup": "Southeast",
      "unitCount": 1,
      "severity": 0,
      "units": "E33",
      "address": "10358 Rainier Av S"
    }
  },
  {
    "id_str": "F190064175",
    "created_at": "6/19/2019 4:28:28 PM",
    "derived": {
      "lat": 47.698223,
      "long": -122.355381,
      "timestamp": 1560986908000,
      "description": "Automatic Medical Alarm",
      "entries": 1,
      "neighborhood": "Greenwood/Phinney Ridge",
      "neighborhoodGroup": "Northwest",
      "unitCount": 1,
      "severity": 0,
      "units": "E21",
      "address": "9543 GREENWOOD AV N"
    }
  },
  {
    "id_str": "F190064174",
    "created_at": "6/19/2019 4:26:59 PM",
    "derived": {
      "lat": 47.622089,
      "long": -122.351371,
      "timestamp": 1560986819000,
      "description": "Auto Fire Alarm",
      "entries": 1,
      "neighborhood": "Queen Anne",
      "neighborhoodGroup": "Magnolia/Queen Anne",
      "unitCount": 2,
      "severity": 0,
      "units": "E2 L4",
      "address": "305 Harrison St"
    }
  },
  {
    "id_str": "F190064171",
    "created_at": "6/19/2019 4:11:02 PM",
    "derived": {
      "lat": 47.591666,
      "long": -122.301291,
      "timestamp": 1560985862000,
      "description": "Aid Response Yellow",
      "entries": 1,
      "neighborhood": "Mt. Baker/North Rainier",
      "neighborhoodGroup": "Southeast",
      "unitCount": 1,
      "severity": 0,
      "units": "E6",
      "address": "1305 24th Av S"
    }
  },
  {
    "id_str": "F190064168",
    "created_at": "6/19/2019 4:06:57 PM",
    "derived": {
      "lat": 47.575335,
      "long": -122.418114,
      "timestamp": 1560985617000,
      "description": "Aid Response",
      "entries": 1,
      "neighborhood": "Alki/Admiral",
      "neighborhoodGroup": "Southwest",
      "unitCount": 1,
      "severity": 0,
      "units": "E29",
      "address": "3225 Benton Pl Sw"
    }
  },
  {
    "id_str": "F190064166",
    "created_at": "6/19/2019 4:03:52 PM",
    "derived": {
      "lat": 47.618002,
      "long": -122.329182,
      "timestamp": 1560985432000,
      "description": "Aid Response",
      "entries": 1,
      "neighborhood": "Cascade/Eastlake",
      "neighborhoodGroup": "Lake Union",
      "unitCount": 1,
      "severity": 0,
      "units": "A25",
      "address": "1811 Eastlake Av"
    }
  },
  {
    "id_str": "F190064167",
    "created_at": "6/19/2019 4:03:24 PM",
    "derived": {
      "lat": 47.73104,
      "long": -122.347764,
      "timestamp": 1560985404000,
      "description": "Medic Response",
      "entries": 3,
      "neighborhood": "Broadview/Bitter Lake",
      "neighborhoodGroup": "Northwest",
      "unitCount": 3,
      "severity": 0,
      "units": "E24 M17 M31",
      "address": "14100 Linden Av N"
    }
  },
  {
    "id_str": "F190064165",
    "created_at": "6/19/2019 4:03:21 PM",
    "derived": {
      "lat": 47.730569,
      "long": -122.347758,
      "timestamp": 1560985401000,
      "description": "Medic Response",
      "entries": 1,
      "neighborhood": "Broadview/Bitter Lake",
      "neighborhoodGroup": "Northwest",
      "unitCount": 2,
      "severity": 0,
      "units": "A31 M31",
      "address": "14002 Linden Av N"
    }
  },
  {
    "id_str": "F190064164",
    "created_at": "6/19/2019 4:01:02 PM",
    "derived": {
      "lat": 47.616824,
      "long": -122.357604,
      "timestamp": 1560985262000,
      "description": "Aid Response",
      "entries": 2,
      "neighborhood": "Belltown",
      "neighborhoodGroup": "Downtown",
      "unitCount": 2,
      "severity": 0,
      "units": "A4 E2",
      "address": "3130 ALASKAN WAY"
    }
  },
  {
    "id_str": "F190064161",
    "created_at": "6/19/2019 3:54:50 PM",
    "derived": {
      "lat": 47.602056,
      "long": -122.330756,
      "timestamp": 1560984890000,
      "description": "Aid Response",
      "entries": 1,
      "neighborhood": "Downtown Commercial Core",
      "neighborhoodGroup": "Downtown",
      "unitCount": 1,
      "severity": 0,
      "units": "A10",
      "address": "3rd Av / Jefferson St"
    }
  },
  {
    "id_str": "F190064160",
    "created_at": "6/19/2019 3:51:23 PM",
    "derived": {
      "lat": 47.624659,
      "long": -122.355403,
      "timestamp": 1560984683000,
      "description": "Aid Response",
      "entries": 1,
      "neighborhood": "Queen Anne",
      "neighborhoodGroup": "Magnolia/Queen Anne",
      "unitCount": 1,
      "severity": 0,
      "units": "A2",
      "address": "610 1st Av N"
    }
  },
  {
    "id_str": "F190064159",
    "created_at": "6/19/2019 3:45:50 PM",
    "derived": {
      "lat": 47.615789,
      "long": -122.336507,
      "timestamp": 1560984350000,
      "description": "Aid Response",
      "entries": 1,
      "neighborhood": "Cascade/Eastlake",
      "neighborhoodGroup": "Lake Union",
      "unitCount": 1,
      "severity": 0,
      "units": "A4",
      "address": "810 Virginia St"
    }
  },
  {
    "id_str": "F190064158",
    "created_at": "6/19/2019 3:42:08 PM",
    "derived": {
      "lat": 47.603098,
      "long": -122.33782,
      "timestamp": 1560984128000,
      "description": "Rubbish Fire",
      "entries": 2,
      "neighborhood": "Downtown Commercial Core",
      "neighborhoodGroup": "Downtown",
      "unitCount": 2,
      "severity": 0,
      "units": "E5 L1",
      "address": "906 Alaskan Way"
    }
  },
  {
    "id_str": "F190064154",
    "created_at": "6/19/2019 3:25:16 PM",
    "derived": {
      "lat": 47.663106,
      "long": -122.315263,
      "timestamp": 1560983116000,
      "description": "Medic Response, 6 per Rule",
      "entries": 1,
      "neighborhood": "University District",
      "neighborhoodGroup": "Northeast",
      "unitCount": 3,
      "severity": 0,
      "units": "E17 E31 M17",
      "address": "12th Av Ne / Ne 47th St"
    }
  },
  {
    "id_str": "F190064153",
    "created_at": "6/19/2019 3:21:12 PM",
    "derived": {
      "lat": 47.575283,
      "long": -122.329059,
      "timestamp": 1560982872000,
      "description": "Medic Response",
      "entries": 2,
      "neighborhood": "Duwamish/SODO",
      "neighborhoodGroup": "Greater Duwamish",
      "unitCount": 2,
      "severity": 0,
      "units": "A14 M10",
      "address": "3224 4th Av S"
    }
  },
  {
    "id_str": "F190064151",
    "created_at": "6/19/2019 3:17:26 PM",
    "derived": {
      "lat": 47.548171,
      "long": -122.373688,
      "timestamp": 1560982646000,
      "description": "Aid Response",
      "entries": 1,
      "neighborhood": "High Point",
      "neighborhoodGroup": "Delridge Neighborhoods",
      "unitCount": 1,
      "severity": 0,
      "units": "E37",
      "address": "6025 Lanham Pl Sw"
    }
  },
  {
    "id_str": "F190064152",
    "created_at": "6/19/2019 3:17:21 PM",
    "derived": {
      "lat": 47.566974,
      "long": -122.32047,
      "timestamp": 1560982641000,
      "description": "MVI Freeway",
      "entries": 3,
      "neighborhood": "Duwamish/SODO",
      "neighborhoodGroup": "Greater Duwamish",
      "unitCount": 7,
      "severity": 1,
      "units": "A25 A5 E10 E13 E2 E25 E27",
      "address": "NB I5 TO WB WSEA FRWY"
    }
  },
  {
    "id_str": "F190064149",
    "created_at": "6/19/2019 3:16:09 PM",
    "derived": {
      "lat": 47.616138,
      "long": -122.345235,
      "timestamp": 1560982569000,
      "description": "Aid Response",
      "entries": 1,
      "neighborhood": "Cascade/Eastlake",
      "neighborhoodGroup": "Lake Union",
      "unitCount": 1,
      "severity": 0,
      "units": "E2",
      "address": "4th Av / Battery St"
    }
  },
  {
    "id_str": "F190064148",
    "created_at": "6/19/2019 3:12:37 PM",
    "derived": {
      "lat": 47.616998,
      "long": -122.352642,
      "timestamp": 1560982357000,
      "description": "Medic Response",
      "entries": 1,
      "neighborhood": "Belltown",
      "neighborhoodGroup": "Downtown",
      "unitCount": 2,
      "severity": 0,
      "units": "A2 M1",
      "address": "2911 1st Av"
    }
  },
  {
    "id_str": "F190064147",
    "created_at": "6/19/2019 3:07:35 PM",
    "derived": {
      "lat": 47.619962,
      "long": -122.313504,
      "timestamp": 1560982055000,
      "description": "Illegal Burn",
      "entries": 1,
      "neighborhood": "Capitol Hill",
      "neighborhoodGroup": "East",
      "unitCount": 1,
      "severity": 0,
      "units": "A25",
      "address": "E John Ct / E John St"
    }
  },
  {
    "id_str": "F190064146",
    "created_at": "6/19/2019 3:06:35 PM",
    "derived": {
      "lat": 47.699627,
      "long": -122.376781,
      "timestamp": 1560981995000,
      "description": "Aid Response",
      "entries": 1,
      "neighborhood": "North Beach/Blue Ridge",
      "neighborhoodGroup": "Ballard",
      "unitCount": 1,
      "severity": 0,
      "units": "E35",
      "address": "9701 15th Av Nw"
    }
  },
  {
    "id_str": "F190064145",
    "created_at": "6/19/2019 3:05:21 PM",
    "derived": {
      "lat": 47.665592,
      "long": -122.380857,
      "timestamp": 1560981921000,
      "description": "Aid Response",
      "entries": 1,
      "neighborhood": "Ballard",
      "neighborhoodGroup": "Ballard",
      "unitCount": 1,
      "severity": 0,
      "units": "E18",
      "address": "Leary Av Nw / Nw Ione Pl"
    }
  },
  {
    "id_str": "F190064143",
    "created_at": "6/19/2019 3:03:47 PM",
    "derived": {
      "lat": 47.60975,
      "long": -122.337793,
      "timestamp": 1560981827000,
      "description": "Aid Response Yellow",
      "entries": 1,
      "neighborhood": "Downtown Commercial Core",
      "neighborhoodGroup": "Downtown",
      "unitCount": 1,
      "severity": 0,
      "units": "A4",
      "address": "3rd Av / Pike St"
    }
  },
  {
    "id_str": "F190064138",
    "created_at": "6/19/2019 2:47:38 PM",
    "derived": {
      "lat": 47.58617,
      "long": -122.329062,
      "timestamp": 1560980858000,
      "description": "MVI - Motor Vehicle Incident",
      "entries": 1,
      "neighborhood": "Duwamish/SODO",
      "neighborhoodGroup": "Greater Duwamish",
      "unitCount": 1,
      "severity": 0,
      "units": "R1",
      "address": "4th Av S / S Holgate St"
    }
  },
  {
    "id_str": "F190064139",
    "created_at": "6/19/2019 2:47:25 PM",
    "derived": {
      "lat": 47.700202,
      "long": -122.290268,
      "timestamp": 1560980845000,
      "description": "Aid Response Yellow",
      "entries": 1,
      "neighborhood": "Wedgwood/View Ridge",
      "neighborhoodGroup": "Northeast",
      "unitCount": 1,
      "severity": 0,
      "units": "E40",
      "address": "3544 Ne 98th St"
    }
  },
  {
    "id_str": "F190064134",
    "created_at": "6/19/2019 2:37:52 PM",
    "derived": {
      "lat": 47.60252,
      "long": -122.329645,
      "timestamp": 1560980272000,
      "description": "Medic Response, 6 per Rule",
      "entries": 3,
      "neighborhood": "Downtown Commercial Core",
      "neighborhoodGroup": "Downtown",
      "unitCount": 3,
      "severity": 0,
      "units": "E10 L1 M10",
      "address": "4TH AV / JEFFERSON ST"
    }
  },
  {
    "id_str": "F190064133",
    "created_at": "6/19/2019 2:36:33 PM",
    "derived": {
      "lat": 47.672148,
      "long": -122.28392,
      "timestamp": 1560980193000,
      "description": "Aid Response",
      "entries": 1,
      "neighborhood": "Ravenna/Bryant",
      "neighborhoodGroup": "Northeast",
      "unitCount": 1,
      "severity": 0,
      "units": "E38",
      "address": "4105 Ne 60th St"
    }
  },
  {
    "id_str": "F190064132",
    "created_at": "6/19/2019 2:34:34 PM",
    "derived": {
      "lat": 47.614798,
      "long": -122.348918,
      "timestamp": 1560980074000,
      "description": "Automatic Medical Alarm",
      "entries": 3,
      "neighborhood": "Belltown",
      "neighborhoodGroup": "Downtown",
      "unitCount": 2,
      "severity": 0,
      "units": "A4 L4",
      "address": "2519 1st Av"
    }
  },
  {
    "id_str": "F190064130",
    "created_at": "6/19/2019 2:31:53 PM",
    "derived": {
      "lat": 47.632353,
      "long": -122.320211,
      "timestamp": 1560979913000,
      "description": "Medic Response",
      "entries": 3,
      "neighborhood": "Cascade/Eastlake",
      "neighborhoodGroup": "Lake Union",
      "unitCount": 2,
      "severity": 0,
      "units": "A25 M1",
      "address": "1508 10th Av E"
    }
  },
  {
    "id_str": "F190064128",
    "created_at": "6/19/2019 2:29:17 PM",
    "derived": {
      "lat": 47.658617,
      "long": -122.389921,
      "timestamp": 1560979757000,
      "description": "Medic Response",
      "entries": 2,
      "neighborhood": "Interbay",
      "neighborhoodGroup": "Magnolia/Queen Anne",
      "unitCount": 2,
      "severity": 0,
      "units": "E20 M18",
      "address": "Gilman Av W / 26th Av W"
    }
  },
  {
    "id_str": "F190064126",
    "created_at": "6/19/2019 2:21:38 PM",
    "derived": {
      "lat": 47.557018,
      "long": -122.330906,
      "timestamp": 1560979298000,
      "description": "Aid Response",
      "entries": 1,
      "neighborhood": "Duwamish/SODO",
      "neighborhoodGroup": "Greater Duwamish",
      "unitCount": 1,
      "severity": 0,
      "units": "E26",
      "address": "5005 3rd Av S"
    }
  },
  {
    "id_str": "F190064125",
    "created_at": "6/19/2019 2:21:05 PM",
    "derived": {
      "lat": 47.618645,
      "long": -122.354147,
      "timestamp": 1560979265000,
      "description": "Rescue Elevator",
      "entries": 1,
      "neighborhood": "Belltown",
      "neighborhoodGroup": "Downtown",
      "unitCount": 1,
      "severity": 0,
      "units": "L4",
      "address": "105 Warren Av N"
    }
  },
  {
    "id_str": "F190064123",
    "created_at": "6/19/2019 2:20:40 PM",
    "derived": {
      "lat": 47.694758,
      "long": -122.368712,
      "timestamp": 1560979240000,
      "description": "Medic Response",
      "entries": 2,
      "neighborhood": "Greenwood/Phinney Ridge",
      "neighborhoodGroup": "Northwest",
      "unitCount": 2,
      "severity": 0,
      "units": "E35 M31",
      "address": "9056 9th Av Nw"
    }
  },
  {
    "id_str": "F190064124",
    "created_at": "6/19/2019 2:20:37 PM",
    "derived": {
      "lat": 47.651399,
      "long": -122.304741,
      "timestamp": 1560979237000,
      "description": "Auto Fire Alarm",
      "entries": 2,
      "neighborhood": "University District",
      "neighborhoodGroup": "Northeast",
      "unitCount": 3,
      "severity": 0,
      "units": "E31 L10 L9",
      "address": "2100 Ne Mason Rd"
    }
  },
  {
    "id_str": "F190064121",
    "created_at": "6/19/2019 2:17:53 PM",
    "derived": {
      "lat": 47.651399,
      "long": -122.304741,
      "timestamp": 1560979073000,
      "description": "Aid Response",
      "entries": 1,
      "neighborhood": "University District",
      "neighborhoodGroup": "Northeast",
      "unitCount": 2,
      "severity": 0,
      "units": "E31 L10",
      "address": "2100 NE MASON RD"
    }
  },
  {
    "id_str": "F190064120",
    "created_at": "6/19/2019 2:13:19 PM",
    "derived": {
      "lat": 47.663106,
      "long": -122.315263,
      "timestamp": 1560978799000,
      "description": "Aid Response",
      "entries": 1,
      "neighborhood": "University District",
      "neighborhoodGroup": "Northeast",
      "unitCount": 1,
      "severity": 0,
      "units": "E16",
      "address": "4700 12th Av Ne"
    }
  },
  {
    "id_str": "F190064118",
    "created_at": "6/19/2019 2:12:45 PM",
    "derived": {
      "lat": 47.651824,
      "long": -122.304062,
      "timestamp": 1560978765000,
      "description": "Auto Fire Alarm",
      "entries": 1,
      "neighborhood": "University District",
      "neighborhoodGroup": "Northeast",
      "unitCount": 2,
      "severity": 0,
      "units": "E22 L9",
      "address": "3749 Mason Rd Ne"
    }
  },
  {
    "id_str": "F190064116",
    "created_at": "6/19/2019 2:10:29 PM",
    "derived": {
      "lat": 47.555769,
      "long": -122.338238,
      "timestamp": 1560978629000,
      "description": "MVI - Motor Vehicle Incident",
      "entries": 2,
      "neighborhood": "Georgetown",
      "neighborhoodGroup": "Greater Duwamish",
      "unitCount": 1,
      "severity": 0,
      "units": "E27",
      "address": "S Dawson St / East Marginal Way S"
    }
  },
  {
    "id_str": "F190064114",
    "created_at": "6/19/2019 2:06:27 PM",
    "derived": {
      "lat": 47.659899,
      "long": -122.313165,
      "timestamp": 1560978387000,
      "description": "Medic Response",
      "entries": 2,
      "neighborhood": "University District",
      "neighborhoodGroup": "Northeast",
      "unitCount": 3,
      "severity": 0,
      "units": "E17 M10 M17",
      "address": "4315 University Way Ne"
    }
  },
  {
    "id_str": "F190064112",
    "created_at": "6/19/2019 2:01:08 PM",
    "derived": {
      "lat": 47.621233,
      "long": -122.308727,
      "timestamp": 1560978068000,
      "description": "Advised Incident",
      "entries": 1,
      "neighborhood": "Miller Park",
      "neighborhoodGroup": "East",
      "unitCount": 1,
      "severity": 0,
      "units": "L10",
      "address": "347 18th Av E"
    }
  },
  {
    "id_str": "F190064109",
    "created_at": "6/19/2019 1:59:23 PM",
    "derived": {
      "lat": 47.610903,
      "long": -122.326571,
      "timestamp": 1560977963000,
      "description": "Aid Response",
      "entries": 1,
      "neighborhood": "First Hill",
      "neighborhoodGroup": "East",
      "unitCount": 1,
      "severity": 0,
      "units": "A5",
      "address": "1220 BOREN AV"
    }
  },
  {
    "id_str": "F190064108",
    "created_at": "6/19/2019 1:55:21 PM",
    "derived": {
      "lat": 47.655825,
      "long": -122.323503,
      "timestamp": 1560977721000,
      "description": "Aid Response",
      "entries": 1,
      "neighborhood": "Wallingford",
      "neighborhoodGroup": "Lake Union",
      "unitCount": 1,
      "severity": 0,
      "units": "E31",
      "address": "5TH AV NE / NE 40TH ST"
    }
  },
  {
    "id_str": "F190064106",
    "created_at": "6/19/2019 1:49:55 PM",
    "derived": {
      "lat": 47.651214,
      "long": -122.308083,
      "timestamp": 1560977395000,
      "description": "Auto Fire Alarm",
      "entries": 2,
      "neighborhood": "University District",
      "neighborhoodGroup": "Northeast",
      "unitCount": 3,
      "severity": 0,
      "units": "E17 L10 L9",
      "address": "3712 Garfield Pl Ne"
    }
  },
  {
    "id_str": "F190064105",
    "created_at": "6/19/2019 1:49:32 PM",
    "derived": {
      "lat": 47.719619,
      "long": -122.355539,
      "timestamp": 1560977372000,
      "description": "Auto Fire Alarm",
      "entries": 2,
      "neighborhood": "Broadview/Bitter Lake",
      "neighborhoodGroup": "Northwest",
      "unitCount": 3,
      "severity": 0,
      "units": "E24 L5 L9",
      "address": "12503 Greenwood Av N"
    }
  },
  {
    "id_str": "F190064101",
    "created_at": "6/19/2019 1:37:05 PM",
    "derived": {
      "lat": 47.615345,
      "long": -122.337941,
      "timestamp": 1560976625000,
      "description": "Hang-Up, Aid",
      "entries": 1,
      "neighborhood": "Cascade/Eastlake",
      "neighborhoodGroup": "Lake Union",
      "unitCount": 1,
      "severity": 0,
      "units": "A2",
      "address": "2021 7th Av"
    }
  },
  {
    "id_str": "F190064100",
    "created_at": "6/19/2019 1:35:26 PM",
    "derived": {
      "lat": 47.540718,
      "long": -122.292526,
      "timestamp": 1560976526000,
      "description": "1RED 1 Unit",
      "entries": 1,
      "neighborhood": "South Beacon Hill/NewHolly",
      "neighborhoodGroup": "Greater Duwamish",
      "unitCount": 1,
      "severity": 0,
      "units": "E33",
      "address": "3017 S WILLOW ST"
    }
  },
  {
    "id_str": "F190064099",
    "created_at": "6/19/2019 1:35:22 PM",
    "derived": {
      "lat": 47.602114,
      "long": -122.330809,
      "timestamp": 1560976522000,
      "description": "Aid Response",
      "entries": 1,
      "neighborhood": "Downtown Commercial Core",
      "neighborhoodGroup": "Downtown",
      "unitCount": 1,
      "severity": 0,
      "units": "A10",
      "address": "509 3rd Av"
    }
  },
  {
    "id_str": "F190064098",
    "created_at": "6/19/2019 1:35:16 PM",
    "derived": {
      "lat": 47.734053,
      "long": -122.323484,
      "timestamp": 1560976516000,
      "description": "MVI - Motor Vehicle Incident",
      "entries": 1,
      "unitCount": 1,
      "severity": 0,
      "units": "L5",
      "address": "5th Av Ne / Ne 145th St"
    }
  },
  {
    "id_str": "F190064097",
    "created_at": "6/19/2019 1:33:48 PM",
    "derived": {
      "lat": 47.624349,
      "long": -122.321989,
      "timestamp": 1560976428000,
      "description": "Aid Response",
      "entries": 1,
      "neighborhood": "Capitol Hill",
      "neighborhoodGroup": "East",
      "unitCount": 1,
      "severity": 0,
      "units": "A25",
      "address": "610 Harvard Av E"
    }
  },
  {
    "id_str": "F190064095",
    "created_at": "6/19/2019 1:28:24 PM",
    "derived": {
      "lat": 47.550605,
      "long": -122.258063,
      "timestamp": 1560976104000,
      "description": "Rescue Lock In/Out",
      "entries": 1,
      "neighborhood": "Seward Park",
      "neighborhoodGroup": "Southeast",
      "unitCount": 1,
      "severity": 0,
      "units": "L12",
      "address": "5902 Lake Washington Blvd S"
    }
  },
  {
    "id_str": "F190064094",
    "created_at": "6/19/2019 1:23:10 PM",
    "derived": {
      "lat": 47.571853,
      "long": -122.293193,
      "timestamp": 1560975790000,
      "description": "Aid Response",
      "entries": 1,
      "neighborhood": "Columbia City",
      "neighborhoodGroup": "Southeast",
      "unitCount": 1,
      "severity": 0,
      "units": "E6",
      "address": "3501 Rainier Av S"
    }
  },
  {
    "id_str": "F190064089",
    "created_at": "6/19/2019 1:16:06 PM",
    "derived": {
      "lat": 47.521244,
      "long": -122.336301,
      "timestamp": 1560975366000,
      "description": "Aid Response Yellow",
      "entries": 1,
      "neighborhood": "Highland Park",
      "neighborhoodGroup": "Delridge Neighborhoods",
      "unitCount": 1,
      "severity": 0,
      "units": "E26",
      "address": "9200 2nd Av Sw"
    }
  },
  {
    "id_str": "F190064088",
    "created_at": "6/19/2019 1:14:33 PM",
    "derived": {
      "lat": 47.579411,
      "long": -122.312322,
      "timestamp": 1560975273000,
      "description": "Aid Response",
      "entries": 1,
      "neighborhood": "North Beacon Hill/Jefferson Park",
      "neighborhoodGroup": "Greater Duwamish",
      "unitCount": 1,
      "severity": 0,
      "units": "E13",
      "address": "2701 Beacon Av S"
    }
  },
  {
    "id_str": "F190064085",
    "created_at": "6/19/2019 1:09:00 PM",
    "derived": {
      "lat": 47.698717,
      "long": -122.343321,
      "timestamp": 1560974940000,
      "description": "Auto Fire Alarm",
      "entries": 1,
      "neighborhood": "Licton Springs",
      "neighborhoodGroup": "Northwest",
      "unitCount": 2,
      "severity": 0,
      "units": "E21 L5",
      "address": "9618 Midvale Av N"
    }
  },
  {
    "id_str": "F190064084",
    "created_at": "6/19/2019 1:07:09 PM",
    "derived": {
      "lat": 47.675802,
      "long": -122.314113,
      "timestamp": 1560974829000,
      "description": "Auto Fire Alarm",
      "entries": 1,
      "neighborhood": "University District",
      "neighborhoodGroup": "Northeast",
      "unitCount": 2,
      "severity": 0,
      "units": "E16 L9",
      "address": "1319 Ne 65th St"
    }
  },
  {
    "id_str": "F190064083",
    "created_at": "6/19/2019 1:06:41 PM",
    "derived": {
      "lat": 47.670769,
      "long": -122.319531,
      "timestamp": 1560974801000,
      "description": "Aid Response",
      "entries": 1,
      "neighborhood": "Wallingford",
      "neighborhoodGroup": "Lake Union",
      "unitCount": 1,
      "severity": 0,
      "units": "E17",
      "address": "841 Ne 58th St"
    }
  },
  {
    "id_str": "F190064082",
    "created_at": "6/19/2019 1:06:20 PM",
    "derived": {
      "lat": 47.516557,
      "long": -122.382167,
      "timestamp": 1560974780000,
      "description": "Aid Response",
      "entries": 1,
      "neighborhood": "Fauntleroy/Seaview",
      "neighborhoodGroup": "Southwest",
      "unitCount": 1,
      "severity": 0,
      "units": "E37",
      "address": "3905 Sw 97th St"
    }
  },
  {
    "id_str": "F190064081",
    "created_at": "6/19/2019 1:01:57 PM",
    "derived": {
      "lat": 47.586372,
      "long": -122.315973,
      "timestamp": 1560974517000,
      "description": "Aid Response",
      "entries": 1,
      "neighborhood": "North Beacon Hill/Jefferson Park",
      "neighborhoodGroup": "Greater Duwamish",
      "unitCount": 1,
      "severity": 0,
      "units": "E30",
      "address": "1820 13th Av S"
    }
  },
  {
    "id_str": "F190064080",
    "created_at": "6/19/2019 12:57:28 PM",
    "derived": {
      "lat": 47.668656,
      "long": -122.367069,
      "timestamp": 1560974248000,
      "description": "Aid Response",
      "entries": 1,
      "neighborhood": "Ballard",
      "neighborhoodGroup": "Ballard",
      "unitCount": 1,
      "severity": 0,
      "units": "E9",
      "address": "837 Nw Market St"
    }
  },
  {
    "id_str": "F190064077",
    "created_at": "6/19/2019 12:54:26 PM",
    "derived": {
      "lat": 47.699872,
      "long": -122.324247,
      "timestamp": 1560974066000,
      "description": "Medic Response",
      "entries": 1,
      "neighborhood": "Northgate/Maple Leaf",
      "neighborhoodGroup": "North",
      "unitCount": 2,
      "severity": 0,
      "units": "E31 M17",
      "address": "9800 4th Av Ne"
    }
  },
  {
    "id_str": "F190064076",
    "created_at": "6/19/2019 12:51:15 PM",
    "derived": {
      "lat": 47.681768,
      "long": -122.391908,
      "timestamp": 1560973875000,
      "description": "Aid Response",
      "entries": 1,
      "neighborhood": "Sunset Hill/Loyal Heights",
      "neighborhoodGroup": "Ballard",
      "unitCount": 1,
      "severity": 0,
      "units": "E18",
      "address": "7352 Earl Av Nw"
    }
  },
  {
    "id_str": "F190064075",
    "created_at": "6/19/2019 12:44:10 PM",
    "derived": {
      "lat": 47.617717,
      "long": -122.330057,
      "timestamp": 1560973450000,
      "description": "Aid Response Yellow",
      "entries": 2,
      "neighborhood": "Cascade/Eastlake",
      "neighborhoodGroup": "Lake Union",
      "unitCount": 2,
      "severity": 0,
      "units": "A4 R1",
      "address": "1828 Yale Av"
    }
  },
  {
    "id_str": "F190064074",
    "created_at": "6/19/2019 12:41:34 PM",
    "derived": {
      "lat": 47.673652,
      "long": -122.309338,
      "timestamp": 1560973294000,
      "description": "Aid Response",
      "entries": 1,
      "neighborhood": "University District",
      "neighborhoodGroup": "Northeast",
      "unitCount": 1,
      "severity": 0,
      "units": "E17",
      "address": "1740 Ne 62nd St"
    }
  },
  {
    "id_str": "F190064073",
    "created_at": "6/19/2019 12:41:08 PM",
    "derived": {
      "lat": 47.600854,
      "long": -122.326354,
      "timestamp": 1560973268000,
      "description": "Auto Fire Alarm",
      "entries": 1,
      "neighborhood": "Pioneer Square/International District",
      "neighborhoodGroup": "Downtown",
      "unitCount": 2,
      "severity": 0,
      "units": "E10 L1",
      "address": "202 6th Av S"
    }
  },
  {
    "id_str": "F190064072",
    "created_at": "6/19/2019 12:38:35 PM",
    "derived": {
      "lat": 47.608873,
      "long": -122.32625,
      "timestamp": 1560973115000,
      "description": "Aid Response",
      "entries": 1,
      "neighborhood": "First Hill",
      "neighborhoodGroup": "East",
      "unitCount": 1,
      "severity": 0,
      "units": "A5",
      "address": "Madison St / Terry Av"
    }
  },
  {
    "id_str": "F190064070",
    "created_at": "6/19/2019 12:35:49 PM",
    "derived": {
      "lat": 47.617267,
      "long": -122.339208,
      "timestamp": 1560972949000,
      "description": "Auto Fire Alarm",
      "entries": 1,
      "neighborhood": "Cascade/Eastlake",
      "neighborhoodGroup": "Lake Union",
      "unitCount": 2,
      "severity": 0,
      "units": "E2 L4",
      "address": "2202 8th Av"
    }
  },
  {
    "id_str": "F190064071",
    "created_at": "6/19/2019 12:35:40 PM",
    "derived": {
      "lat": 47.599876,
      "long": -122.299866,
      "timestamp": 1560972940000,
      "description": "Aid Response",
      "entries": 3,
      "neighborhood": "Madrona/Leschi",
      "neighborhoodGroup": "Central",
      "unitCount": 3,
      "severity": 0,
      "units": "E25 E6 L3",
      "address": "323 25th Av S"
    }
  },
  {
    "id_str": "F190064069",
    "created_at": "6/19/2019 12:33:37 PM",
    "derived": {
      "lat": 47.599186,
      "long": -122.322445,
      "timestamp": 1560972817000,
      "description": "Aid Response",
      "entries": 2,
      "neighborhood": "Pioneer Square/International District",
      "neighborhoodGroup": "Downtown",
      "unitCount": 2,
      "severity": 0,
      "units": "A10 M10",
      "address": "8th Av S / S Jackson St"
    }
  },
  {
    "id_str": "F190064068",
    "created_at": "6/19/2019 12:32:45 PM",
    "derived": {
      "lat": 47.519853,
      "long": -122.268364,
      "timestamp": 1560972765000,
      "description": "Aid Response",
      "entries": 2,
      "neighborhood": "Rainier Beach",
      "neighborhoodGroup": "Southeast",
      "unitCount": 2,
      "severity": 0,
      "units": "E33 L12",
      "address": "9262 Rainier Av S"
    }
  },
  {
    "id_str": "F190064067",
    "created_at": "6/19/2019 12:30:29 PM",
    "derived": {
      "lat": 47.639572,
      "long": -122.279599,
      "timestamp": 1560972629000,
      "description": "Aid Response",
      "entries": 2,
      "neighborhood": "Madison Park",
      "neighborhoodGroup": "East",
      "unitCount": 2,
      "severity": 0,
      "units": "A25 M10",
      "address": "2329 41st Av E"
    }
  },
  {
    "id_str": "F190064066",
    "created_at": "6/19/2019 12:28:58 PM",
    "derived": {
      "lat": 47.55679,
      "long": -122.270632,
      "timestamp": 1560972538000,
      "description": "Rescue Lock In/Out",
      "entries": 1,
      "neighborhood": "Seward Park",
      "neighborhoodGroup": "Southeast",
      "unitCount": 1,
      "severity": 0,
      "units": "E28",
      "address": "5028 Wilson Av S"
    }
  },
  {
    "id_str": "F190064063",
    "created_at": "6/19/2019 12:27:34 PM",
    "derived": {
      "lat": 47.649756,
      "long": -122.344755,
      "timestamp": 1560972454000,
      "description": "Medic Response, 6 per Rule",
      "entries": 1,
      "neighborhood": "Fremont",
      "neighborhoodGroup": "Lake Union",
      "unitCount": 3,
      "severity": 0,
      "units": "E21 E9 M18",
      "address": "N 35th St / Albion Pl N"
    }
  },
  {
    "id_str": "F190064062",
    "created_at": "6/19/2019 12:24:15 PM",
    "derived": {
      "lat": 47.549851,
      "long": -122.329579,
      "timestamp": 1560972255000,
      "description": "Auto Fire Alarm",
      "entries": 1,
      "neighborhood": "Georgetown",
      "neighborhoodGroup": "Greater Duwamish",
      "unitCount": 2,
      "severity": 0,
      "units": "E27 L1",
      "address": "5950 4th Av S"
    }
  },
  {
    "id_str": "F190064060",
    "created_at": "6/19/2019 12:14:41 PM",
    "derived": {
      "lat": 47.62967,
      "long": -122.356621,
      "timestamp": 1560971681000,
      "description": "Hang-Up, Aid",
      "entries": 2,
      "neighborhood": "Queen Anne",
      "neighborhoodGroup": "Magnolia/Queen Anne",
      "unitCount": 2,
      "severity": 0,
      "units": "E8 L6",
      "address": "1212 Queen Anne Av N"
    }
  },
  {
    "id_str": "F190064058",
    "created_at": "6/19/2019 12:12:53 PM",
    "derived": {
      "lat": 47.529699,
      "long": -122.279078,
      "timestamp": 1560971573000,
      "description": "Aid Response",
      "entries": 1,
      "neighborhood": "South Beacon Hill/NewHolly",
      "neighborhoodGroup": "Greater Duwamish",
      "unitCount": 1,
      "severity": 0,
      "units": "E33",
      "address": "4228 S Rose Ct"
    }
  },
  {
    "id_str": "F190064059",
    "created_at": "6/19/2019 12:12:51 PM",
    "derived": {
      "lat": 47.613831,
      "long": -122.341333,
      "timestamp": 1560971571000,
      "description": "Aid Response",
      "entries": 1,
      "neighborhood": "Cascade/Eastlake",
      "neighborhoodGroup": "Lake Union",
      "unitCount": 1,
      "severity": 0,
      "units": "A4",
      "address": "2101 4th Av"
    }
  },
  {
    "id_str": "F190064057",
    "created_at": "6/19/2019 12:11:31 PM",
    "derived": {
      "lat": 47.728373,
      "long": -122.301576,
      "timestamp": 1560971491000,
      "description": "Aid Response",
      "entries": 1,
      "neighborhood": "Olympic Hills/Victory Heights",
      "neighborhoodGroup": "North",
      "unitCount": 1,
      "severity": 0,
      "units": "E16",
      "address": "2516 Ne 137th St"
    }
  },
  {
    "id_str": "F190064056",
    "created_at": "6/19/2019 12:08:31 PM",
    "derived": {
      "lat": 47.607828,
      "long": -122.339105,
      "timestamp": 1560971311000,
      "description": "Auto Fire Alarm",
      "entries": 1,
      "neighborhood": "Downtown Commercial Core",
      "neighborhoodGroup": "Downtown",
      "unitCount": 2,
      "severity": 0,
      "units": "E10 L1",
      "address": "98 Union St"
    }
  },
  {
    "id_str": "F190064055",
    "created_at": "6/19/2019 12:07:34 PM",
    "derived": {
      "lat": 47.542466,
      "long": -122.275011,
      "timestamp": 1560971254000,
      "description": "Aid Response",
      "entries": 2,
      "neighborhood": "Columbia City",
      "neighborhoodGroup": "Southeast",
      "unitCount": 2,
      "severity": 0,
      "units": "E30 L12",
      "address": "4628 S Holly St"
    }
  },
  {
    "id_str": "F190064053",
    "created_at": "6/19/2019 11:51:43 AM",
    "derived": {
      "lat": 47.56273,
      "long": -122.294698,
      "timestamp": 1560970303000,
      "description": "Medic Response",
      "entries": 1,
      "neighborhood": "North Beacon Hill/Jefferson Park",
      "neighborhoodGroup": "Greater Duwamish",
      "unitCount": 2,
      "severity": 0,
      "units": "E28 M28",
      "address": "4515 M L King Jr Way S"
    }
  },
  {
    "id_str": "F190064051",
    "created_at": "6/19/2019 11:51:21 AM",
    "derived": {
      "lat": 47.703,
      "long": -122.350853,
      "timestamp": 1560970281000,
      "description": "Medic Response",
      "entries": 2,
      "neighborhood": "Greenwood/Phinney Ridge",
      "neighborhoodGroup": "Northwest",
      "unitCount": 3,
      "severity": 0,
      "units": "A31 M17 M18",
      "address": "10215 Evanston Av N"
    }
  },
  {
    "id_str": "F190064050",
    "created_at": "6/19/2019 11:51:10 AM",
    "derived": {
      "lat": 47.666675,
      "long": -122.382133,
      "timestamp": 1560970270000,
      "description": "Aid Response",
      "entries": 1,
      "neighborhood": "Ballard",
      "neighborhoodGroup": "Ballard",
      "unitCount": 1,
      "severity": 0,
      "units": "E35",
      "address": "5301 Leary Av Nw"
    }
  },
  {
    "id_str": "F190064049",
    "created_at": "6/19/2019 11:46:47 AM",
    "derived": {
      "lat": 47.615556,
      "long": -122.314246,
      "timestamp": 1560970007000,
      "description": "Aid Response",
      "entries": 1,
      "neighborhood": "Capitol Hill",
      "neighborhoodGroup": "East",
      "unitCount": 1,
      "severity": 0,
      "units": "A25",
      "address": "1624 14th Av"
    }
  },
  {
    "id_str": "F190064047",
    "created_at": "6/19/2019 11:43:20 AM",
    "derived": {
      "lat": 47.599196,
      "long": -122.328636,
      "timestamp": 1560969800000,
      "description": "Aid Response",
      "entries": 1,
      "neighborhood": "Pioneer Square/International District",
      "neighborhoodGroup": "Downtown",
      "unitCount": 1,
      "severity": 0,
      "units": "A5",
      "address": "425 S Jackson St"
    }
  },
  {
    "id_str": "F190064046",
    "created_at": "6/19/2019 11:37:47 AM",
    "derived": {
      "lat": 47.539419,
      "long": -122.390816,
      "timestamp": 1560969467000,
      "description": "Aid Response",
      "entries": 1,
      "neighborhood": "Fauntleroy/Seaview",
      "neighborhoodGroup": "Southwest",
      "unitCount": 1,
      "severity": 0,
      "units": "E37",
      "address": "7125 Fauntleroy Way Sw"
    }
  },
  {
    "id_str": "F190064044",
    "created_at": "6/19/2019 11:29:15 AM",
    "derived": {
      "lat": 47.533428,
      "long": -122.269986,
      "timestamp": 1560968955000,
      "description": "Aid Response",
      "entries": 1,
      "neighborhood": "Seward Park",
      "neighborhoodGroup": "Southeast",
      "unitCount": 1,
      "severity": 0,
      "units": "L12",
      "address": "7722 Rainier Av S"
    }
  },
  {
    "id_str": "F190064043",
    "created_at": "6/19/2019 11:27:28 AM",
    "derived": {
      "lat": 47.703486,
      "long": -122.333907,
      "timestamp": 1560968848000,
      "description": "Medic Response",
      "entries": 1,
      "neighborhood": "Northgate/Maple Leaf",
      "neighborhoodGroup": "North",
      "unitCount": 2,
      "severity": 0,
      "units": "E24 M17",
      "address": "10330 Meridian Av N"
    }
  },
  {
    "id_str": "F190064042",
    "created_at": "6/19/2019 11:12:32 AM",
    "derived": {
      "lat": 47.612716,
      "long": -122.345399,
      "timestamp": 1560967952000,
      "description": "Aid Response",
      "entries": 1,
      "neighborhood": "Belltown",
      "neighborhoodGroup": "Downtown",
      "unitCount": 1,
      "severity": 0,
      "units": "A4",
      "address": "2215 1st Av"
    }
  },
  {
    "id_str": "F190064040",
    "created_at": "6/19/2019 11:02:43 AM",
    "derived": {
      "lat": 47.58474,
      "long": -122.387914,
      "timestamp": 1560967363000,
      "description": "Hang-Up, Aid",
      "entries": 2,
      "neighborhood": "Alki/Admiral",
      "neighborhoodGroup": "Southwest",
      "unitCount": 2,
      "severity": 0,
      "units": "E37 L11",
      "address": "2139 Ferry Av Sw"
    }
  },
  {
    "id_str": "F190064039",
    "created_at": "6/19/2019 11:00:38 AM",
    "derived": {
      "lat": 47.699872,
      "long": -122.324247,
      "timestamp": 1560967238000,
      "description": "Medic Response",
      "entries": 1,
      "neighborhood": "Northgate/Maple Leaf",
      "neighborhoodGroup": "North",
      "unitCount": 2,
      "severity": 0,
      "units": "A31 M31",
      "address": "9800 4th Av Ne"
    }
  },
  {
    "id_str": "F190064038",
    "created_at": "6/19/2019 10:57:37 AM",
    "derived": {
      "lat": 47.720938,
      "long": -122.292513,
      "timestamp": 1560967057000,
      "description": "Aid Response",
      "entries": 1,
      "neighborhood": "Cedar Park/Meadowbrook",
      "neighborhoodGroup": "North",
      "unitCount": 1,
      "severity": 0,
      "units": "E16",
      "address": "12740 33rd Av Ne"
    }
  },
  {
    "id_str": "F190064036",
    "created_at": "6/19/2019 10:39:15 AM",
    "derived": {
      "lat": 47.560907,
      "long": -122.38282,
      "timestamp": 1560965955000,
      "description": "Auto Fire Alarm",
      "entries": 1,
      "neighborhood": "West Seattle Junction/Genesee Hill",
      "neighborhoodGroup": "Southwest",
      "unitCount": 2,
      "severity": 0,
      "units": "E29 L1",
      "address": "4710 40th Av Sw"
    }
  },
  {
    "id_str": "F190064035",
    "created_at": "6/19/2019 10:38:27 AM",
    "derived": {
      "lat": 47.67381,
      "long": -122.304416,
      "timestamp": 1560965907000,
      "description": "Aid Response Yellow",
      "entries": 1,
      "neighborhood": "Ravenna/Bryant",
      "neighborhoodGroup": "Northeast",
      "unitCount": 1,
      "severity": 0,
      "units": "E40",
      "address": "6231 22nd Av Ne"
    }
  },
  {
    "id_str": "F190064034",
    "created_at": "6/19/2019 10:34:29 AM",
    "derived": {
      "lat": 47.564554,
      "long": -122.386772,
      "timestamp": 1560965669000,
      "description": "Aid Response",
      "entries": 1,
      "neighborhood": "West Seattle Junction/Genesee Hill",
      "neighborhoodGroup": "Southwest",
      "unitCount": 1,
      "severity": 0,
      "units": "L11",
      "address": "4409 California Av Sw"
    }
  },
  {
    "id_str": "F190064033",
    "created_at": "6/19/2019 10:34:05 AM",
    "derived": {
      "lat": 47.584748,
      "long": -122.375468,
      "timestamp": 1560965645000,
      "description": "Aid Response",
      "entries": 1,
      "neighborhood": "North Delridge",
      "neighborhoodGroup": "Delridge Neighborhoods",
      "unitCount": 1,
      "severity": 0,
      "units": "E29",
      "address": "Harbor Av Sw / Sw Florida St"
    }
  },
  {
    "id_str": "F190064029",
    "created_at": "6/19/2019 10:30:34 AM",
    "derived": {
      "lat": 47.620037,
      "long": -122.359786,
      "timestamp": 1560965434000,
      "description": "Aid Response",
      "entries": 2,
      "neighborhood": "Queen Anne",
      "neighborhoodGroup": "Magnolia/Queen Anne",
      "unitCount": 2,
      "severity": 0,
      "units": "A2 A4",
      "address": "206 Western Av W"
    }
  },
  {
    "id_str": "F190064028",
    "created_at": "6/19/2019 10:30:21 AM",
    "derived": {
      "lat": 47.728416,
      "long": -122.284735,
      "timestamp": 1560965421000,
      "description": "Automatic Fire Alarm Resd",
      "entries": 1,
      "neighborhood": "Cedar Park/Meadowbrook",
      "neighborhoodGroup": "North",
      "unitCount": 1,
      "severity": 0,
      "units": "E16",
      "address": "13710 41st Av Ne"
    }
  },
  {
    "id_str": "F190064027",
    "created_at": "6/19/2019 10:19:39 AM",
    "derived": {
      "lat": 47.658298,
      "long": -122.317782,
      "timestamp": 1560964779000,
      "description": "Medic Response",
      "entries": 1,
      "neighborhood": "Wallingford",
      "neighborhoodGroup": "Lake Union",
      "unitCount": 2,
      "severity": 0,
      "units": "E17 M17",
      "address": "4245 Roosevelt Way Ne"
    }
  },
  {
    "id_str": "F190064024",
    "created_at": "6/19/2019 10:14:16 AM",
    "derived": {
      "lat": 47.580424,
      "long": -122.321397,
      "timestamp": 1560964456000,
      "description": "Brush Fire",
      "entries": 1,
      "neighborhood": "Duwamish/SODO",
      "neighborhoodGroup": "Greater Duwamish",
      "unitCount": 1,
      "severity": 0,
      "units": "E10",
      "address": "2520 Airport Way S"
    }
  },
  {
    "id_str": "F190064023",
    "created_at": "6/19/2019 10:12:39 AM",
    "derived": {
      "lat": 47.610743,
      "long": -122.338702,
      "timestamp": 1560964359000,
      "description": "Aid Response",
      "entries": 2,
      "neighborhood": "Downtown Commercial Core",
      "neighborhoodGroup": "Downtown",
      "unitCount": 2,
      "severity": 0,
      "units": "A10 L1",
      "address": "3rd Av / Pine St"
    }
  },
  {
    "id_str": "F190064022",
    "created_at": "6/19/2019 10:11:23 AM",
    "derived": {
      "lat": 47.611679,
      "long": -122.315437,
      "timestamp": 1560964283000,
      "description": "Hang-Up, Aid",
      "entries": 1,
      "neighborhood": "First Hill",
      "neighborhoodGroup": "East",
      "unitCount": 1,
      "severity": 0,
      "units": "A25",
      "address": "1128 13th Av"
    }
  },
  {
    "id_str": "F190064021",
    "created_at": "6/19/2019 10:08:31 AM",
    "derived": {
      "lat": 47.616579,
      "long": -122.347964,
      "timestamp": 1560964111000,
      "description": "Aid Response",
      "entries": 2,
      "neighborhood": "Cascade/Eastlake",
      "neighborhoodGroup": "Lake Union",
      "unitCount": 2,
      "severity": 0,
      "units": "A2 E2",
      "address": "3rd Av / Vine St"
    }
  },
  {
    "id_str": "F190064020",
    "created_at": "6/19/2019 10:04:41 AM",
    "derived": {
      "lat": 47.630793,
      "long": -122.372244,
      "timestamp": 1560963881000,
      "description": "Aid Response",
      "entries": 1,
      "neighborhood": "Interbay",
      "neighborhoodGroup": "Magnolia/Queen Anne",
      "unitCount": 1,
      "severity": 0,
      "units": "A4",
      "address": "1200 W Lee St"
    }
  },
  {
    "id_str": "F190064018",
    "created_at": "6/19/2019 10:01:29 AM",
    "derived": {
      "lat": 47.662194,
      "long": -122.36703,
      "timestamp": 1560963689000,
      "description": "Aid Response",
      "entries": 1,
      "neighborhood": "Ballard",
      "neighborhoodGroup": "Ballard",
      "unitCount": 1,
      "severity": 0,
      "units": "E18",
      "address": "824 Nw 46th St"
    }
  },
  {
    "id_str": "F190064015",
    "created_at": "6/19/2019 10:00:13 AM",
    "derived": {
      "lat": 47.650326,
      "long": -122.384671,
      "timestamp": 1560963613000,
      "description": "Medic Response",
      "entries": 2,
      "neighborhood": "Interbay",
      "neighborhoodGroup": "Magnolia/Queen Anne",
      "unitCount": 2,
      "severity": 0,
      "units": "E41 M1",
      "address": "22nd Av W / W Bertona St"
    }
  },
  {
    "id_str": "F190064012",
    "created_at": "6/19/2019 9:57:10 AM",
    "derived": {
      "lat": 47.606801,
      "long": -122.333562,
      "timestamp": 1560963430000,
      "description": "Auto Fire Alarm",
      "entries": 2,
      "neighborhood": "Downtown Commercial Core",
      "neighborhoodGroup": "Downtown",
      "unitCount": 3,
      "severity": 0,
      "units": "E2 E25 L4",
      "address": "1101 4th Av"
    }
  },
  {
    "id_str": "F190064011",
    "created_at": "6/19/2019 9:56:16 AM",
    "derived": {
      "lat": 47.607121,
      "long": -122.335154,
      "timestamp": 1560963376000,
      "description": "Auto Fire Alarm",
      "entries": 1,
      "neighborhood": "Downtown Commercial Core",
      "neighborhoodGroup": "Downtown",
      "unitCount": 2,
      "severity": 0,
      "units": "E10 L1",
      "address": "315 Seneca St"
    }
  },
  {
    "id_str": "F190064010",
    "created_at": "6/19/2019 9:52:14 AM",
    "derived": {
      "lat": 47.602985,
      "long": -122.328535,
      "timestamp": 1560963134000,
      "description": "Aid Response",
      "entries": 1,
      "neighborhood": "First Hill",
      "neighborhoodGroup": "East",
      "unitCount": 1,
      "severity": 0,
      "units": "A10",
      "address": "500 5th Av"
    }
  },
  {
    "id_str": "F190064009",
    "created_at": "6/19/2019 9:51:13 AM",
    "derived": {
      "lat": 47.630793,
      "long": -122.372244,
      "timestamp": 1560963073000,
      "description": "Aid Response",
      "entries": 1,
      "neighborhood": "Interbay",
      "neighborhoodGroup": "Magnolia/Queen Anne",
      "unitCount": 1,
      "severity": 0,
      "units": "A4",
      "address": "1200 W Lee St"
    }
  },
  {
    "id_str": "F190064004",
    "created_at": "6/19/2019 9:30:06 AM",
    "derived": {
      "lat": 47.618693,
      "long": -122.334256,
      "timestamp": 1560961806000,
      "description": "Aid Response",
      "entries": 1,
      "neighborhood": "Cascade/Eastlake",
      "neighborhoodGroup": "Lake Union",
      "unitCount": 1,
      "severity": 0,
      "units": "E2",
      "address": "116 Fairview Av N"
    }
  },
  {
    "id_str": "F190064003",
    "created_at": "6/19/2019 9:26:26 AM",
    "derived": {
      "lat": 47.526476,
      "long": -122.369987,
      "timestamp": 1560961586000,
      "description": "Aid Response",
      "entries": 1,
      "neighborhood": "Roxhill/Westwood",
      "neighborhoodGroup": "Delridge Neighborhoods",
      "unitCount": 1,
      "severity": 0,
      "units": "E37",
      "address": "2907 Sw Cloverdale St"
    }
  },
  {
    "id_str": "F190064001",
    "created_at": "6/19/2019 9:25:29 AM",
    "derived": {
      "lat": 47.616691,
      "long": -122.346171,
      "timestamp": 1560961529000,
      "description": "Aid Response",
      "entries": 1,
      "neighborhood": "Cascade/Eastlake",
      "neighborhoodGroup": "Lake Union",
      "unitCount": 1,
      "severity": 0,
      "units": "A4",
      "address": "4th Av / Wall St"
    }
  },
  {
    "id_str": "F190064000",
    "created_at": "6/19/2019 9:23:30 AM",
    "derived": {
      "lat": 47.690628,
      "long": -122.361159,
      "timestamp": 1560961410000,
      "description": "Aid Response",
      "entries": 1,
      "neighborhood": "Greenwood/Phinney Ridge",
      "neighborhoodGroup": "Northwest",
      "unitCount": 1,
      "severity": 0,
      "units": "E21",
      "address": "358 Nw 85th St"
    }
  },
  {
    "id_str": "F190063999",
    "created_at": "6/19/2019 9:16:21 AM",
    "derived": {
      "lat": 47.612958,
      "long": -122.337873,
      "timestamp": 1560960981000,
      "description": "Aid Response",
      "entries": 1,
      "neighborhood": "Cascade/Eastlake",
      "neighborhoodGroup": "Lake Union",
      "unitCount": 1,
      "severity": 0,
      "units": "A2",
      "address": "1900 5th Av"
    }
  },
  {
    "id_str": "F190063998",
    "created_at": "6/19/2019 9:12:36 AM",
    "derived": {
      "lat": 47.602382,
      "long": -122.332338,
      "timestamp": 1560960756000,
      "description": "Aid Response",
      "entries": 1,
      "neighborhood": "Downtown Commercial Core",
      "neighborhoodGroup": "Downtown",
      "unitCount": 1,
      "severity": 0,
      "units": "A5",
      "address": "216 James St"
    }
  },
  {
    "id_str": "F190063997",
    "created_at": "6/19/2019 9:12:11 AM",
    "derived": {
      "lat": 47.609337,
      "long": -122.338779,
      "timestamp": 1560960731000,
      "description": "Aid Response",
      "entries": 1,
      "neighborhood": "Downtown Commercial Core",
      "neighborhoodGroup": "Downtown",
      "unitCount": 1,
      "severity": 0,
      "units": "A4",
      "address": "211 Pike St"
    }
  },
  {
    "id_str": "F190063996",
    "created_at": "6/19/2019 9:10:34 AM",
    "derived": {
      "lat": 47.664383,
      "long": -122.364241,
      "timestamp": 1560960634000,
      "description": "Medic Response, 7 per Rule",
      "entries": 2,
      "neighborhood": "Fremont",
      "neighborhoodGroup": "Lake Union",
      "unitCount": 3,
      "severity": 0,
      "units": "E18 L8 M18",
      "address": "623 Nw 49th St"
    }
  },
  {
    "id_str": "F190063988",
    "created_at": "6/19/2019 9:02:36 AM",
    "derived": {
      "lat": 47.587553,
      "long": -122.325972,
      "timestamp": 1560960156000,
      "description": "Aid Response",
      "entries": 1,
      "neighborhood": "Duwamish/SODO",
      "neighborhoodGroup": "Greater Duwamish",
      "unitCount": 1,
      "severity": 0,
      "units": "A10",
      "address": "1765 6th Av S"
    }
  },
  {
    "id_str": "F190063987",
    "created_at": "6/19/2019 9:01:52 AM",
    "derived": {
      "lat": 47.708602,
      "long": -122.324588,
      "timestamp": 1560960112000,
      "description": "Auto Fire Alarm",
      "entries": 1,
      "neighborhood": "Northgate/Maple Leaf",
      "neighborhoodGroup": "North",
      "unitCount": 2,
      "severity": 0,
      "units": "E16 L5",
      "address": "401 Ne Northgate Way"
    }
  },
  {
    "id_str": "F190063986",
    "created_at": "6/19/2019 9:01:21 AM",
    "derived": {
      "lat": 47.632321,
      "long": -122.359809,
      "timestamp": 1560960081000,
      "description": "Aid Response",
      "entries": 1,
      "neighborhood": "Queen Anne",
      "neighborhoodGroup": "Magnolia/Queen Anne",
      "unitCount": 1,
      "severity": 0,
      "units": "L6",
      "address": "223 W Galer St"
    }
  },
  {
    "id_str": "F190063983",
    "created_at": "6/19/2019 8:45:21 AM",
    "derived": {
      "lat": 47.598711,
      "long": -122.335908,
      "timestamp": 1560959121000,
      "description": "Aid Response",
      "entries": 2,
      "neighborhood": "Duwamish/SODO",
      "neighborhoodGroup": "Greater Duwamish",
      "unitCount": 2,
      "severity": 0,
      "units": "A5 M31",
      "address": "450 Alaskan Way S"
    }
  },
  {
    "id_str": "F190063985",
    "created_at": "6/19/2019 8:44:47 AM",
    "derived": {
      "lat": 47.679495,
      "long": -122.319968,
      "timestamp": 1560959087000,
      "description": "Illegal Burn",
      "entries": 1,
      "neighborhood": "Green Lake",
      "neighborhoodGroup": "Northwest",
      "unitCount": 1,
      "severity": 0,
      "units": "E17",
      "address": "NE 70TH ST / 8TH AV NE"
    }
  },
  {
    "id_str": "F190063981",
    "created_at": "6/19/2019 8:33:08 AM",
    "derived": {
      "lat": 47.712167,
      "long": -122.312433,
      "timestamp": 1560958388000,
      "description": "Aid Response Yellow",
      "entries": 1,
      "neighborhood": "Olympic Hills/Victory Heights",
      "neighborhoodGroup": "North",
      "unitCount": 1,
      "severity": 0,
      "units": "E16",
      "address": "11501 15th Av Ne"
    }
  },
  {
    "id_str": "F190063980",
    "created_at": "6/19/2019 8:26:35 AM",
    "derived": {
      "lat": 47.604377,
      "long": -122.325207,
      "timestamp": 1560957995000,
      "description": "Aid Response",
      "entries": 1,
      "neighborhood": "First Hill",
      "neighborhoodGroup": "East",
      "unitCount": 1,
      "severity": 0,
      "units": "A10",
      "address": "800 Jefferson St"
    }
  },
  {
    "id_str": "F190063979",
    "created_at": "6/19/2019 8:22:50 AM",
    "derived": {
      "lat": 47.61084,
      "long": -122.347741,
      "timestamp": 1560957770000,
      "description": "Aid Response",
      "entries": 1,
      "neighborhood": "Belltown",
      "neighborhoodGroup": "Downtown",
      "unitCount": 1,
      "severity": 0,
      "units": "A2",
      "address": "2211 Alaskan Way"
    }
  },
  {
    "id_str": "F190063977",
    "created_at": "6/19/2019 8:13:06 AM",
    "derived": {
      "lat": 47.66707,
      "long": -122.301946,
      "timestamp": 1560957186000,
      "description": "Aid Response",
      "entries": 1,
      "neighborhood": "Ravenna/Bryant",
      "neighborhoodGroup": "Northeast",
      "unitCount": 1,
      "severity": 0,
      "units": "E17",
      "address": "5300 24th Av Ne"
    }
  },
  {
    "id_str": "F190063976",
    "created_at": "6/19/2019 8:02:44 AM",
    "derived": {
      "lat": 47.586231,
      "long": -122.355429,
      "timestamp": 1560956564000,
      "description": "Aid Response",
      "entries": 1,
      "neighborhood": "North Delridge",
      "neighborhoodGroup": "Delridge Neighborhoods",
      "unitCount": 1,
      "severity": 0,
      "units": "A14",
      "address": "1801 16th Av Sw"
    }
  },
  {
    "id_str": "F190063975",
    "created_at": "6/19/2019 7:58:09 AM",
    "derived": {
      "lat": 47.555753,
      "long": -122.336683,
      "timestamp": 1560956289000,
      "description": "Natural Gas Odor",
      "entries": 1,
      "neighborhood": "Georgetown",
      "neighborhoodGroup": "Greater Duwamish",
      "unitCount": 1,
      "severity": 0,
      "units": "R1",
      "address": "54 S Dawson St"
    }
  },
  {
    "id_str": "F190063974",
    "created_at": "6/19/2019 7:57:23 AM",
    "derived": {
      "lat": 47.676568,
      "long": -122.266609,
      "timestamp": 1560956243000,
      "description": "Aid Response",
      "entries": 1,
      "neighborhood": "Laurelhurst/Sand Point",
      "neighborhoodGroup": "Northeast",
      "unitCount": 1,
      "severity": 0,
      "units": "E40",
      "address": "6619 58th Av Ne"
    }
  },
  {
    "id_str": "F190063972",
    "created_at": "6/19/2019 7:50:32 AM",
    "derived": {
      "lat": 47.603525,
      "long": -122.326315,
      "timestamp": 1560955832000,
      "description": "Brush Fire Freeway",
      "entries": 1,
      "neighborhood": "First Hill",
      "neighborhoodGroup": "East",
      "unitCount": 4,
      "severity": 0,
      "units": "B5 E10 E13 E6",
      "address": "Nb I5 Cd To James"
    }
  },
  {
    "id_str": "F190063967",
    "created_at": "6/19/2019 7:35:13 AM",
    "derived": {
      "lat": 47.572163,
      "long": -122.296173,
      "timestamp": 1560954913000,
      "description": "Aid Response",
      "entries": 1,
      "neighborhood": "Columbia City",
      "neighborhoodGroup": "Southeast",
      "unitCount": 1,
      "severity": 0,
      "units": "E30",
      "address": "2821 S Walden St"
    }
  },
  {
    "id_str": "F190063958",
    "created_at": "6/19/2019 7:14:44 AM",
    "derived": {
      "lat": 47.672015,
      "long": -122.317363,
      "timestamp": 1560953684000,
      "description": "Medic Response, 6 per Rule",
      "entries": 1,
      "neighborhood": "University District",
      "neighborhoodGroup": "Northeast",
      "unitCount": 3,
      "severity": 0,
      "units": "E16 E31 M17",
      "address": "Ne Ravenna Blvd / Roosevelt Way Ne"
    }
  },
  {
    "id_str": "F190063952",
    "created_at": "6/19/2019 6:42:36 AM",
    "derived": {
      "lat": 47.638268,
      "long": -122.408793,
      "timestamp": 1560951756000,
      "description": "Aid Response Yellow",
      "entries": 1,
      "neighborhood": "Magnolia",
      "neighborhoodGroup": "Magnolia/Queen Anne",
      "unitCount": 1,
      "severity": 0,
      "units": "E41",
      "address": "2330 Magnolia Blvd W"
    }
  },
  {
    "id_str": "F190063947",
    "created_at": "6/19/2019 6:07:38 AM",
    "derived": {
      "lat": 47.608756,
      "long": -122.336885,
      "timestamp": 1560949658000,
      "description": "Aid Response",
      "entries": 1,
      "neighborhood": "Downtown Commercial Core",
      "neighborhoodGroup": "Downtown",
      "unitCount": 1,
      "severity": 0,
      "units": "A5",
      "address": "3rd Av / Union St"
    }
  },
  {
    "id_str": "F190063946",
    "created_at": "6/19/2019 6:03:16 AM",
    "derived": {
      "lat": 47.600194,
      "long": -122.330541,
      "timestamp": 1560949396000,
      "description": "Aid Response",
      "entries": 1,
      "neighborhood": "Pioneer Square/International District",
      "neighborhoodGroup": "Downtown",
      "unitCount": 1,
      "severity": 0,
      "units": "A10",
      "address": "318 2nd Av Et S"
    }
  },
  {
    "id_str": "F190063945",
    "created_at": "6/19/2019 6:02:17 AM",
    "derived": {
      "lat": 47.690489,
      "long": -122.304166,
      "timestamp": 1560949337000,
      "description": "Aid Response",
      "entries": 1,
      "neighborhood": "Wedgwood/View Ridge",
      "neighborhoodGroup": "Northeast",
      "unitCount": 1,
      "severity": 0,
      "units": "E40",
      "address": "8523 23rd Av Ne"
    }
  },
  {
    "id_str": "F190063943",
    "created_at": "6/19/2019 5:53:43 AM",
    "derived": {
      "lat": 47.533278,
      "long": -122.379302,
      "timestamp": 1560948823000,
      "description": "Aid Response",
      "entries": 1,
      "neighborhood": "Roxhill/Westwood",
      "neighborhoodGroup": "Delridge Neighborhoods",
      "unitCount": 1,
      "severity": 0,
      "units": "E37",
      "address": "7724 37th Av Sw"
    }
  },
  {
    "id_str": "F190063942",
    "created_at": "6/19/2019 5:52:43 AM",
    "derived": {
      "lat": 47.538881,
      "long": -122.284496,
      "timestamp": 1560948763000,
      "description": "Aid Response",
      "entries": 1,
      "neighborhood": "South Beacon Hill/NewHolly",
      "neighborhoodGroup": "Greater Duwamish",
      "unitCount": 1,
      "severity": 0,
      "units": "E28",
      "address": "3824 S Myrtle St"
    }
  },
  {
    "id_str": "F190063940",
    "created_at": "6/19/2019 5:40:45 AM",
    "derived": {
      "lat": 47.608228,
      "long": -122.334866,
      "timestamp": 1560948045000,
      "description": "Natural Gas Odor",
      "entries": 2,
      "neighborhood": "Downtown Commercial Core",
      "neighborhoodGroup": "Downtown",
      "unitCount": 2,
      "severity": 0,
      "units": "E5 L1",
      "address": "1301 4th Av"
    }
  },
  {
    "id_str": "F190063939",
    "created_at": "6/19/2019 5:37:23 AM",
    "derived": {
      "lat": 47.617134,
      "long": -122.350886,
      "timestamp": 1560947843000,
      "description": "Aid Response",
      "entries": 1,
      "neighborhood": "Belltown",
      "neighborhoodGroup": "Downtown",
      "unitCount": 1,
      "severity": 0,
      "units": "A2",
      "address": "2821 2nd Av"
    }
  },
  {
    "id_str": "F190063936",
    "created_at": "6/19/2019 5:18:01 AM",
    "derived": {
      "lat": 47.574966,
      "long": -122.295568,
      "timestamp": 1560946681000,
      "description": "Auto Fire Alarm",
      "entries": 1,
      "neighborhood": "Mt. Baker/North Rainier",
      "neighborhoodGroup": "Southeast",
      "unitCount": 2,
      "severity": 0,
      "units": "E30 L3",
      "address": "3208 Rainier Av S"
    }
  },
  {
    "id_str": "F190063934",
    "created_at": "6/19/2019 5:02:48 AM",
    "derived": {
      "lat": 47.709397,
      "long": -122.309982,
      "timestamp": 1560945768000,
      "description": "Aid Response",
      "entries": 1,
      "neighborhood": "Olympic Hills/Victory Heights",
      "neighborhoodGroup": "North",
      "unitCount": 1,
      "severity": 0,
      "units": "E39",
      "address": "11039 17th Av Ne"
    }
  },
  {
    "id_str": "F190063933",
    "created_at": "6/19/2019 4:49:59 AM",
    "derived": {
      "lat": 47.690563,
      "long": -122.344522,
      "timestamp": 1560944999000,
      "description": "Aid Response",
      "entries": 1,
      "neighborhood": "Licton Springs",
      "neighborhoodGroup": "Northwest",
      "unitCount": 1,
      "severity": 0,
      "units": "E21",
      "address": "Aurora Av N / N 85th St"
    }
  },
  {
    "id_str": "F190063932",
    "created_at": "6/19/2019 4:46:09 AM",
    "derived": {
      "lat": 47.572604,
      "long": -122.365002,
      "timestamp": 1560944769000,
      "description": "Auto Fire Alarm",
      "entries": 1,
      "neighborhood": "North Delridge",
      "neighborhoodGroup": "Delridge Neighborhoods",
      "unitCount": 2,
      "severity": 0,
      "units": "E36 R1",
      "address": "3520 26th Av Sw"
    }
  },
  {
    "id_str": "F190063931",
    "created_at": "6/19/2019 4:40:06 AM",
    "derived": {
      "lat": 47.606444,
      "long": -122.325563,
      "timestamp": 1560944406000,
      "description": "Aid Response",
      "entries": 1,
      "neighborhood": "First Hill",
      "neighborhoodGroup": "East",
      "unitCount": 1,
      "severity": 0,
      "units": "A5",
      "address": "725 9th Av"
    }
  },
  {
    "id_str": "F190063929",
    "created_at": "6/19/2019 4:36:32 AM",
    "derived": {
      "lat": 47.583966,
      "long": -122.329054,
      "timestamp": 1560944192000,
      "description": "Medic Response",
      "entries": 1,
      "neighborhood": "Duwamish/SODO",
      "neighborhoodGroup": "Greater Duwamish",
      "unitCount": 2,
      "severity": 0,
      "units": "A14 M1",
      "address": "2201 4TH AV S"
    }
  },
  {
    "id_str": "F190063928",
    "created_at": "6/19/2019 4:30:43 AM",
    "derived": {
      "lat": 47.608584,
      "long": -122.340581,
      "timestamp": 1560943843000,
      "description": "Aid Response",
      "entries": 1,
      "neighborhood": "Downtown Commercial Core",
      "neighborhoodGroup": "Downtown",
      "unitCount": 1,
      "severity": 0,
      "units": "E5",
      "address": "85 Pike St"
    }
  },
  {
    "id_str": "F190063927",
    "created_at": "6/19/2019 4:20:19 AM",
    "derived": {
      "lat": 47.542472,
      "long": -122.267157,
      "timestamp": 1560943219000,
      "description": "Aid Response",
      "entries": 1,
      "neighborhood": "Seward Park",
      "neighborhoodGroup": "Southeast",
      "unitCount": 1,
      "severity": 0,
      "units": "E28",
      "address": "6701 52nd Av S"
    }
  },
  {
    "id_str": "F190063926",
    "created_at": "6/19/2019 4:18:33 AM",
    "derived": {
      "lat": 47.732158,
      "long": -122.301931,
      "timestamp": 1560943113000,
      "description": "Aid Response",
      "entries": 1,
      "neighborhood": "Olympic Hills/Victory Heights",
      "neighborhoodGroup": "North",
      "unitCount": 1,
      "severity": 0,
      "units": "E39",
      "address": "14317 25th Av Ne"
    }
  },
  {
    "id_str": "F190063923",
    "created_at": "6/19/2019 3:46:13 AM",
    "derived": {
      "lat": 47.575576,
      "long": -122.334203,
      "timestamp": 1560941173000,
      "description": "Aid Response",
      "entries": 1,
      "neighborhood": "Duwamish/SODO",
      "neighborhoodGroup": "Greater Duwamish",
      "unitCount": 1,
      "severity": 0,
      "units": "A14",
      "address": "3200 1st Av S"
    }
  },
  {
    "id_str": "F190063921",
    "created_at": "6/19/2019 3:33:03 AM",
    "derived": {
      "lat": 47.730298,
      "long": -122.312482,
      "timestamp": 1560940383000,
      "description": "Aid Response Yellow",
      "entries": 1,
      "neighborhood": "Olympic Hills/Victory Heights",
      "neighborhoodGroup": "North",
      "unitCount": 1,
      "severity": 0,
      "units": "E39",
      "address": "1516 Ne 140th St"
    }
  },
  {
    "id_str": "F190063920",
    "created_at": "6/19/2019 3:22:29 AM",
    "derived": {
      "lat": 47.534834,
      "long": -122.282614,
      "timestamp": 1560939749000,
      "description": "Medic Response",
      "entries": 2,
      "neighborhood": "South Beacon Hill/NewHolly",
      "neighborhoodGroup": "Greater Duwamish",
      "unitCount": 2,
      "severity": 0,
      "units": "E28 M28",
      "address": "7439 Rockery Dr S"
    }
  },
  {
    "id_str": "F190063918",
    "created_at": "6/19/2019 3:12:03 AM",
    "derived": {
      "lat": 47.584234,
      "long": -122.299024,
      "timestamp": 1560939123000,
      "description": "Auto Fire Alarm",
      "entries": 1,
      "neighborhood": "Mt. Baker/North Rainier",
      "neighborhoodGroup": "Southeast",
      "unitCount": 2,
      "severity": 0,
      "units": "E30 L3",
      "address": "2121 26th Av S"
    }
  },
  {
    "id_str": "F190063915",
    "created_at": "6/19/2019 2:59:56 AM",
    "derived": {
      "lat": 47.628792,
      "long": -122.368938,
      "timestamp": 1560938396000,
      "description": "Aid Response",
      "entries": 1,
      "neighborhood": "Interbay",
      "neighborhoodGroup": "Magnolia/Queen Anne",
      "unitCount": 1,
      "severity": 0,
      "units": "E20",
      "address": "1108 9th Av W"
    }
  },
  {
    "id_str": "F190063912",
    "created_at": "6/19/2019 2:53:02 AM",
    "derived": {
      "lat": 47.611259,
      "long": -122.32076,
      "timestamp": 1560937982000,
      "description": "Aid Response",
      "entries": 1,
      "neighborhood": "Capitol Hill",
      "neighborhoodGroup": "East",
      "unitCount": 1,
      "severity": 0,
      "units": "A25",
      "address": "1100 Broadway"
    }
  },
  {
    "id_str": "F190063908",
    "created_at": "6/19/2019 2:22:08 AM",
    "derived": {
      "lat": 47.70143,
      "long": -122.344651,
      "timestamp": 1560936128000,
      "description": "Medic Response",
      "entries": 1,
      "neighborhood": "Licton Springs",
      "neighborhoodGroup": "Northwest",
      "unitCount": 2,
      "severity": 0,
      "units": "E21 M31",
      "address": "Aurora Av N / N 100th St"
    }
  },
  {
    "id_str": "F190063907",
    "created_at": "6/19/2019 2:17:41 AM",
    "derived": {
      "lat": 47.552561,
      "long": -122.285587,
      "timestamp": 1560935861000,
      "description": "Aid Response",
      "entries": 1,
      "neighborhood": "Columbia City",
      "neighborhoodGroup": "Southeast",
      "unitCount": 1,
      "severity": 0,
      "units": "E28",
      "address": "5519 Renton Av S"
    }
  },
  {
    "id_str": "F190063905",
    "created_at": "6/19/2019 2:11:18 AM",
    "derived": {
      "lat": 47.610214,
      "long": -122.336683,
      "timestamp": 1560935478000,
      "description": "Rubbish Fire",
      "entries": 2,
      "neighborhood": "Downtown Commercial Core",
      "neighborhoodGroup": "Downtown",
      "unitCount": 2,
      "severity": 0,
      "units": "E5 MAR5",
      "address": "4th Av / Pike St"
    }
  },
  {
    "id_str": "F190063904",
    "created_at": "6/19/2019 2:08:39 AM",
    "derived": {
      "lat": 47.613977,
      "long": -122.343441,
      "timestamp": 1560935319000,
      "description": "Aid Response",
      "entries": 1,
      "neighborhood": "Cascade/Eastlake",
      "neighborhoodGroup": "Lake Union",
      "unitCount": 1,
      "severity": 0,
      "units": "A2",
      "address": "306 Blanchard St"
    }
  },
  {
    "id_str": "F190063900",
    "created_at": "6/19/2019 1:26:32 AM",
    "derived": {
      "lat": 47.535543,
      "long": -122.370045,
      "timestamp": 1560932792000,
      "description": "Scenes Of Violence 7",
      "entries": 1,
      "neighborhood": "High Point",
      "neighborhoodGroup": "Delridge Neighborhoods",
      "unitCount": 4,
      "severity": 0,
      "units": "B7 E11 E37 M32",
      "address": "2918 Sw Webster St"
    }
  },
  {
    "id_str": "F190063899",
    "created_at": "6/19/2019 1:19:52 AM",
    "derived": {
      "lat": 47.610214,
      "long": -122.336683,
      "timestamp": 1560932392000,
      "description": "1RED 1 Unit",
      "entries": 1,
      "neighborhood": "Downtown Commercial Core",
      "neighborhoodGroup": "Downtown",
      "unitCount": 1,
      "severity": 0,
      "units": "E5",
      "address": "4th Av / Pike St"
    }
  },
  {
    "id_str": "F190063897",
    "created_at": "6/19/2019 12:53:36 AM",
    "derived": {
      "lat": 47.571853,
      "long": -122.293193,
      "timestamp": 1560930816000,
      "description": "Rescue Elevator",
      "entries": 1,
      "neighborhood": "Columbia City",
      "neighborhoodGroup": "Southeast",
      "unitCount": 1,
      "severity": 0,
      "units": "L12",
      "address": "3501 Rainier Av S"
    }
  },
  {
    "id_str": "F190063893",
    "created_at": "6/19/2019 12:36:43 AM",
    "derived": {
      "lat": 47.689836,
      "long": -122.344518,
      "timestamp": 1560929803000,
      "description": "Scenes Of Violence 7",
      "entries": 1,
      "neighborhood": "Green Lake",
      "neighborhoodGroup": "Northwest",
      "unitCount": 5,
      "severity": 1,
      "units": "B6 E16 E21 M31 M44",
      "address": "Aurora Av N / N 84th St"
    }
  },
  {
    "id_str": "F190063892",
    "created_at": "6/19/2019 12:22:27 AM",
    "derived": {
      "lat": 47.617206,
      "long": -122.348802,
      "timestamp": 1560928947000,
      "description": "Aid Response Yellow",
      "entries": 1,
      "neighborhood": "Cascade/Eastlake",
      "neighborhoodGroup": "Lake Union",
      "unitCount": 1,
      "severity": 0,
      "units": "A2",
      "address": "311 Cedar St"
    }
  },
  {
    "id_str": "F190063889",
    "created_at": "6/18/2019 11:45:02 PM",
    "derived": {
      "lat": 47.539914,
      "long": -122.371277,
      "timestamp": 1560926702000,
      "description": "Activated CO Detector",
      "entries": 1,
      "neighborhood": "High Point",
      "neighborhoodGroup": "Delridge Neighborhoods",
      "unitCount": 1,
      "severity": 0,
      "units": "L11",
      "address": "7016 30th Pl Sw"
    }
  },
  {
    "id_str": "F190063887",
    "created_at": "6/18/2019 11:38:49 PM",
    "derived": {
      "lat": 47.729398,
      "long": -122.327483,
      "timestamp": 1560926329000,
      "description": "Aid Response",
      "entries": 1,
      "neighborhood": "Haller Lake",
      "neighborhoodGroup": "Northwest",
      "unitCount": 1,
      "severity": 0,
      "units": "E24",
      "address": "246 Ne 139th St"
    }
  },
  {
    "id_str": "F190063886",
    "created_at": "6/18/2019 11:32:06 PM",
    "derived": {
      "lat": 47.524644,
      "long": -122.37934,
      "timestamp": 1560925926000,
      "description": "Medic Response",
      "entries": 1,
      "neighborhood": "Roxhill/Westwood",
      "neighborhoodGroup": "Delridge Neighborhoods",
      "unitCount": 2,
      "severity": 0,
      "units": "E37 M32",
      "address": "8805 37th Av Sw"
    }
  },
  {
    "id_str": "F190063885",
    "created_at": "6/18/2019 11:30:27 PM",
    "derived": {
      "lat": 47.610743,
      "long": -122.338702,
      "timestamp": 1560925827000,
      "description": "Scenes Of Violence 7",
      "entries": 1,
      "neighborhood": "Downtown Commercial Core",
      "neighborhoodGroup": "Downtown",
      "unitCount": 5,
      "severity": 1,
      "units": "B2 E10 E5 M10 M44",
      "address": "3rd Av / Pine St"
    }
  },
  {
    "id_str": "F190063884",
    "created_at": "6/18/2019 11:25:55 PM",
    "derived": {
      "lat": 47.610743,
      "long": -122.338702,
      "timestamp": 1560925555000,
      "description": "Aid Response",
      "entries": 1,
      "neighborhood": "Downtown Commercial Core",
      "neighborhoodGroup": "Downtown",
      "unitCount": 1,
      "severity": 0,
      "units": "L4",
      "address": "300 Pine St"
    }
  },
  {
    "id_str": "F190063883",
    "created_at": "6/18/2019 11:25:41 PM",
    "derived": {
      "lat": 47.602688,
      "long": -122.318034,
      "timestamp": 1560925541000,
      "description": "Aid Response",
      "entries": 1,
      "neighborhood": "First Hill",
      "neighborhoodGroup": "East",
      "unitCount": 1,
      "severity": 0,
      "units": "A10",
      "address": "1105 E Fir St"
    }
  },
  {
    "id_str": "F190063882",
    "created_at": "6/18/2019 11:18:35 PM",
    "derived": {
      "lat": 47.616393,
      "long": -122.329156,
      "timestamp": 1560925115000,
      "description": "MVI Freeway",
      "entries": 1,
      "neighborhood": "Cascade/Eastlake",
      "neighborhoodGroup": "Lake Union",
      "unitCount": 3,
      "severity": 0,
      "units": "A2 E2 E25",
      "address": "SB I5 AT PIKE"
    }
  },
  {
    "id_str": "F190063881",
    "created_at": "6/18/2019 11:17:14 PM",
    "derived": {
      "lat": 47.602985,
      "long": -122.328535,
      "timestamp": 1560925034000,
      "description": "Medic Response",
      "entries": 1,
      "neighborhood": "First Hill",
      "neighborhoodGroup": "East",
      "unitCount": 2,
      "severity": 0,
      "units": "A5 M1",
      "address": "500 5th Av"
    }
  },
  {
    "id_str": "F190063879",
    "created_at": "6/18/2019 11:16:12 PM",
    "derived": {
      "lat": 47.681671,
      "long": -122.309907,
      "timestamp": 1560924972000,
      "description": "Automatic Fire Alarm False",
      "entries": 1,
      "neighborhood": "Ravenna/Bryant",
      "neighborhoodGroup": "Northeast",
      "unitCount": 1,
      "severity": 0,
      "units": "E17",
      "address": "7349 17th Av Ne"
    }
  },
  {
    "id_str": "F190063877",
    "created_at": "6/18/2019 11:14:26 PM",
    "derived": {
      "lat": 47.705051,
      "long": -122.344694,
      "timestamp": 1560924866000,
      "description": "Aid Response",
      "entries": 1,
      "neighborhood": "Licton Springs",
      "neighborhoodGroup": "Northwest",
      "unitCount": 1,
      "severity": 0,
      "units": "E16",
      "address": "Aurora Av N / N 105th St"
    }
  },
  {
    "id_str": "F190063876",
    "created_at": "6/18/2019 11:11:14 PM",
    "derived": {
      "lat": 47.719585,
      "long": -122.34948,
      "timestamp": 1560924674000,
      "description": "1RED 1 Unit",
      "entries": 2,
      "neighborhood": "Broadview/Bitter Lake",
      "neighborhoodGroup": "Northwest",
      "unitCount": 2,
      "severity": 0,
      "units": "E21 E35",
      "address": "N 125th St / North Park Av N"
    }
  },
  {
    "id_str": "F190063875",
    "created_at": "6/18/2019 11:10:46 PM",
    "derived": {
      "lat": 47.54586,
      "long": -122.275769,
      "timestamp": 1560924646000,
      "description": "Medic Response",
      "entries": 1,
      "neighborhood": "Seward Park",
      "neighborhoodGroup": "Southeast",
      "unitCount": 2,
      "severity": 0,
      "units": "E28 M28",
      "address": "6334 Rainier Av S"
    }
  },
  {
    "id_str": "F190063872",
    "created_at": "6/18/2019 11:05:12 PM",
    "derived": {
      "lat": 47.703693,
      "long": -122.350059,
      "timestamp": 1560924312000,
      "description": "Alarm Bell",
      "entries": 1,
      "neighborhood": "Licton Springs",
      "neighborhoodGroup": "Northwest",
      "unitCount": 2,
      "severity": 0,
      "units": "E24 L8",
      "address": "10311 Fremont Av N"
    }
  },
  {
    "id_str": "F190063871",
    "created_at": "6/18/2019 10:51:39 PM",
    "derived": {
      "lat": 47.715145,
      "long": -122.34486,
      "timestamp": 1560923499000,
      "description": "Illegal Burn",
      "entries": 1,
      "neighborhood": "Broadview/Bitter Lake",
      "neighborhoodGroup": "Northwest",
      "unitCount": 1,
      "severity": 0,
      "units": "E35",
      "address": "11762 AURORA AV N"
    }
  },
  {
    "id_str": "F190063869",
    "created_at": "6/18/2019 10:49:57 PM",
    "derived": {
      "lat": 47.615273,
      "long": -122.293558,
      "timestamp": 1560923397000,
      "description": "Aid Response Yellow",
      "entries": 1,
      "neighborhood": "Central Area/Squire Park",
      "neighborhoodGroup": "Central",
      "unitCount": 1,
      "severity": 0,
      "units": "A25",
      "address": "1600 30th Av"
    }
  },
  {
    "id_str": "F190063867",
    "created_at": "6/18/2019 10:44:46 PM",
    "derived": {
      "lat": 47.609071,
      "long": -122.29755,
      "timestamp": 1560923086000,
      "description": "Unk Odor",
      "entries": 1,
      "neighborhood": "Central Area/Squire Park",
      "neighborhoodGroup": "Central",
      "unitCount": 1,
      "severity": 0,
      "units": "E6",
      "address": "807 27th Av"
    }
  },
  {
    "id_str": "F190063865",
    "created_at": "6/18/2019 10:41:09 PM",
    "derived": {
      "lat": 47.64231,
      "long": -122.346999,
      "timestamp": 1560922869000,
      "description": "Aid Response",
      "entries": 1,
      "neighborhood": "Queen Anne",
      "neighborhoodGroup": "Magnolia/Queen Anne",
      "unitCount": 1,
      "severity": 0,
      "units": "E8",
      "address": "2451 Aurora Av N"
    }
  },
  {
    "id_str": "F190063866",
    "created_at": "6/18/2019 10:41:04 PM",
    "derived": {
      "lat": 47.705044,
      "long": -122.339312,
      "timestamp": 1560922864000,
      "description": "Medic Response",
      "entries": 2,
      "neighborhood": "Licton Springs",
      "neighborhoodGroup": "Northwest",
      "unitCount": 2,
      "severity": 0,
      "units": "E35 M31",
      "address": "Ashworth Av N / N Northgate Way"
    }
  },
  {
    "id_str": "F190063863",
    "created_at": "6/18/2019 10:32:28 PM",
    "derived": {
      "lat": 47.660979,
      "long": -122.34694,
      "timestamp": 1560922348000,
      "description": "Aid Response",
      "entries": 1,
      "neighborhood": "Wallingford",
      "neighborhoodGroup": "Lake Union",
      "unitCount": 1,
      "severity": 0,
      "units": "E9",
      "address": "4450 Green Lake Way N"
    }
  },
  {
    "id_str": "F190063861",
    "created_at": "6/18/2019 10:27:08 PM",
    "derived": {
      "lat": 47.526449,
      "long": -122.317582,
      "timestamp": 1560922028000,
      "description": "Aid Response Yellow",
      "entries": 1,
      "neighborhood": "South Park",
      "neighborhoodGroup": "Greater Duwamish",
      "unitCount": 1,
      "severity": 0,
      "units": "E26",
      "address": "12th Av S / S Cloverdale St"
    }
  },
  {
    "id_str": "F190063860",
    "created_at": "6/18/2019 10:15:05 PM",
    "derived": {
      "lat": 47.701742,
      "long": -122.335029,
      "timestamp": 1560921305000,
      "description": "Aid Response",
      "entries": 1,
      "neighborhood": "Licton Springs",
      "neighborhoodGroup": "Northwest",
      "unitCount": 1,
      "severity": 0,
      "units": "E16",
      "address": "10049 College Way N"
    }
  },
  {
    "id_str": "F190063859",
    "created_at": "6/18/2019 10:14:45 PM",
    "derived": {
      "lat": 47.521679,
      "long": -122.264284,
      "timestamp": 1560921285000,
      "description": "Aid Response",
      "entries": 1,
      "neighborhood": "Rainier Beach",
      "neighborhoodGroup": "Southeast",
      "unitCount": 1,
      "severity": 0,
      "units": "E33",
      "address": "9061 Seward Park Av S"
    }
  },
  {
    "id_str": "F190063858",
    "created_at": "6/18/2019 10:14:07 PM",
    "derived": {
      "lat": 47.721626,
      "long": -122.356883,
      "timestamp": 1560921247000,
      "description": "Medic Response",
      "entries": 1,
      "neighborhood": "Broadview/Bitter Lake",
      "neighborhoodGroup": "Northwest",
      "unitCount": 2,
      "severity": 0,
      "units": "E24 M31",
      "address": "12734 Palatine Av N"
    }
  },
  {
    "id_str": "F190063857",
    "created_at": "6/18/2019 10:09:25 PM",
    "derived": {
      "lat": 47.613197,
      "long": -122.323432,
      "timestamp": 1560920965000,
      "description": "Aid Response",
      "entries": 1,
      "neighborhood": "Capitol Hill",
      "neighborhoodGroup": "East",
      "unitCount": 1,
      "severity": 0,
      "units": "A25",
      "address": "1420 Boylston Av"
    }
  },
  {
    "id_str": "F190063856",
    "created_at": "6/18/2019 10:08:09 PM",
    "derived": {
      "lat": 47.602985,
      "long": -122.328535,
      "timestamp": 1560920889000,
      "description": "Medic Response",
      "entries": 1,
      "neighborhood": "First Hill",
      "neighborhoodGroup": "East",
      "unitCount": 2,
      "severity": 0,
      "units": "A10 M10",
      "address": "500 5th Av"
    }
  },
  {
    "id_str": "F190063852",
    "created_at": "6/18/2019 10:05:08 PM",
    "derived": {
      "lat": 47.60326,
      "long": -122.291617,
      "timestamp": 1560920708000,
      "description": "Automatic Fire Alarm Resd",
      "entries": 1,
      "neighborhood": "Madrona/Leschi",
      "neighborhoodGroup": "Central",
      "unitCount": 1,
      "severity": 0,
      "units": "E6",
      "address": "208 32nd Av"
    }
  },
  {
    "id_str": "F190063851",
    "created_at": "6/18/2019 10:02:49 PM",
    "derived": {
      "lat": 47.625418,
      "long": -122.346259,
      "timestamp": 1560920569000,
      "description": "Aid Response",
      "entries": 2,
      "neighborhood": "Cascade/Eastlake",
      "neighborhoodGroup": "Lake Union",
      "unitCount": 2,
      "severity": 0,
      "units": "A2 E2",
      "address": "Roy St / Taylor Av N"
    }
  },
  {
    "id_str": "F190063849",
    "created_at": "6/18/2019 9:53:45 PM",
    "derived": {
      "lat": 47.612635,
      "long": -122.343279,
      "timestamp": 1560920025000,
      "description": "Aid Response",
      "entries": 1,
      "neighborhood": "Belltown",
      "neighborhoodGroup": "Downtown",
      "unitCount": 1,
      "severity": 0,
      "units": "A2",
      "address": "2118 2nd Av"
    }
  },
  {
    "id_str": "F190063847",
    "created_at": "6/18/2019 9:43:45 PM",
    "derived": {
      "lat": 47.618497,
      "long": -122.327854,
      "timestamp": 1560919425000,
      "description": "Aid Response",
      "entries": 1,
      "neighborhood": "Capitol Hill",
      "neighborhoodGroup": "East",
      "unitCount": 1,
      "severity": 0,
      "units": "A25",
      "address": "100 Melrose Av E"
    }
  },
  {
    "id_str": "F190063846",
    "created_at": "6/18/2019 9:42:09 PM",
    "derived": {
      "lat": 47.702503,
      "long": -122.363849,
      "timestamp": 1560919329000,
      "description": "Aid Response",
      "entries": 1,
      "neighborhood": "North Beach/Blue Ridge",
      "neighborhoodGroup": "Ballard",
      "unitCount": 1,
      "severity": 0,
      "units": "E35",
      "address": "7th Av Nw / Nw 100th Pl"
    }
  },
  {
    "id_str": "F190063845",
    "created_at": "6/18/2019 9:39:46 PM",
    "derived": {
      "lat": 47.669446,
      "long": -122.37945,
      "timestamp": 1560919186000,
      "description": "Aid Response",
      "entries": 1,
      "neighborhood": "Ballard",
      "neighborhoodGroup": "Ballard",
      "unitCount": 1,
      "severity": 0,
      "units": "E18",
      "address": "1753 Nw 56th St"
    }
  },
  {
    "id_str": "F190063844",
    "created_at": "6/18/2019 9:32:14 PM",
    "derived": {
      "lat": 47.547273,
      "long": -122.321513,
      "timestamp": 1560918734000,
      "description": "1RED 1 Unit",
      "entries": 1,
      "neighborhood": "Georgetown",
      "neighborhoodGroup": "Greater Duwamish",
      "unitCount": 1,
      "severity": 0,
      "units": "E27",
      "address": "6230 Corson Av S"
    }
  },
  {
    "id_str": "F190063842",
    "created_at": "6/18/2019 9:26:23 PM",
    "derived": {
      "lat": 47.52241,
      "long": -122.346448,
      "timestamp": 1560918383000,
      "description": "Aid Response",
      "entries": 1,
      "neighborhood": "Highland Park",
      "neighborhoodGroup": "Delridge Neighborhoods",
      "unitCount": 1,
      "severity": 0,
      "units": "E11",
      "address": "9043 Henderson Pl Sw"
    }
  },
  {
    "id_str": "F190063841",
    "created_at": "6/18/2019 9:11:43 PM",
    "derived": {
      "lat": 47.69061,
      "long": -122.357982,
      "timestamp": 1560917503000,
      "description": "Aid Response",
      "entries": 1,
      "neighborhood": "Greenwood/Phinney Ridge",
      "neighborhoodGroup": "Northwest",
      "unitCount": 1,
      "severity": 0,
      "units": "E21",
      "address": "1st Av Nw / Nw 85th St"
    }
  },
  {
    "id_str": "F190063840",
    "created_at": "6/18/2019 8:48:22 PM",
    "derived": {
      "lat": 47.643463,
      "long": -122.387865,
      "timestamp": 1560916102000,
      "description": "Aid Response",
      "entries": 1,
      "neighborhood": "Interbay",
      "neighborhoodGroup": "Magnolia/Queen Anne",
      "unitCount": 1,
      "severity": 0,
      "units": "E41",
      "address": "2420 W Raye St"
    }
  },
  {
    "id_str": "F190063839",
    "created_at": "6/18/2019 8:48:19 PM",
    "derived": {
      "lat": 47.615231,
      "long": -122.323402,
      "timestamp": 1560916099000,
      "description": "Aid Response",
      "entries": 1,
      "neighborhood": "Capitol Hill",
      "neighborhoodGroup": "East",
      "unitCount": 1,
      "severity": 0,
      "units": "A25",
      "address": "701 E Pine St"
    }
  },
  {
    "id_str": "F190063838",
    "created_at": "6/18/2019 8:44:46 PM",
    "derived": {
      "lat": 47.551218,
      "long": -122.283443,
      "timestamp": 1560915886000,
      "description": "MVI - Motor Vehicle Incident",
      "entries": 1,
      "neighborhood": "Columbia City",
      "neighborhoodGroup": "Southeast",
      "unitCount": 1,
      "severity": 0,
      "units": "L12",
      "address": "39th Av S / S Orcas St"
    }
  },
  {
    "id_str": "F190063837",
    "created_at": "6/18/2019 8:36:23 PM",
    "derived": {
      "lat": 47.558353,
      "long": -122.285293,
      "timestamp": 1560915383000,
      "description": "Medic Response",
      "entries": 1,
      "neighborhood": "Columbia City",
      "neighborhoodGroup": "Southeast",
      "unitCount": 2,
      "severity": 0,
      "units": "E28 M28",
      "address": "4868 Rainier Av S"
    }
  },
  {
    "id_str": "F190063836",
    "created_at": "6/18/2019 8:33:03 PM",
    "derived": {
      "lat": 47.603593,
      "long": -122.322954,
      "timestamp": 1560915183000,
      "description": "Auto Fire Alarm",
      "entries": 1,
      "neighborhood": "First Hill",
      "neighborhoodGroup": "East",
      "unitCount": 2,
      "severity": 0,
      "units": "E25 L1",
      "address": "326 9th Av"
    }
  },
  {
    "id_str": "F190063833",
    "created_at": "6/18/2019 8:07:56 PM",
    "derived": {
      "lat": 47.607742,
      "long": -122.326595,
      "timestamp": 1560913676000,
      "description": "Investigate Out Of Service",
      "entries": 1,
      "neighborhood": "First Hill",
      "neighborhoodGroup": "East",
      "unitCount": 1,
      "severity": 0,
      "units": "E10",
      "address": "910 Marion St"
    }
  },
  {
    "id_str": "F190063832",
    "created_at": "6/18/2019 8:07:07 PM",
    "derived": {
      "lat": 47.614095,
      "long": -122.317995,
      "timestamp": 1560913627000,
      "description": "Medic Response",
      "entries": 3,
      "neighborhood": "Capitol Hill",
      "neighborhoodGroup": "East",
      "unitCount": 3,
      "severity": 0,
      "units": "A25 M1 M10",
      "address": "1111 E Pike St"
    }
  },
  {
    "id_str": "F190063831",
    "created_at": "6/18/2019 8:03:33 PM",
    "derived": {
      "lat": 47.544499,
      "long": -122.376449,
      "timestamp": 1560913413000,
      "description": "Aid Response",
      "entries": 1,
      "neighborhood": "High Point",
      "neighborhoodGroup": "Delridge Neighborhoods",
      "unitCount": 1,
      "severity": 0,
      "units": "E37",
      "address": "6520 35th Av Sw"
    }
  },
  {
    "id_str": "F190063829",
    "created_at": "6/18/2019 8:02:36 PM",
    "derived": {
      "lat": 47.652413,
      "long": -122.405741,
      "timestamp": 1560913356000,
      "description": "Medic Response",
      "entries": 1,
      "neighborhood": "Magnolia",
      "neighborhoodGroup": "Magnolia/Queen Anne",
      "unitCount": 2,
      "severity": 0,
      "units": "E41 M31",
      "address": "3614 38th Av W"
    }
  },
  {
    "id_str": "F190063828",
    "created_at": "6/18/2019 7:57:37 PM",
    "derived": {
      "lat": 47.545282,
      "long": -122.387462,
      "timestamp": 1560913057000,
      "description": "Aid Response",
      "entries": 1,
      "neighborhood": "Fauntleroy/Seaview",
      "neighborhoodGroup": "Southwest",
      "unitCount": 1,
      "severity": 0,
      "units": "E32",
      "address": "4308 Sw Beveridge Pl"
    }
  },
  {
    "id_str": "F190063826",
    "created_at": "6/18/2019 7:48:02 PM",
    "derived": {
      "lat": 47.602172,
      "long": -122.330863,
      "timestamp": 1560912482000,
      "description": "Aid Response",
      "entries": 1,
      "neighborhood": "Downtown Commercial Core",
      "neighborhoodGroup": "Downtown",
      "unitCount": 1,
      "severity": 0,
      "units": "A10",
      "address": "517 3rd Av"
    }
  },
  {
    "id_str": "F190063825",
    "created_at": "6/18/2019 7:44:59 PM",
    "derived": {
      "lat": 47.52879,
      "long": -122.280378,
      "timestamp": 1560912299000,
      "description": "Aid Response",
      "entries": 1,
      "neighborhood": "South Beacon Hill/NewHolly",
      "neighborhoodGroup": "Greater Duwamish",
      "unitCount": 1,
      "severity": 0,
      "units": "E33",
      "address": "8330 M L King Jr Way S"
    }
  },
  {
    "id_str": "F190063824",
    "created_at": "6/18/2019 7:44:00 PM",
    "derived": {
      "lat": 47.537063,
      "long": -122.27534,
      "timestamp": 1560912240000,
      "description": "Aid Response",
      "entries": 1,
      "neighborhood": "Columbia City",
      "neighborhoodGroup": "Southeast",
      "unitCount": 1,
      "severity": 0,
      "units": "E28",
      "address": "46th Av S / S Othello St"
    }
  },
  {
    "id_str": "F190063823",
    "created_at": "6/18/2019 7:43:09 PM",
    "derived": {
      "lat": 47.618379,
      "long": -122.333158,
      "timestamp": 1560912189000,
      "description": "Aid Response",
      "entries": 1,
      "neighborhood": "Cascade/Eastlake",
      "neighborhoodGroup": "Lake Union",
      "unitCount": 1,
      "severity": 0,
      "units": "A4",
      "address": "Minor Av / Virginia St"
    }
  },
  {
    "id_str": "F190063821",
    "created_at": "6/18/2019 7:41:07 PM",
    "derived": {
      "lat": 47.602114,
      "long": -122.330809,
      "timestamp": 1560912067000,
      "description": "Medic Response",
      "entries": 1,
      "neighborhood": "Downtown Commercial Core",
      "neighborhoodGroup": "Downtown",
      "unitCount": 2,
      "severity": 0,
      "units": "A5 M1",
      "address": "509 3rd Av"
    }
  },
  {
    "id_str": "F190063822",
    "created_at": "6/18/2019 7:41:00 PM",
    "derived": {
      "lat": 47.548227,
      "long": -122.371211,
      "timestamp": 1560912060000,
      "description": "Fire in Single Family Res",
      "entries": 1,
      "neighborhood": "High Point",
      "neighborhoodGroup": "Delridge Neighborhoods",
      "unitCount": 17,
      "severity": 2,
      "units": "A14 AIR10 B5 B7 DEP1 E11 E32 E36 E37 L11 L3 M32 M44 MAR5 R1 SAFT2 STAF10",
      "address": "6016 30th Av Sw"
    }
  },
  {
    "id_str": "F190063818",
    "created_at": "6/18/2019 7:34:02 PM",
    "derived": {
      "lat": 47.667604,
      "long": -122.380468,
      "timestamp": 1560911642000,
      "description": "Medic Response",
      "entries": 1,
      "neighborhood": "Ballard",
      "neighborhoodGroup": "Ballard",
      "unitCount": 2,
      "severity": 0,
      "units": "E18 M18",
      "address": "5350 Tallman Av Nw"
    }
  },
  {
    "id_str": "F190063817",
    "created_at": "6/18/2019 7:29:54 PM",
    "derived": {
      "lat": 47.619774,
      "long": -122.310073,
      "timestamp": 1560911394000,
      "description": "Natural Gas Odor",
      "entries": 1,
      "neighborhood": "Miller Park",
      "neighborhoodGroup": "East",
      "unitCount": 1,
      "severity": 0,
      "units": "L10",
      "address": "213 17th Av E"
    }
  },
  {
    "id_str": "F190063814",
    "created_at": "6/18/2019 7:24:23 PM",
    "derived": {
      "lat": 47.620503,
      "long": -122.312698,
      "timestamp": 1560911063000,
      "description": "Medic Response",
      "entries": 1,
      "neighborhood": "Capitol Hill",
      "neighborhoodGroup": "East",
      "unitCount": 2,
      "severity": 0,
      "units": "E25 M1",
      "address": "1501 E Thomas St"
    }
  },
  {
    "id_str": "F190063813",
    "created_at": "6/18/2019 7:19:23 PM",
    "derived": {
      "lat": 47.602172,
      "long": -122.330863,
      "timestamp": 1560910763000,
      "description": "Aid Response",
      "entries": 2,
      "neighborhood": "Downtown Commercial Core",
      "neighborhoodGroup": "Downtown",
      "unitCount": 2,
      "severity": 0,
      "units": "A10 L1",
      "address": "517 3rd Av"
    }
  },
  {
    "id_str": "F190063812",
    "created_at": "6/18/2019 7:13:41 PM",
    "derived": {
      "lat": 47.636229,
      "long": -122.360974,
      "timestamp": 1560910421000,
      "description": "Automatic Fire Alarm Resd",
      "entries": 1,
      "neighborhood": "Queen Anne",
      "neighborhoodGroup": "Magnolia/Queen Anne",
      "unitCount": 1,
      "severity": 0,
      "units": "E8",
      "address": "1910 3rd Av W"
    }
  },
  {
    "id_str": "F190063811",
    "created_at": "6/18/2019 7:11:22 PM",
    "derived": {
      "lat": 47.615264,
      "long": -122.316854,
      "timestamp": 1560910282000,
      "description": "Investigate Out Of Service",
      "entries": 1,
      "neighborhood": "Capitol Hill",
      "neighborhoodGroup": "East",
      "unitCount": 1,
      "severity": 0,
      "units": "L10",
      "address": "1200 E Pine St"
    }
  },
  {
    "id_str": "F190063810",
    "created_at": "6/18/2019 7:09:17 PM",
    "derived": {
      "lat": 47.611553,
      "long": -122.311479,
      "timestamp": 1560910157000,
      "description": "Aid Response",
      "entries": 1,
      "neighborhood": "Central Area/Squire Park",
      "neighborhoodGroup": "Central",
      "unitCount": 1,
      "severity": 0,
      "units": "A25",
      "address": "1103 16th Av"
    }
  },
  {
    "id_str": "F190063809",
    "created_at": "6/18/2019 7:07:50 PM",
    "derived": {
      "lat": 47.675933,
      "long": -122.317364,
      "timestamp": 1560910070000,
      "description": "Medic Response",
      "entries": 1,
      "neighborhood": "Ravenna/Bryant",
      "neighborhoodGroup": "Northeast",
      "unitCount": 2,
      "severity": 0,
      "units": "E16 M17",
      "address": "6515 Roosevelt Way Ne"
    }
  },
  {
    "id_str": "F190063808",
    "created_at": "6/18/2019 7:05:41 PM",
    "derived": {
      "lat": 47.668671,
      "long": -122.378884,
      "timestamp": 1560909941000,
      "description": "Illegal Burn",
      "entries": 1,
      "neighborhood": "Ballard",
      "neighborhoodGroup": "Ballard",
      "unitCount": 1,
      "severity": 0,
      "units": "E18",
      "address": "Nw Market St / 17th Av Nw"
    }
  },
  {
    "id_str": "F190063807",
    "created_at": "6/18/2019 6:58:50 PM",
    "derived": {
      "lat": 47.571853,
      "long": -122.293193,
      "timestamp": 1560909530000,
      "description": "Medic Response",
      "entries": 1,
      "neighborhood": "Columbia City",
      "neighborhoodGroup": "Southeast",
      "unitCount": 2,
      "severity": 0,
      "units": "E30 M28",
      "address": "3501 Rainier Av S"
    }
  },