[
  {
    "id_str": "F200006954",
    "created_at": "1/20/2020 3:59:08 PM",
    "derived": {
      "lat": 47.692246,
      "long": -122.317608,
      "timestamp": 1579564748000,
      "description": "AFA4 - Auto Alarm 2 + 1 + 1",
      "entries": 1,
      "neighborhood": "Northgate/Maple Leaf",
      "neighborhoodGroup": "North",
      "unitCount": 4,
      "severity": 0,
      "units": "B6 E16 E31 L9",
      "address": "8807 Roosevelt Way Ne"
    }
  },
  {
    "id_str": "F200006951",
    "created_at": "1/20/2020 3:54:56 PM",
    "derived": {
      "lat": 47.610516,
      "long": -122.324681,
      "timestamp": 1579564496000,
      "description": "Aid Response Yellow",
      "entries": 1,
      "neighborhood": "First Hill",
      "neighborhoodGroup": "East",
      "unitCount": 1,
      "severity": 0,
      "units": "E25",
      "address": "1100 Minor Av"
    }
  },
  {
    "id_str": "F200006952",
    "created_at": "1/20/2020 3:53:58 PM",
    "derived": {
      "lat": 47.509715,
      "long": -122.237436,
      "timestamp": 1579564438000,
      "description": "Automatic Fire Alarm Resd",
      "entries": 1,
      "neighborhood": "Rainier Beach",
      "neighborhoodGroup": "Southeast",
      "unitCount": 1,
      "severity": 0,
      "units": "E33",
      "address": "10400 Rainier Ave S"
    }
  },
  {
    "id_str": "F200006948",
    "created_at": "1/20/2020 3:46:24 PM",
    "derived": {
      "lat": 47.561082,
      "long": -122.379681,
      "timestamp": 1579563984000,
      "description": "Aid Response",
      "entries": 1,
      "neighborhood": "West Seattle Junction/Genesee Hill",
      "neighborhoodGroup": "Southwest",
      "unitCount": 1,
      "severity": 0,
      "units": "E32",
      "address": "3770 Sw Alaska St"
    }
  },
  {
    "id_str": "F200006947",
    "created_at": "1/20/2020 3:46:15 PM",
    "derived": {
      "lat": 47.721301,
      "long": -122.294037,
      "timestamp": 1579563975000,
      "description": "Auto Fire Alarm",
      "entries": 1,
      "neighborhood": "Cedar Park/Meadowbrook",
      "neighborhoodGroup": "North",
      "unitCount": 2,
      "severity": 0,
      "units": "E39 L6",
      "address": "12736 Lake City Way Ne"
    }
  },
  {
    "id_str": "F200006949",
    "created_at": "1/20/2020 3:45:57 PM",
    "derived": {
      "lat": 47.668671,
      "long": -122.377312,
      "timestamp": 1579563957000,
      "description": "MVI - Motor Vehicle Incident",
      "entries": 1,
      "neighborhood": "Ballard",
      "neighborhoodGroup": "Ballard",
      "unitCount": 1,
      "severity": 0,
      "units": "L8",
      "address": "1521 Nw Market St"
    }
  },
  {
    "id_str": "F200006946",
    "created_at": "1/20/2020 3:44:51 PM",
    "derived": {
      "lat": 47.626322,
      "long": -122.348863,
      "timestamp": 1579563891000,
      "description": "Medic Response",
      "entries": 2,
      "neighborhood": "Queen Anne",
      "neighborhoodGroup": "Magnolia/Queen Anne",
      "unitCount": 3,
      "severity": 0,
      "units": "A2 A4 M10",
      "address": "805 4th Av N"
    }
  },
  {
    "id_str": "F200006945",
    "created_at": "1/20/2020 3:40:50 PM",
    "derived": {
      "lat": 47.567861,
      "long": -122.38677,
      "timestamp": 1579563650000,
      "description": "Aid Response",
      "entries": 1,
      "neighborhood": "West Seattle Junction/Genesee Hill",
      "neighborhoodGroup": "Southwest",
      "unitCount": 1,
      "severity": 0,
      "units": "L11",
      "address": "4028 California Ave Sw"
    }
  },
  {
    "id_str": "F200006944",
    "created_at": "1/20/2020 3:34:53 PM",
    "derived": {
      "lat": 47.606467,
      "long": -122.32091,
      "timestamp": 1579563293000,
      "description": "Medic Response",
      "entries": 1,
      "neighborhood": "First Hill",
      "neighborhoodGroup": "East",
      "unitCount": 2,
      "severity": 0,
      "units": "A25 M1",
      "address": "515 Minor Av"
    }
  },
  {
    "id_str": "F200006943",
    "created_at": "1/20/2020 3:32:53 PM",
    "derived": {
      "lat": 47.579788,
      "long": -122.325977,
      "timestamp": 1579563173000,
      "description": "Aid Response",
      "entries": 1,
      "neighborhood": "Duwamish/SODO",
      "neighborhoodGroup": "Greater Duwamish",
      "unitCount": 1,
      "severity": 0,
      "units": "A14",
      "address": "2702 6th Av S"
    }
  },
  {
    "id_str": "F200006942",
    "created_at": "1/20/2020 3:32:14 PM",
    "derived": {
      "lat": 47.627192,
      "long": -122.356823,
      "timestamp": 1579563134000,
      "description": "Medic Response",
      "entries": 1,
      "neighborhood": "Queen Anne",
      "neighborhoodGroup": "Magnolia/Queen Anne",
      "unitCount": 2,
      "severity": 0,
      "units": "E8 M10",
      "address": "11 W Aloha St"
    }
  },
  {
    "id_str": "F200006941",
    "created_at": "1/20/2020 3:27:53 PM",
    "derived": {
      "lat": 47.619735,
      "long": -122.346306,
      "timestamp": 1579562873000,
      "description": "Aid Response",
      "entries": 3,
      "neighborhood": "Cascade/Eastlake",
      "neighborhoodGroup": "Lake Union",
      "unitCount": 1,
      "severity": 0,
      "units": "L4",
      "address": "Taylor Ave N / John St"
    }
  },
  {
    "id_str": "F200006939",
    "created_at": "1/20/2020 3:24:55 PM",
    "derived": {
      "lat": 47.690406,
      "long": -122.306857,
      "timestamp": 1579562695000,
      "description": "Aid Response",
      "entries": 1,
      "neighborhood": "Wedgwood/View Ridge",
      "neighborhoodGroup": "Northeast",
      "unitCount": 1,
      "severity": 0,
      "units": "E40",
      "address": "8512 20th Av Ne"
    }
  },
  {
    "id_str": "F200006938",
    "created_at": "1/20/2020 3:23:17 PM",
    "derived": {
      "lat": 47.66749,
      "long": -122.383093,
      "timestamp": 1579562597000,
      "description": "Aid Response Yellow",
      "entries": 1,
      "neighborhood": "Ballard",
      "neighborhoodGroup": "Ballard",
      "unitCount": 1,
      "severity": 0,
      "units": "E18",
      "address": "5433 Leary Av Nw"
    }
  },
  {
    "id_str": "F200006937",
    "created_at": "1/20/2020 3:23:03 PM",
    "derived": {
      "lat": 47.567218,
      "long": -122.290958,
      "timestamp": 1579562583000,
      "description": "Automatic Fire Alarm Resd",
      "entries": 1,
      "neighborhood": "Columbia City",
      "neighborhoodGroup": "Southeast",
      "unitCount": 1,
      "severity": 0,
      "units": "E30",
      "address": "4028 34th Ave S"
    }
  },
  {
    "id_str": "F200006936",
    "created_at": "1/20/2020 3:02:32 PM",
    "derived": {
      "lat": 47.562466,
      "long": -122.381391,
      "timestamp": 1579561352000,
      "description": "Medic Response",
      "entries": 1,
      "neighborhood": "West Seattle Junction/Genesee Hill",
      "neighborhoodGroup": "Southwest",
      "unitCount": 2,
      "severity": 0,
      "units": "E32 M32",
      "address": "4555 39th Ave Sw"
    }
  },
  {
    "id_str": "F200006930",
    "created_at": "1/20/2020 2:53:39 PM",
    "derived": {
      "lat": 47.633693,
      "long": -122.34049,
      "timestamp": 1579560819000,
      "description": "Aid Response",
      "entries": 1,
      "neighborhood": "Queen Anne",
      "neighborhoodGroup": "Magnolia/Queen Anne",
      "unitCount": 1,
      "severity": 0,
      "units": "A2",
      "address": "1633 Westlake Av N"
    }
  },
  {
    "id_str": "F200006931",
    "created_at": "1/20/2020 2:52:55 PM",
    "derived": {
      "lat": 47.724677,
      "long": -122.344993,
      "timestamp": 1579560775000,
      "description": "Aid Response",
      "entries": 1,
      "neighborhood": "Haller Lake",
      "neighborhoodGroup": "Northwest",
      "unitCount": 1,
      "severity": 0,
      "units": "A31",
      "address": "13201 Aurora Av N"
    }
  },
  {
    "id_str": "F200006928",
    "created_at": "1/20/2020 2:45:28 PM",
    "derived": {
      "lat": 47.622242,
      "long": -122.332995,
      "timestamp": 1579560328000,
      "description": "Aid Response",
      "entries": 1,
      "neighborhood": "Cascade/Eastlake",
      "neighborhoodGroup": "Lake Union",
      "unitCount": 1,
      "severity": 0,
      "units": "A4",
      "address": "424 Minor Av N"
    }
  },
  {
    "id_str": "F200006922",
    "created_at": "1/20/2020 2:21:08 PM",
    "derived": {
      "lat": 47.609902,
      "long": -122.323791,
      "timestamp": 1579558868000,
      "description": "Auto Fire Alarm",
      "entries": 2,
      "neighborhood": "Capitol Hill",
      "neighborhoodGroup": "East",
      "unitCount": 3,
      "severity": 0,
      "units": "E25 L10 L4",
      "address": "1221 Madison St"
    }
  },
  {
    "id_str": "F200006921",
    "created_at": "1/20/2020 2:16:45 PM",
    "derived": {
      "lat": 47.649327,
      "long": -122.363482,
      "timestamp": 1579558605000,
      "description": "Aid Response",
      "entries": 1,
      "neighborhood": "Queen Anne",
      "neighborhoodGroup": "Magnolia/Queen Anne",
      "unitCount": 1,
      "severity": 0,
      "units": "E9",
      "address": "3317 5th Av W"
    }
  },
  {
    "id_str": "F200006920",
    "created_at": "1/20/2020 1:49:59 PM",
    "derived": {
      "lat": 47.542466,
      "long": -122.275011,
      "timestamp": 1579556999000,
      "description": "Aid Response",
      "entries": 3,
      "neighborhood": "Columbia City",
      "neighborhoodGroup": "Southeast",
      "unitCount": 3,
      "severity": 0,
      "units": "A5 E28 M1",
      "address": "4628 S HOLLY ST"
    }
  },
  {
    "id_str": "F200006919",
    "created_at": "1/20/2020 1:49:04 PM",
    "derived": {
      "lat": 47.691959,
      "long": -122.356656,
      "timestamp": 1579556944000,
      "description": "Aid Response",
      "entries": 1,
      "neighborhood": "Greenwood/Phinney Ridge",
      "neighborhoodGroup": "Northwest",
      "unitCount": 1,
      "severity": 0,
      "units": "E21",
      "address": "8623 Palatine Av N"
    }
  },
  {
    "id_str": "F200006918",
    "created_at": "1/20/2020 1:46:47 PM",
    "derived": {
      "lat": 47.614082,
      "long": -122.349692,
      "timestamp": 1579556807000,
      "description": "Aid Response",
      "entries": 2,
      "neighborhood": "Belltown",
      "neighborhoodGroup": "Downtown",
      "unitCount": 2,
      "severity": 0,
      "units": "A2 E2",
      "address": "2510 Western Av"
    }
  },
  {
    "id_str": "F200006917",
    "created_at": "1/20/2020 1:42:46 PM",
    "derived": {
      "lat": 47.618576,
      "long": -122.348925,
      "timestamp": 1579556566000,
      "description": "Medic Response",
      "entries": 2,
      "neighborhood": "Cascade/Eastlake",
      "neighborhoodGroup": "Lake Union",
      "unitCount": 2,
      "severity": 0,
      "units": "A4 M10",
      "address": "100 4th Av N"
    }
  },
  {
    "id_str": "F200006916",
    "created_at": "1/20/2020 1:39:12 PM",
    "derived": {
      "lat": 47.623466,
      "long": -122.320929,
      "timestamp": 1579556352000,
      "description": "Auto Fire Alarm",
      "entries": 1,
      "neighborhood": "Capitol Hill",
      "neighborhoodGroup": "East",
      "unitCount": 2,
      "severity": 0,
      "units": "E25 L10",
      "address": "530 Broadway E"
    }
  },
  {
    "id_str": "F200006915",
    "created_at": "1/20/2020 1:38:10 PM",
    "derived": {
      "lat": 47.618997,
      "long": -122.294809,
      "timestamp": 1579556290000,
      "description": "Electrical Problem",
      "entries": 1,
      "neighborhood": "Central Area/Squire Park",
      "neighborhoodGroup": "Central",
      "unitCount": 1,
      "severity": 0,
      "units": "E34",
      "address": "109 29th Ave E"
    }
  },
  {
    "id_str": "F200006914",
    "created_at": "1/20/2020 1:37:47 PM",
    "derived": {
      "lat": 47.604197,
      "long": -122.332714,
      "timestamp": 1579556267000,
      "description": "1RED 1 Unit",
      "entries": 1,
      "neighborhood": "Downtown Commercial Core",
      "neighborhoodGroup": "Downtown",
      "unitCount": 1,
      "severity": 0,
      "units": "E5",
      "address": "3rd Ave / Columbia St"
    }
  },
  {
    "id_str": "F200006912",
    "created_at": "1/20/2020 1:37:27 PM",
    "derived": {
      "lat": 47.716877,
      "long": -122.296653,
      "timestamp": 1579556247000,
      "description": "Car Fire",
      "entries": 1,
      "neighborhood": "Olympic Hills/Victory Heights",
      "neighborhoodGroup": "North",
      "unitCount": 1,
      "severity": 0,
      "units": "E39",
      "address": "30th Ave Ne / Lake City Way Ne"
    }
  },
  {
    "id_str": "F200006909",
    "created_at": "1/20/2020 1:31:43 PM",
    "derived": {
      "lat": 47.601705,
      "long": -122.334179,
      "timestamp": 1579555903000,
      "description": "Medic Response",
      "entries": 1,
      "neighborhood": "Pioneer Square/International District",
      "neighborhoodGroup": "Downtown",
      "unitCount": 2,
      "severity": 0,
      "units": "A5 M1",
      "address": "102 1st Av S"
    }
  },
  {
    "id_str": "F200006908",
    "created_at": "1/20/2020 1:27:59 PM",
    "derived": {
      "lat": 47.681596,
      "long": -122.286414,
      "timestamp": 1579555679000,
      "description": "Aid Response",
      "entries": 1,
      "neighborhood": "Wedgwood/View Ridge",
      "neighborhoodGroup": "Northeast",
      "unitCount": 1,
      "severity": 0,
      "units": "E38",
      "address": "7343 39th Ave Ne"
    }
  },
  {
    "id_str": "F200006907",
    "created_at": "1/20/2020 1:15:40 PM",
    "derived": {
      "lat": 47.618127,
      "long": -122.338419,
      "timestamp": 1579554940000,
      "description": "Aid Response",
      "entries": 1,
      "neighborhood": "Cascade/Eastlake",
      "neighborhoodGroup": "Lake Union",
      "unitCount": 1,
      "severity": 0,
      "units": "A2",
      "address": "2210 WESTLAKE AVE"
    }
  },
  {
    "id_str": "F200006906",
    "created_at": "1/20/2020 1:12:03 PM",
    "derived": {
      "lat": 47.54606,
      "long": -122.265588,
      "timestamp": 1579554723000,
      "description": "Aid Response",
      "entries": 1,
      "neighborhood": "Seward Park",
      "neighborhoodGroup": "Southeast",
      "unitCount": 1,
      "severity": 0,
      "units": "E28",
      "address": "5249 S Graham St"
    }
  },
  {
    "id_str": "F200006905",
    "created_at": "1/20/2020 1:08:05 PM",
    "derived": {
      "lat": 47.691743,
      "long": -122.285323,
      "timestamp": 1579554485000,
      "description": "Electrical Problem",
      "entries": 1,
      "neighborhood": "Wedgwood/View Ridge",
      "neighborhoodGroup": "Northeast",
      "unitCount": 1,
      "severity": 0,
      "units": "E40",
      "address": "8716 40th Ave Ne"
    }
  },
  {
    "id_str": "F200006904",
    "created_at": "1/20/2020 12:51:49 PM",
    "derived": {
      "lat": 47.618002,
      "long": -122.329182,
      "timestamp": 1579553509000,
      "description": "Aid Response Yellow",
      "entries": 1,
      "neighborhood": "Cascade/Eastlake",
      "neighborhoodGroup": "Lake Union",
      "unitCount": 1,
      "severity": 0,
      "units": "E25",
      "address": "1811 Eastlake Av"
    }
  },
  {
    "id_str": "F200006903",
    "created_at": "1/20/2020 12:50:49 PM",
    "derived": {
      "lat": 47.662004,
      "long": -122.320724,
      "timestamp": 1579553449000,
      "description": "Aid Response",
      "entries": 1,
      "neighborhood": "Wallingford",
      "neighborhoodGroup": "Lake Union",
      "unitCount": 1,
      "severity": 0,
      "units": "E17",
      "address": "4544 7th Av Ne"
    }
  },
  {
    "id_str": "F200006902",
    "created_at": "1/20/2020 12:47:29 PM",
    "derived": {
      "lat": 47.561926,
      "long": -122.376204,
      "timestamp": 1579553249000,
      "description": "Aid Response",
      "entries": 1,
      "neighborhood": "North Delridge",
      "neighborhoodGroup": "Delridge Neighborhoods",
      "unitCount": 1,
      "severity": 0,
      "units": "L11",
      "address": "4611 35th Av Sw"
    }
  },
  {
    "id_str": "F200006901",
    "created_at": "1/20/2020 12:43:42 PM",
    "derived": {
      "lat": 47.61055,
      "long": -122.329318,
      "timestamp": 1579553022000,
      "description": "Medic Response",
      "entries": 2,
      "neighborhood": "First Hill",
      "neighborhoodGroup": "East",
      "unitCount": 2,
      "severity": 0,
      "units": "A5 M10",
      "address": "900 University St"
    }
  },
  {
    "id_str": "F200006900",
    "created_at": "1/20/2020 12:42:57 PM",
    "derived": {
      "lat": 47.618127,
      "long": -122.338419,
      "timestamp": 1579552977000,
      "description": "Aid Response",
      "entries": 1,
      "neighborhood": "Cascade/Eastlake",
      "neighborhoodGroup": "Lake Union",
      "unitCount": 1,
      "severity": 0,
      "units": "A2",
      "address": "2210 Westlake Ave"
    }
  },
  {
    "id_str": "F200006899",
    "created_at": "1/20/2020 12:37:54 PM",
    "derived": {
      "lat": 47.571931,
      "long": -122.392088,
      "timestamp": 1579552674000,
      "description": "Aid Response",
      "entries": 1,
      "neighborhood": "West Seattle Junction/Genesee Hill",
      "neighborhoodGroup": "Southwest",
      "unitCount": 1,
      "severity": 0,
      "units": "E29",
      "address": "3615 47th Ave Sw"
    }
  },
  {
    "id_str": "F200006897",
    "created_at": "1/20/2020 12:34:49 PM",
    "derived": {
      "lat": 47.61762,
      "long": -122.310139,
      "timestamp": 1579552489000,
      "description": "Aid Response",
      "entries": 1,
      "neighborhood": "Central Area/Squire Park",
      "neighborhoodGroup": "Central",
      "unitCount": 1,
      "severity": 0,
      "units": "A25",
      "address": "1802 17th Av"
    }
  },
  {
    "id_str": "F200006896",
    "created_at": "1/20/2020 12:26:36 PM",
    "derived": {
      "lat": 47.611207,
      "long": -122.337592,
      "timestamp": 1579551996000,
      "description": "Aid Response",
      "entries": 1,
      "neighborhood": "Downtown Commercial Core",
      "neighborhoodGroup": "Downtown",
      "unitCount": 1,
      "severity": 0,
      "units": "A4",
      "address": "400 Pine St"
    }
  },
  {
    "id_str": "F200006894",
    "created_at": "1/20/2020 12:16:29 PM",
    "derived": {
      "lat": 47.600843,
      "long": -122.330271,
      "timestamp": 1579551389000,
      "description": "Aid Response",
      "entries": 1,
      "neighborhood": "Pioneer Square/International District",
      "neighborhoodGroup": "Downtown",
      "unitCount": 1,
      "severity": 0,
      "units": "A10",
      "address": "204 3rd Av S"
    }
  },
  {
    "id_str": "F200006893",
    "created_at": "1/20/2020 12:14:11 PM",
    "derived": {
      "lat": 47.602742,
      "long": -122.305039,
      "timestamp": 1579551251000,
      "description": "Medic Response",
      "entries": 1,
      "neighborhood": "Central Area/Squire Park",
      "neighborhoodGroup": "Central",
      "unitCount": 2,
      "severity": 0,
      "units": "E6 M1",
      "address": "155 21st Av"
    }
  },
  {
    "id_str": "F200006891",
    "created_at": "1/20/2020 12:04:08 PM",
    "derived": {
      "lat": 47.662004,
      "long": -122.320724,
      "timestamp": 1579550648000,
      "description": "Automatic Medical Alarm",
      "entries": 3,
      "neighborhood": "Wallingford",
      "neighborhoodGroup": "Lake Union",
      "unitCount": 4,
      "severity": 0,
      "units": "E17 E22 E31 M17",
      "address": "4544 7th Av Ne"
    }
  },
  {
    "id_str": "F200006890",
    "created_at": "1/20/2020 12:03:43 PM",
    "derived": {
      "lat": 47.604991,
      "long": -122.333174,
      "timestamp": 1579550623000,
      "description": "Aid Response",
      "entries": 2,
      "neighborhood": "Downtown Commercial Core",
      "neighborhoodGroup": "Downtown",
      "unitCount": 1,
      "severity": 0,
      "units": "A5",
      "address": "317 Marion St"
    }
  },
  {
    "id_str": "F200006889",
    "created_at": "1/20/2020 11:53:32 AM",
    "derived": {
      "lat": 47.544318,
      "long": -122.357162,
      "timestamp": 1579550012000,
      "description": "Medic Response",
      "entries": 2,
      "neighborhood": "Riverview",
      "neighborhoodGroup": "Delridge Neighborhoods",
      "unitCount": 3,
      "severity": 0,
      "units": "E11 M1 M32",
      "address": "6542 18TH AVE SW"
    }
  },
  {
    "id_str": "F200006888",
    "created_at": "1/20/2020 11:45:39 AM",
    "derived": {
      "lat": 47.617316,
      "long": -122.347229,
      "timestamp": 1579549539000,
      "description": "Aid Response Yellow",
      "entries": 1,
      "neighborhood": "Cascade/Eastlake",
      "neighborhoodGroup": "Lake Union",
      "unitCount": 1,
      "severity": 0,
      "units": "A2",
      "address": "2614 4th Av"
    }
  },
  {
    "id_str": "F200006884",
    "created_at": "1/20/2020 11:31:58 AM",
    "derived": {
      "lat": 47.611207,
      "long": -122.337592,
      "timestamp": 1579548718000,
      "description": "Aid Response",
      "entries": 1,
      "neighborhood": "Downtown Commercial Core",
      "neighborhoodGroup": "Downtown",
      "unitCount": 1,
      "severity": 0,
      "units": "A4",
      "address": "4th Ave / Pine St"
    }
  },
  {
    "id_str": "F200006883",
    "created_at": "1/20/2020 11:19:13 AM",
    "derived": {
      "lat": 47.584234,
      "long": -122.299024,
      "timestamp": 1579547953000,
      "description": "Automatic Medical Alarm",
      "entries": 1,
      "neighborhood": "Mt. Baker/North Rainier",
      "neighborhoodGroup": "Southeast",
      "unitCount": 1,
      "severity": 0,
      "units": "E6",
      "address": "2121 26th Av S"
    }
  },
  {
    "id_str": "F200006882",
    "created_at": "1/20/2020 11:17:05 AM",
    "derived": {
      "lat": 47.667459,
      "long": -122.399723,
      "timestamp": 1579547825000,
      "description": "Investigate Out Of Service",
      "entries": 1,
      "neighborhood": "Sunset Hill/Loyal Heights",
      "neighborhoodGroup": "Ballard",
      "unitCount": 1,
      "severity": 0,
      "units": "E18",
      "address": "3232 Nw 54th St"
    }
  },
  {
    "id_str": "F200006880",
    "created_at": "1/20/2020 11:03:06 AM",
    "derived": {
      "lat": 47.613247,
      "long": -122.327187,
      "timestamp": 1579546986000,
      "description": "Aid Response",
      "entries": 2,
      "neighborhood": "Capitol Hill",
      "neighborhoodGroup": "East",
      "unitCount": 2,
      "severity": 0,
      "units": "A2 A4",
      "address": "1431 Minor Av"
    }
  },
  {
    "id_str": "F200006879",
    "created_at": "1/20/2020 10:47:16 AM",
    "derived": {
      "lat": 47.719894,
      "long": -122.310889,
      "timestamp": 1579546036000,
      "description": "Medic Response",
      "entries": 1,
      "neighborhood": "Olympic Hills/Victory Heights",
      "neighborhoodGroup": "North",
      "unitCount": 2,
      "severity": 0,
      "units": "L5 M31",
      "address": "12567 17th Ave Ne"
    }
  },
  {
    "id_str": "F200006878",
    "created_at": "1/20/2020 10:46:13 AM",
    "derived": {
      "lat": 47.581888,
      "long": -122.335125,
      "timestamp": 1579545973000,
      "description": "Aid Response",
      "entries": 1,
      "neighborhood": "Duwamish/SODO",
      "neighborhoodGroup": "Greater Duwamish",
      "unitCount": 1,
      "severity": 0,
      "units": "R1",
      "address": "2401 Utah Av S"
    }
  },
  {
    "id_str": "F200006877",
    "created_at": "1/20/2020 10:43:17 AM",
    "derived": {
      "lat": 47.69057,
      "long": -122.344522,
      "timestamp": 1579545797000,
      "description": "Medic Response",
      "entries": 2,
      "neighborhood": "Licton Springs",
      "neighborhoodGroup": "Northwest",
      "unitCount": 2,
      "severity": 0,
      "units": "E35 M17",
      "address": "8502 Aurora Av N"
    }
  },
  {
    "id_str": "F200006876",
    "created_at": "1/20/2020 10:40:50 AM",
    "derived": {
      "lat": 47.601765,
      "long": -122.298916,
      "timestamp": 1579545650000,
      "description": "Activated CO Detector",
      "entries": 1,
      "neighborhood": "Central Area/Squire Park",
      "neighborhoodGroup": "Central",
      "unitCount": 1,
      "severity": 0,
      "units": "L3",
      "address": "106 26TH AVE"
    }
  },
  {
    "id_str": "F200006875",
    "created_at": "1/20/2020 10:37:15 AM",
    "derived": {
      "lat": 47.649362,
      "long": -122.277241,
      "timestamp": 1579545435000,
      "description": "Automatic Fire Alarm Resd",
      "entries": 1,
      "neighborhood": "Laurelhurst/Sand Point",
      "neighborhoodGroup": "Northeast",
      "unitCount": 1,
      "severity": 0,
      "units": "E31",
      "address": "3027 West Laurelhurst Dr Ne"
    }
  },
  {
    "id_str": "F200006874",
    "created_at": "1/20/2020 10:34:45 AM",
    "derived": {
      "lat": 47.628325,
      "long": -122.3271,
      "timestamp": 1579545285000,
      "description": "Scenes Of Violence 7",
      "entries": 2,
      "neighborhood": "Cascade/Eastlake",
      "neighborhoodGroup": "Lake Union",
      "unitCount": 6,
      "severity": 1,
      "units": "A2 B6 E22 M10 M31 M44",
      "address": "Belmont Ave E / Lakeview Blvd E"
    }
  },
  {
    "id_str": "F200006873",
    "created_at": "1/20/2020 10:32:32 AM",
    "derived": {
      "lat": 47.632289,
      "long": -122.284067,
      "timestamp": 1579545152000,
      "description": "Medic Response",
      "entries": 1,
      "neighborhood": "Madison Park",
      "neighborhoodGroup": "East",
      "unitCount": 2,
      "severity": 0,
      "units": "E34 M1",
      "address": "1510 38th Ave E"
    }
  },
  {
    "id_str": "F200006872",
    "created_at": "1/20/2020 10:26:44 AM",
    "derived": {
      "lat": 47.560584,
      "long": -122.288822,
      "timestamp": 1579544804000,
      "description": "Aid Response",
      "entries": 1,
      "neighborhood": "Columbia City",
      "neighborhoodGroup": "Southeast",
      "unitCount": 1,
      "severity": 0,
      "units": "E28",
      "address": "4712 35th Av S"
    }
  },
  {
    "id_str": "F200006871",
    "created_at": "1/20/2020 10:26:10 AM",
    "derived": {
      "lat": 47.71049,
      "long": -122.326004,
      "timestamp": 1579544770000,
      "description": "Aid Response",
      "entries": 1,
      "neighborhood": "Northgate/Maple Leaf",
      "neighborhoodGroup": "North",
      "unitCount": 1,
      "severity": 0,
      "units": "E39",
      "address": "11301 3rd Av Ne"
    }
  },
  {
    "id_str": "F200006870",
    "created_at": "1/20/2020 10:22:56 AM",
    "derived": {
      "lat": 47.521023,
      "long": -122.366095,
      "timestamp": 1579544576000,
      "description": "Aid Response",
      "entries": 1,
      "neighborhood": "Roxhill/Westwood",
      "neighborhoodGroup": "Delridge Neighborhoods",
      "unitCount": 1,
      "severity": 0,
      "units": "E26",
      "address": "2615 Sw Barton St"
    }
  },
  {
    "id_str": "F200006869",
    "created_at": "1/20/2020 10:21:11 AM",
    "derived": {
      "lat": 47.697984,
      "long": -122.375451,
      "timestamp": 1579544471000,
      "description": "Medic Response",
      "entries": 1,
      "neighborhood": "North Beach/Blue Ridge",
      "neighborhoodGroup": "Ballard",
      "unitCount": 2,
      "severity": 0,
      "units": "A31 M18",
      "address": "9515 Mary Ave Nw"
    }
  },
  {
    "id_str": "F200006868",
    "created_at": "1/20/2020 10:19:25 AM",
    "derived": {
      "lat": 47.611672,
      "long": -122.336484,
      "timestamp": 1579544365000,
      "description": "Auto Fire Alarm",
      "entries": 1,
      "neighborhood": "Downtown Commercial Core",
      "neighborhoodGroup": "Downtown",
      "unitCount": 2,
      "severity": 0,
      "units": "E5 L3",
      "address": "1601 5th Av"
    }
  },
  {
    "id_str": "F200006867",
    "created_at": "1/20/2020 10:18:31 AM",
    "derived": {
      "lat": 47.610044,
      "long": -122.338062,
      "timestamp": 1579544311000,
      "description": "Aid Response",
      "entries": 1,
      "neighborhood": "Downtown Commercial Core",
      "neighborhoodGroup": "Downtown",
      "unitCount": 1,
      "severity": 0,
      "units": "A2",
      "address": "1530 3rd Av"
    }
  },
  {
    "id_str": "F200006865",
    "created_at": "1/20/2020 10:15:03 AM",
    "derived": {
      "lat": 47.624795,
      "long": -122.360627,
      "timestamp": 1579544103000,
      "description": "Aid Response",
      "entries": 1,
      "neighborhood": "Queen Anne",
      "neighborhoodGroup": "Magnolia/Queen Anne",
      "unitCount": 1,
      "severity": 0,
      "units": "A4",
      "address": "617 3rd Av W"
    }
  },
  {
    "id_str": "F200006866",
    "created_at": "1/20/2020 10:14:38 AM",
    "derived": {
      "lat": 47.684007,
      "long": -122.361066,
      "timestamp": 1579544078000,
      "description": "4RED - 2 + 1 + 1",
      "entries": 2,
      "neighborhood": "Greenwood/Phinney Ridge",
      "neighborhoodGroup": "Northwest",
      "unitCount": 4,
      "severity": 0,
      "units": "B4 E21 E35 L9",
      "address": "347 Nw 76th St"
    }
  },
  {
    "id_str": "F200006864",
    "created_at": "1/20/2020 10:14:03 AM",
    "derived": {
      "lat": 47.5158,
      "long": -122.389987,
      "timestamp": 1579544043000,
      "description": "Aid Response",
      "entries": 1,
      "neighborhood": "Arbor Heights",
      "neighborhoodGroup": "Southwest",
      "unitCount": 1,
      "severity": 0,
      "units": "E11",
      "address": "9814 45th Ave Sw"
    }
  },
  {
    "id_str": "F200006862",
    "created_at": "1/20/2020 10:09:53 AM",
    "derived": {
      "lat": 47.669458,
      "long": -122.387807,
      "timestamp": 1579543793000,
      "description": "Aid Response",
      "entries": 1,
      "neighborhood": "Sunset Hill/Loyal Heights",
      "neighborhoodGroup": "Ballard",
      "unitCount": 1,
      "severity": 0,
      "units": "L8",
      "address": "2418 Nw 56th St"
    }
  },
  {
    "id_str": "F200006860",
    "created_at": "1/20/2020 10:07:29 AM",
    "derived": {
      "lat": 47.595147,
      "long": -122.312314,
      "timestamp": 1579543649000,
      "description": "Aid Response",
      "entries": 1,
      "neighborhood": "North Beacon Hill/Jefferson Park",
      "neighborhoodGroup": "Greater Duwamish",
      "unitCount": 1,
      "severity": 0,
      "units": "A10",
      "address": "851 Poplar Pl S"
    }
  },
  {
    "id_str": "F200006854",
    "created_at": "1/20/2020 10:00:31 AM",
    "derived": {
      "lat": 47.526119,
      "long": -122.276941,
      "timestamp": 1579543231000,
      "description": "MVI - Motor Vehicle Incident",
      "entries": 2,
      "neighborhood": "Rainier Beach",
      "neighborhoodGroup": "Southeast",
      "unitCount": 2,
      "severity": 0,
      "units": "E28 E33",
      "address": "Renton Ave S / S Cloverdale St"
    }
  },
  {
    "id_str": "F200006852",
    "created_at": "1/20/2020 9:45:09 AM",
    "derived": {
      "lat": 47.518858,
      "long": -122.378171,
      "timestamp": 1579542309000,
      "description": "Medic Response",
      "entries": 2,
      "neighborhood": "Fauntleroy/Seaview",
      "neighborhoodGroup": "Southwest",
      "unitCount": 2,
      "severity": 0,
      "units": "E37 M32",
      "address": "9447 36th Ave Sw"
    }
  },
  {
    "id_str": "F200006851",
    "created_at": "1/20/2020 9:44:28 AM",
    "derived": {
      "lat": 47.623717,
      "long": -122.360635,
      "timestamp": 1579542268000,
      "description": "Aid Response",
      "entries": 1,
      "neighborhood": "Queen Anne",
      "neighborhoodGroup": "Magnolia/Queen Anne",
      "unitCount": 1,
      "severity": 0,
      "units": "A4",
      "address": "533 3rd Av W"
    }
  },
  {
    "id_str": "F200006849",
    "created_at": "1/20/2020 9:27:25 AM",
    "derived": {
      "lat": 47.584283,
      "long": -122.350759,
      "timestamp": 1579541245000,
      "description": "Aid Response",
      "entries": 1,
      "neighborhood": "North Delridge",
      "neighborhoodGroup": "Delridge Neighborhoods",
      "unitCount": 1,
      "severity": 0,
      "units": "R1",
      "address": "2400 11th Av Sw"
    }
  },
  {
    "id_str": "F200006848",
    "created_at": "1/20/2020 9:22:36 AM",
    "derived": {
      "lat": 47.579913,
      "long": -122.349787,
      "timestamp": 1579540956000,
      "description": "MVI - Motor Vehicle Incident",
      "entries": 1,
      "neighborhood": "North Delridge",
      "neighborhoodGroup": "Delridge Neighborhoods",
      "unitCount": 1,
      "severity": 0,
      "units": "E36",
      "address": "2900 11th Av Sw"
    }
  },
  {
    "id_str": "F200006846",
    "created_at": "1/20/2020 9:19:37 AM",
    "derived": {
      "lat": 47.659899,
      "long": -122.313165,
      "timestamp": 1579540777000,
      "description": "Aid Response",
      "entries": 1,
      "neighborhood": "University District",
      "neighborhoodGroup": "Northeast",
      "unitCount": 1,
      "severity": 0,
      "units": "E17",
      "address": "4315 University Way Ne"
    }
  },
  {
    "id_str": "F200006845",
    "created_at": "1/20/2020 9:06:00 AM",
    "derived": {
      "lat": 47.692714,
      "long": -122.355324,
      "timestamp": 1579539960000,
      "description": "Medic Response",
      "entries": 2,
      "neighborhood": "Greenwood/Phinney Ridge",
      "neighborhoodGroup": "Northwest",
      "unitCount": 2,
      "severity": 0,
      "units": "E21 M31",
      "address": "8750 Greenwood Av N"
    }
  },
  {
    "id_str": "F200006844",
    "created_at": "1/20/2020 9:01:20 AM",
    "derived": {
      "lat": 47.600194,
      "long": -122.330541,
      "timestamp": 1579539680000,
      "description": "Aid Response",
      "entries": 1,
      "neighborhood": "Pioneer Square/International District",
      "neighborhoodGroup": "Downtown",
      "unitCount": 1,
      "severity": 0,
      "units": "A5",
      "address": "318 2nd Ave Et S"
    }
  },
  {
    "id_str": "F200006843",
    "created_at": "1/20/2020 8:54:12 AM",
    "derived": {
      "lat": 47.579809,
      "long": -122.327516,
      "timestamp": 1579539252000,
      "description": "Aid Response",
      "entries": 1,
      "neighborhood": "Duwamish/SODO",
      "neighborhoodGroup": "Greater Duwamish",
      "unitCount": 1,
      "severity": 0,
      "units": "E36",
      "address": "5th Ave S / S Lander St"
    }
  },
  {
    "id_str": "F200006842",
    "created_at": "1/20/2020 8:48:26 AM",
    "derived": {
      "lat": 47.675618,
      "long": -122.387584,
      "timestamp": 1579538906000,
      "description": "Rescue Elevator",
      "entries": 1,
      "neighborhood": "Sunset Hill/Loyal Heights",
      "neighborhoodGroup": "Ballard",
      "unitCount": 1,
      "severity": 0,
      "units": "L8",
      "address": "6450 24th Av Nw"
    }
  },
  {
    "id_str": "F200006841",
    "created_at": "1/20/2020 8:41:02 AM",
    "derived": {
      "lat": 47.573639,
      "long": -122.32598,
      "timestamp": 1579538462000,
      "description": "AFA4 - Auto Alarm 2 + 1 + 1",
      "entries": 1,
      "neighborhood": "Duwamish/SODO",
      "neighborhoodGroup": "Greater Duwamish",
      "unitCount": 4,
      "severity": 0,
      "units": "B5 E13 E36 R1",
      "address": "3405 6th Av S"
    }
  },
  {
    "id_str": "F200006838",
    "created_at": "1/20/2020 8:39:06 AM",
    "derived": {
      "lat": 47.61015,
      "long": -122.333556,
      "timestamp": 1579538346000,
      "description": "Medic Response",
      "entries": 2,
      "neighborhood": "First Hill",
      "neighborhoodGroup": "East",
      "unitCount": 2,
      "severity": 0,
      "units": "A10 M10",
      "address": "1400 6th Av"
    }
  },
  {
    "id_str": "F200006837",
    "created_at": "1/20/2020 8:24:19 AM",
    "derived": {
      "lat": 47.538889,
      "long": -122.393088,
      "timestamp": 1579537459000,
      "description": "Medic Response",
      "entries": 2,
      "neighborhood": "Fauntleroy/Seaview",
      "neighborhoodGroup": "Southwest",
      "unitCount": 2,
      "severity": 0,
      "units": "E37 M32",
      "address": "7124 47th Av Sw"
    }
  },
  {
    "id_str": "F200006833",
    "created_at": "1/20/2020 8:06:57 AM",
    "derived": {
      "lat": 47.610743,
      "long": -122.338702,
      "timestamp": 1579536417000,
      "description": "Aid Response",
      "entries": 1,
      "neighborhood": "Downtown Commercial Core",
      "neighborhoodGroup": "Downtown",
      "unitCount": 1,
      "severity": 0,
      "units": "A2",
      "address": "3rd Ave / Pine St"
    }
  },
  {
    "id_str": "F200006832",
    "created_at": "1/20/2020 8:05:50 AM",
    "derived": {
      "lat": 47.588225,
      "long": -122.321391,
      "timestamp": 1579536350000,
      "description": "Aid Response Yellow",
      "entries": 1,
      "neighborhood": "Duwamish/SODO",
      "neighborhoodGroup": "Greater Duwamish",
      "unitCount": 1,
      "severity": 0,
      "units": "A10",
      "address": "Airport Way S / S Massachusetts St"
    }
  },
  {
    "id_str": "F200006831",
    "created_at": "1/20/2020 7:59:49 AM",
    "derived": {
      "lat": 47.61996,
      "long": -122.313736,
      "timestamp": 1579535989000,
      "description": "Aid Response",
      "entries": 1,
      "neighborhood": "Capitol Hill",
      "neighborhoodGroup": "East",
      "unitCount": 1,
      "severity": 0,
      "units": "A25",
      "address": "1410 E John St"
    }
  },
  {
    "id_str": "F200006829",
    "created_at": "1/20/2020 7:37:58 AM",
    "derived": {
      "lat": 47.550884,
      "long": -122.29666,
      "timestamp": 1579534678000,
      "description": "Auto Fire Alarm",
      "entries": 1,
      "neighborhood": "Beacon Hill",
      "neighborhoodGroup": "Greater Duwamish",
      "unitCount": 2,
      "severity": 0,
      "units": "E28 L12",
      "address": "2816 S Orcas St"
    }
  },
  {
    "id_str": "F200006825",
    "created_at": "1/20/2020 7:20:15 AM",
    "derived": {
      "lat": 47.577727,
      "long": -122.333271,
      "timestamp": 1579533615000,
      "description": "Scenes Of Violence 7",
      "entries": 1,
      "neighborhood": "Duwamish/SODO",
      "neighborhoodGroup": "Greater Duwamish",
      "unitCount": 4,
      "severity": 0,
      "units": "A14 B5 M1 R1",
      "address": "S Forest St / Occidental Ave S"
    }
  },
  {
    "id_str": "F200006822",
    "created_at": "1/20/2020 6:46:52 AM",
    "derived": {
      "lat": 47.618412,
      "long": -122.355206,
      "timestamp": 1579531612000,
      "description": "Medic Response",
      "entries": 3,
      "neighborhood": "Belltown",
      "neighborhoodGroup": "Downtown",
      "unitCount": 3,
      "severity": 0,
      "units": "A2 M10 M44",
      "address": "94 Bay St"
    }
  },
  {
    "id_str": "F200006821",
    "created_at": "1/20/2020 6:34:47 AM",
    "derived": {
      "lat": 47.633029,
      "long": -122.394676,
      "timestamp": 1579530887000,
      "description": "Aid Response Yellow",
      "entries": 1,
      "neighborhood": "Magnolia",
      "neighborhoodGroup": "Magnolia/Queen Anne",
      "unitCount": 1,
      "severity": 0,
      "units": "E41",
      "address": "2929 W Eaton St"
    }
  },
  {
    "id_str": "F200006819",
    "created_at": "1/20/2020 6:24:16 AM",
    "derived": {
      "lat": 47.605322,
      "long": -122.337627,
      "timestamp": 1579530256000,
      "description": "Aid Response",
      "entries": 1,
      "neighborhood": "Downtown Commercial Core",
      "neighborhoodGroup": "Downtown",
      "unitCount": 1,
      "severity": 0,
      "units": "E5",
      "address": "1123 POST AV"
    }
  },
  {
    "id_str": "F200006818",
    "created_at": "1/20/2020 6:21:09 AM",
    "derived": {
      "lat": 47.615007,
      "long": -122.337781,
      "timestamp": 1579530069000,
      "description": "Medic Response",
      "entries": 2,
      "neighborhood": "Cascade/Eastlake",
      "neighborhoodGroup": "Lake Union",
      "unitCount": 2,
      "severity": 0,
      "units": "E2 M17",
      "address": "2008 Westlake Av"
    }
  },
  {
    "id_str": "F200006817",
    "created_at": "1/20/2020 6:15:45 AM",
    "derived": {
      "lat": 47.608268,
      "long": -122.330056,
      "timestamp": 1579529745000,
      "description": "Aid Response",
      "entries": 1,
      "neighborhood": "First Hill",
      "neighborhoodGroup": "East",
      "unitCount": 1,
      "severity": 0,
      "units": "A5",
      "address": "715 Spring St"
    }
  },
  {
    "id_str": "F200006815",
    "created_at": "1/20/2020 6:00:37 AM",
    "derived": {
      "lat": 47.626322,
      "long": -122.348863,
      "timestamp": 1579528837000,
      "description": "Aid Response",
      "entries": 1,
      "neighborhood": "Queen Anne",
      "neighborhoodGroup": "Magnolia/Queen Anne",
      "unitCount": 1,
      "severity": 0,
      "units": "A2",
      "address": "805 4th Av N"
    }
  },
  {
    "id_str": "F200006812",
    "created_at": "1/20/2020 5:53:51 AM",
    "derived": {
      "lat": 47.521031,
      "long": -122.357816,
      "timestamp": 1579528431000,
      "description": "1RED 1 Unit",
      "entries": 1,
      "neighborhood": "Roxhill/Westwood",
      "neighborhoodGroup": "Delridge Neighborhoods",
      "unitCount": 1,
      "severity": 0,
      "units": "E11",
      "address": "18th Ave Sw / Sw Barton St"
    }
  },
  {
    "id_str": "F200006810",
    "created_at": "1/20/2020 5:36:50 AM",
    "derived": {
      "lat": 47.712167,
      "long": -122.312433,
      "timestamp": 1579527410000,
      "description": "Aid Response Yellow",
      "entries": 1,
      "neighborhood": "Olympic Hills/Victory Heights",
      "neighborhoodGroup": "North",
      "unitCount": 1,
      "severity": 0,
      "units": "E39",
      "address": "11501 15th Av Ne"
    }
  },
  {
    "id_str": "F200006809",
    "created_at": "1/20/2020 5:33:05 AM",
    "derived": {
      "lat": 47.706926,
      "long": -122.34068,
      "timestamp": 1579527185000,
      "description": "Aid Response",
      "entries": 1,
      "neighborhood": "Haller Lake",
      "neighborhoodGroup": "Northwest",
      "unitCount": 1,
      "severity": 0,
      "units": "E24",
      "address": "10706 Interlake Ave N"
    }
  },
  {
    "id_str": "F200006806",
    "created_at": "1/20/2020 5:12:49 AM",
    "derived": {
      "lat": 47.659791,
      "long": -122.312996,
      "timestamp": 1579525969000,
      "description": "Aid Response",
      "entries": 1,
      "neighborhood": "University District",
      "neighborhoodGroup": "Northeast",
      "unitCount": 1,
      "severity": 0,
      "units": "L9",
      "address": "1415 Ne 43rd St"
    }
  },
  {
    "id_str": "F200006805",
    "created_at": "1/20/2020 5:04:59 AM",
    "derived": {
      "lat": 47.604615,
      "long": -122.32228,
      "timestamp": 1579525499000,
      "description": "Medic Response",
      "entries": 2,
      "neighborhood": "First Hill",
      "neighborhoodGroup": "East",
      "unitCount": 2,
      "severity": 0,
      "units": "A10 M1",
      "address": "1005 Terrace St"
    }
  },
  {
    "id_str": "F200006804",
    "created_at": "1/20/2020 5:01:29 AM",
    "derived": {
      "lat": 47.662932,
      "long": -122.373981,
      "timestamp": 1579525289000,
      "description": "Aid Response",
      "entries": 1,
      "neighborhood": "Ballard",
      "neighborhoodGroup": "Ballard",
      "unitCount": 1,
      "severity": 0,
      "units": "E18",
      "address": "1416 Nw Ballard Way"
    }
  },
  {
    "id_str": "F200006803",
    "created_at": "1/20/2020 4:56:41 AM",
    "derived": {
      "lat": 47.65706,
      "long": -122.314396,
      "timestamp": 1579525001000,
      "description": "Activated CO Detector",
      "entries": 1,
      "neighborhood": "University District",
      "neighborhoodGroup": "Northeast",
      "unitCount": 1,
      "severity": 0,
      "units": "L9",
      "address": "4115 Brooklyn Av Ne"
    }
  },
  {
    "id_str": "F200006801",
    "created_at": "1/20/2020 4:47:46 AM",
    "derived": {
      "lat": 47.555563,
      "long": -122.269627,
      "timestamp": 1579524466000,
      "description": "Aid Response",
      "entries": 1,
      "neighborhood": "Seward Park",
      "neighborhoodGroup": "Southeast",
      "unitCount": 1,
      "severity": 0,
      "units": "E28",
      "address": "5111 S Farrar St"
    }
  },
  {
    "id_str": "F200006800",
    "created_at": "1/20/2020 4:42:20 AM",
    "derived": {
      "lat": 47.568419,
      "long": -122.388106,
      "timestamp": 1579524140000,
      "description": "Aid Response",
      "entries": 1,
      "neighborhood": "West Seattle Junction/Genesee Hill",
      "neighborhoodGroup": "Southwest",
      "unitCount": 1,
      "severity": 0,
      "units": "E32",
      "address": "44th Ave Sw / Sw Andover St"
    }
  },
  {
    "id_str": "F200006799",
    "created_at": "1/20/2020 4:42:12 AM",
    "derived": {
      "lat": 47.602615,
      "long": -122.329418,
      "timestamp": 1579524132000,
      "description": "Medic Response, 7 per Rule",
      "entries": 1,
      "neighborhood": "Downtown Commercial Core",
      "neighborhoodGroup": "Downtown",
      "unitCount": 3,
      "severity": 0,
      "units": "A5 E10 M10",
      "address": "420 Jefferson St"
    }
  },
  {
    "id_str": "F200006798",
    "created_at": "1/20/2020 4:38:06 AM",
    "derived": {
      "lat": 47.680728,
      "long": -122.36152,
      "timestamp": 1579523886000,
      "description": "Medic Response",
      "entries": 2,
      "neighborhood": "Greenwood/Phinney Ridge",
      "neighborhoodGroup": "Northwest",
      "unitCount": 2,
      "severity": 0,
      "units": "E21 M31",
      "address": "405 Nw 72nd St"
    }
  },
  {
    "id_str": "F200006795",
    "created_at": "1/20/2020 4:24:09 AM",
    "derived": {
      "lat": 47.611984,
      "long": -122.342177,
      "timestamp": 1579523049000,
      "description": "Aid Response",
      "entries": 1,
      "neighborhood": "Belltown",
      "neighborhoodGroup": "Downtown",
      "unitCount": 1,
      "severity": 0,
      "units": "A2",
      "address": "2033 2nd Av"
    }
  },
  {
    "id_str": "F200006794",
    "created_at": "1/20/2020 4:21:47 AM",
    "derived": {
      "lat": 47.612677,
      "long": -122.331269,
      "timestamp": 1579522907000,
      "description": "Aid Response",
      "entries": 1,
      "neighborhood": "First Hill",
      "neighborhoodGroup": "East",
      "unitCount": 1,
      "severity": 0,
      "units": "A25",
      "address": "1525 9th Av"
    }
  },
  {
    "id_str": "F200006793",
    "created_at": "1/20/2020 4:12:32 AM",
    "derived": {
      "lat": 47.607828,
      "long": -122.339105,
      "timestamp": 1579522352000,
      "description": "Aid Response",
      "entries": 1,
      "neighborhood": "Downtown Commercial Core",
      "neighborhoodGroup": "Downtown",
      "unitCount": 1,
      "severity": 0,
      "units": "E5",
      "address": "99 Union St"
    }
  },
  {
    "id_str": "F200006792",
    "created_at": "1/20/2020 4:10:31 AM",
    "derived": {
      "lat": 47.605621,
      "long": -122.324591,
      "timestamp": 1579522231000,
      "description": "Aid Response",
      "entries": 1,
      "neighborhood": "First Hill",
      "neighborhoodGroup": "East",
      "unitCount": 1,
      "severity": 0,
      "units": "A10",
      "address": "914 James St"
    }
  },
  {
    "id_str": "F200006789",
    "created_at": "1/20/2020 3:54:54 AM",
    "derived": {
      "lat": 47.565505,
      "long": -122.407733,
      "timestamp": 1579521294000,
      "description": "Aid Response",
      "entries": 1,
      "neighborhood": "Alki/Admiral",
      "neighborhoodGroup": "Southwest",
      "unitCount": 1,
      "severity": 0,
      "units": "E32",
      "address": "4234 Beach Dr Sw"
    }
  },
  {
    "id_str": "F200006788",
    "created_at": "1/20/2020 3:37:54 AM",
    "derived": {
      "lat": 47.618497,
      "long": -122.327854,
      "timestamp": 1579520274000,
      "description": "Aid Response Yellow",
      "entries": 1,
      "neighborhood": "Capitol Hill",
      "neighborhoodGroup": "East",
      "unitCount": 1,
      "severity": 0,
      "units": "A25",
      "address": "100 Melrose Av E"
    }
  },
  {
    "id_str": "F200006787",
    "created_at": "1/20/2020 3:36:12 AM",
    "derived": {
      "lat": 47.588411,
      "long": -122.305827,
      "timestamp": 1579520172000,
      "description": "Aid Response",
      "entries": 1,
      "neighborhood": "North Beacon Hill/Jefferson Park",
      "neighborhoodGroup": "Greater Duwamish",
      "unitCount": 1,
      "severity": 0,
      "units": "E6",
      "address": "Rainier Ave S / S Massachusetts St"
    }
  },
  {
    "id_str": "F200006784",
    "created_at": "1/20/2020 2:52:23 AM",
    "derived": {
      "lat": 47.614076,
      "long": -122.32078,
      "timestamp": 1579517543000,
      "description": "Aid Response",
      "entries": 1,
      "neighborhood": "Capitol Hill",
      "neighborhoodGroup": "East",
      "unitCount": 1,
      "severity": 0,
      "units": "A25",
      "address": "Broadway / E Pike St"
    }
  },
  {
    "id_str": "F200006781",
    "created_at": "1/20/2020 2:44:17 AM",
    "derived": {
      "lat": 47.617356,
      "long": -122.345312,
      "timestamp": 1579517057000,
      "description": "Aid Response",
      "entries": 1,
      "neighborhood": "Cascade/Eastlake",
      "neighborhoodGroup": "Lake Union",
      "unitCount": 1,
      "severity": 0,
      "units": "E2",
      "address": "500 Wall St"
    }
  },
  {
    "id_str": "F200006780",
    "created_at": "1/20/2020 2:37:05 AM",
    "derived": {
      "lat": 47.60975,
      "long": -122.337793,
      "timestamp": 1579516625000,
      "description": "Aid Response",
      "entries": 1,
      "neighborhood": "Downtown Commercial Core",
      "neighborhoodGroup": "Downtown",
      "unitCount": 1,
      "severity": 0,
      "units": "A2",
      "address": "3rd Ave / Pike St"
    }
  },
  {
    "id_str": "F200006778",
    "created_at": "1/20/2020 2:16:29 AM",
    "derived": {
      "lat": 47.681554,
      "long": -122.317457,
      "timestamp": 1579515389000,
      "description": "Aid Response",
      "entries": 1,
      "neighborhood": "Ravenna/Bryant",
      "neighborhoodGroup": "Northeast",
      "unitCount": 1,
      "severity": 0,
      "units": "E16",
      "address": "7300 Roosevelt Way Ne"
    }
  },
  {
    "id_str": "F200006777",
    "created_at": "1/20/2020 2:10:43 AM",
    "derived": {
      "lat": 47.618672,
      "long": -122.303646,
      "timestamp": 1579515043000,
      "description": "Aid Response",
      "entries": 2,
      "neighborhood": "Central Area/Squire Park",
      "neighborhoodGroup": "Central",
      "unitCount": 2,
      "severity": 0,
      "units": "A25 E25",
      "address": "126 22nd Av E"
    }
  },
  {
    "id_str": "F200006776",
    "created_at": "1/20/2020 1:57:45 AM",
    "derived": {
      "lat": 47.645565,
      "long": -122.306887,
      "timestamp": 1579514265000,
      "description": "Automatic Medical Alarm",
      "entries": 1,
      "neighborhood": "Montlake/Portage Bay",
      "neighborhoodGroup": "Northeast",
      "unitCount": 1,
      "severity": 0,
      "units": "E22",
      "address": "1867 E Hamlin St"
    }
  },
  {
    "id_str": "F200006775",
    "created_at": "1/20/2020 1:50:11 AM",
    "derived": {
      "lat": 47.601986,
      "long": -122.32914,
      "timestamp": 1579513811000,
      "description": "Aid Response",
      "entries": 1,
      "neighborhood": "Downtown Commercial Core",
      "neighborhoodGroup": "Downtown",
      "unitCount": 1,
      "severity": 0,
      "units": "A5",
      "address": "420 4th Av"
    }
  },
  {
    "id_str": "F200006773",
    "created_at": "1/20/2020 1:43:34 AM",
    "derived": {
      "lat": 47.615226,
      "long": -122.32213,
      "timestamp": 1579513414000,
      "description": "Aid Response",
      "entries": 1,
      "neighborhood": "Capitol Hill",
      "neighborhoodGroup": "East",
      "unitCount": 1,
      "severity": 0,
      "units": "A25",
      "address": "Harvard Ave / E Pine St"
    }
  },
  {
    "id_str": "F200006772",
    "created_at": "1/20/2020 1:28:28 AM",
    "derived": {
      "lat": 47.638695,
      "long": -122.376149,
      "timestamp": 1579512508000,
      "description": "Auto Fire Alarm",
      "entries": 1,
      "neighborhood": "Interbay",
      "neighborhoodGroup": "Magnolia/Queen Anne",
      "unitCount": 2,
      "severity": 0,
      "units": "E20 L8",
      "address": "2208 15th Av W"
    }
  },
  {
    "id_str": "F200006770",
    "created_at": "1/20/2020 1:23:08 AM",
    "derived": {
      "lat": 47.719638,
      "long": -122.355539,
      "timestamp": 1579512188000,
      "description": "Aid Response",
      "entries": 1,
      "neighborhood": "Broadview/Bitter Lake",
      "neighborhoodGroup": "Northwest",
      "unitCount": 1,
      "severity": 0,
      "units": "E24",
      "address": "12505 Greenwood Av N"
    }
  },
  {
    "id_str": "F200006767",
    "created_at": "1/20/2020 1:00:33 AM",
    "derived": {
      "lat": 47.612716,
      "long": -122.345399,
      "timestamp": 1579510833000,
      "description": "Medic Response",
      "entries": 1,
      "neighborhood": "Belltown",
      "neighborhoodGroup": "Downtown",
      "unitCount": 2,
      "severity": 0,
      "units": "A2 M1",
      "address": "2215 1st Av"
    }
  },
  {
    "id_str": "F200006766",
    "created_at": "1/20/2020 12:53:33 AM",
    "derived": {
      "lat": 47.589194,
      "long": -122.394484,
      "timestamp": 1579510413000,
      "description": "Automatic Fire Alarm Resd",
      "entries": 1,
      "neighborhood": "Alki/Admiral",
      "neighborhoodGroup": "Southwest",
      "unitCount": 1,
      "severity": 0,
      "units": "E29",
      "address": "1587 Alki Ave Sw"
    }
  },
  {
    "id_str": "F200006765",
    "created_at": "1/20/2020 12:41:14 AM",
    "derived": {
      "lat": 47.663106,
      "long": -122.315263,
      "timestamp": 1579509674000,
      "description": "Medic Response",
      "entries": 1,
      "neighborhood": "University District",
      "neighborhoodGroup": "Northeast",
      "unitCount": 2,
      "severity": 0,
      "units": "E31 M18",
      "address": "4700 12th Av Ne"
    }
  },
  {
    "id_str": "F200006764",
    "created_at": "1/20/2020 12:30:03 AM",
    "derived": {
      "lat": 47.661381,
      "long": -122.292978,
      "timestamp": 1579509003000,
      "description": "Medic Response",
      "entries": 2,
      "neighborhood": "Ravenna/Bryant",
      "neighborhoodGroup": "Northeast",
      "unitCount": 2,
      "severity": 0,
      "units": "E38 M17",
      "address": "4516 Union Bay Pl Ne"
    }
  },
  {
    "id_str": "F200006763",
    "created_at": "1/20/2020 12:28:03 AM",
    "derived": {
      "lat": 47.6146,
      "long": -122.342634,
      "timestamp": 1579508883000,
      "description": "Aid Response",
      "entries": 1,
      "neighborhood": "Cascade/Eastlake",
      "neighborhoodGroup": "Lake Union",
      "unitCount": 1,
      "severity": 0,
      "units": "A2",
      "address": "4th Ave / Blanchard St"
    }
  },
  {
    "id_str": "F200006762",
    "created_at": "1/20/2020 12:26:54 AM",
    "derived": {
      "lat": 47.57733,
      "long": -122.394178,
      "timestamp": 1579508814000,
      "description": "Aid Response",
      "entries": 1,
      "neighborhood": "West Seattle Junction/Genesee Hill",
      "neighborhoodGroup": "Southwest",
      "unitCount": 1,
      "severity": 0,
      "units": "E29",
      "address": "3021 49th Ave Sw"
    }
  },
  {
    "id_str": "F200006761",
    "created_at": "1/20/2020 12:23:03 AM",
    "derived": {
      "lat": 47.553393,
      "long": -122.328357,
      "timestamp": 1579508583000,
      "description": "Illegal Burn",
      "entries": 1,
      "neighborhood": "Georgetown",
      "neighborhoodGroup": "Greater Duwamish",
      "unitCount": 1,
      "severity": 0,
      "units": "E27",
      "address": "5th Ave S / S Lucile St"
    }
  },
  {
    "id_str": "F200006760",
    "created_at": "1/20/2020 12:20:44 AM",
    "derived": {
      "lat": 47.712167,
      "long": -122.312433,
      "timestamp": 1579508444000,
      "description": "Aid Response",
      "entries": 1,
      "neighborhood": "Olympic Hills/Victory Heights",
      "neighborhoodGroup": "North",
      "unitCount": 1,
      "severity": 0,
      "units": "E39",
      "address": "11501 15th Av Ne"
    }
  },
  {
    "id_str": "F200006759",
    "created_at": "1/20/2020 12:10:03 AM",
    "derived": {
      "lat": 47.622182,
      "long": -122.31782,
      "timestamp": 1579507803000,
      "description": "Aid Response Yellow",
      "entries": 1,
      "neighborhood": "Capitol Hill",
      "neighborhoodGroup": "East",
      "unitCount": 1,
      "severity": 0,
      "units": "A25",
      "address": "419 11th Ave E"
    }
  },
  {
    "id_str": "F200006756",
    "created_at": "1/19/2020 11:48:49 PM",
    "derived": {
      "lat": 47.546656,
      "long": -122.373339,
      "timestamp": 1579506529000,
      "description": "1RED 1 Unit",
      "entries": 1,
      "neighborhood": "High Point",
      "neighborhoodGroup": "Delridge Neighborhoods",
      "unitCount": 1,
      "severity": 0,
      "units": "E37",
      "address": "3214 Sw Graham St"
    }
  },
  {
    "id_str": "F200006755",
    "created_at": "1/19/2020 11:46:13 PM",
    "derived": {
      "lat": 47.70641,
      "long": -122.277638,
      "timestamp": 1579506373000,
      "description": "Water Job Minor",
      "entries": 1,
      "neighborhood": "Cedar Park/Meadowbrook",
      "neighborhoodGroup": "North",
      "unitCount": 1,
      "severity": 0,
      "units": "L5",
      "address": "10654 Durland Ave Ne"
    }
  },
  {
    "id_str": "F200006754",
    "created_at": "1/19/2020 11:39:35 PM",
    "derived": {
      "lat": 47.603517,
      "long": -122.318076,
      "timestamp": 1579505975000,
      "description": "Aid Response",
      "entries": 1,
      "neighborhood": "First Hill",
      "neighborhoodGroup": "East",
      "unitCount": 1,
      "severity": 0,
      "units": "A25",
      "address": "1102 E Spruce St"
    }
  },
  {
    "id_str": "F200006753",
    "created_at": "1/19/2020 11:36:19 PM",
    "derived": {
      "lat": 47.602172,
      "long": -122.330863,
      "timestamp": 1579505779000,
      "description": "Medic Response",
      "entries": 2,
      "neighborhood": "Downtown Commercial Core",
      "neighborhoodGroup": "Downtown",
      "unitCount": 3,
      "severity": 0,
      "units": "A10 E10 M10",
      "address": "517 3rd Av"
    }
  },
  {
    "id_str": "F200006752",
    "created_at": "1/19/2020 11:35:33 PM",
    "derived": {
      "lat": 47.642503,
      "long": -122.406099,
      "timestamp": 1579505733000,
      "description": "Aid Response",
      "entries": 1,
      "neighborhood": "Magnolia",
      "neighborhoodGroup": "Magnolia/Queen Anne",
      "unitCount": 1,
      "severity": 0,
      "units": "E41",
      "address": "2564 38th Ave W"
    }
  },
  {
    "id_str": "F200006750",
    "created_at": "1/19/2020 11:12:02 PM",
    "derived": {
      "lat": 47.659434,
      "long": -122.30429,
      "timestamp": 1579504322000,
      "description": "Auto Fire Alarm",
      "entries": 1,
      "neighborhood": "University District",
      "neighborhoodGroup": "Northeast",
      "unitCount": 2,
      "severity": 0,
      "units": "E17 L9",
      "address": "4290 Whitman Ct Ne"
    }
  },
  {
    "id_str": "F200006748",
    "created_at": "1/19/2020 10:58:30 PM",
    "derived": {
      "lat": 47.613497,
      "long": -122.346355,
      "timestamp": 1579503510000,
      "description": "Activated CO Detector",
      "entries": 1,
      "neighborhood": "Belltown",
      "neighborhoodGroup": "Downtown",
      "unitCount": 1,
      "severity": 0,
      "units": "L4",
      "address": "118 Bell St"
    }
  },
  {
    "id_str": "F200006745",
    "created_at": "1/19/2020 10:54:28 PM",
    "derived": {
      "lat": 47.64959,
      "long": -122.349747,
      "timestamp": 1579503268000,
      "description": "Aid Response",
      "entries": 1,
      "neighborhood": "Fremont",
      "neighborhoodGroup": "Lake Union",
      "unitCount": 1,
      "severity": 0,
      "units": "E9",
      "address": "Fremont Ave N / N 34th St"
    }
  },
  {
    "id_str": "F200006744",
    "created_at": "1/19/2020 10:52:49 PM",
    "derived": {
      "lat": 47.647519,
      "long": -122.324414,
      "timestamp": 1579503169000,
      "description": "Aid Response",
      "entries": 1,
      "neighborhood": "Montlake/Portage Bay",
      "neighborhoodGroup": "Northeast",
      "unitCount": 1,
      "severity": 0,
      "units": "E22",
      "address": "2920 Eastlake Av E"
    }
  },
  {
    "id_str": "F200006742",
    "created_at": "1/19/2020 10:49:50 PM",
    "derived": {
      "lat": 47.609814,
      "long": -122.340922,
      "timestamp": 1579502990000,
      "description": "Aid Response",
      "entries": 1,
      "neighborhood": "Downtown Commercial Core",
      "neighborhoodGroup": "Downtown",
      "unitCount": 1,
      "severity": 0,
      "units": "A2",
      "address": "1st Ave / Pine St"
    }
  },
  {
    "id_str": "F200006741",
    "created_at": "1/19/2020 10:42:16 PM",
    "derived": {
      "lat": 47.617206,
      "long": -122.348802,
      "timestamp": 1579502536000,
      "description": "Auto Fire Alarm",
      "entries": 1,
      "neighborhood": "Cascade/Eastlake",
      "neighborhoodGroup": "Lake Union",
      "unitCount": 2,
      "severity": 0,
      "units": "E2 L4",
      "address": "311 Cedar St"
    }
  },
  {
    "id_str": "F200006739",
    "created_at": "1/19/2020 10:34:20 PM",
    "derived": {
      "lat": 47.661394,
      "long": -122.35004,
      "timestamp": 1579502060000,
      "description": "Medic Response",
      "entries": 1,
      "neighborhood": "Fremont",
      "neighborhoodGroup": "Lake Union",
      "unitCount": 2,
      "severity": 0,
      "units": "E9 M18",
      "address": "4501 Fremont Ave N"
    }
  },
  {
    "id_str": "F200006738",
    "created_at": "1/19/2020 10:27:05 PM",
    "derived": {
      "lat": 47.535493,
      "long": -122.355124,
      "timestamp": 1579501625000,
      "description": "Aid Response",
      "entries": 1,
      "neighborhood": "Riverview",
      "neighborhoodGroup": "Delridge Neighborhoods",
      "unitCount": 1,
      "severity": 0,
      "units": "E37",
      "address": "1610 Sw Webster St"
    }
  },
  {
    "id_str": "F200006737",
    "created_at": "1/19/2020 10:24:12 PM",
    "derived": {
      "lat": 47.672438,
      "long": -122.271571,
      "timestamp": 1579501452000,
      "description": "Automatic Fire Alarm Resd",
      "entries": 1,
      "neighborhood": "Ravenna/Bryant",
      "neighborhoodGroup": "Northeast",
      "unitCount": 1,
      "severity": 0,
      "units": "E38",
      "address": "6043 52nd Ave Ne"
    }
  },
  {
    "id_str": "F200006736",
    "created_at": "1/19/2020 10:19:12 PM",
    "derived": {
      "lat": 47.602172,
      "long": -122.330863,
      "timestamp": 1579501152000,
      "description": "Aid Response",
      "entries": 1,
      "neighborhood": "Downtown Commercial Core",
      "neighborhoodGroup": "Downtown",
      "unitCount": 1,
      "severity": 0,
      "units": "A5",
      "address": "517 3rd Av"
    }
  },
  {
    "id_str": "B200006734",
    "created_at": "1/19/2020 10:02:48 PM",
    "derived": {
      "lat": 47.734066,
      "long": -122.325108,
      "timestamp": 1579500168000,
      "description": "Aid Response",
      "entries": 1,
      "unitCount": 3,
      "severity": 0,
      "units": "A25 E24 E39",
      "address": "SB I5 AT 145"
    }
  },
  {
    "id_str": "F200006733",
    "created_at": "1/19/2020 10:01:18 PM",
    "derived": {
      "lat": 47.60975,
      "long": -122.337793,
      "timestamp": 1579500078000,
      "description": "Aid Response",
      "entries": 1,
      "neighborhood": "Downtown Commercial Core",
      "neighborhoodGroup": "Downtown",
      "unitCount": 1,
      "severity": 0,
      "units": "E5",
      "address": "3rd Ave / Pike St"
    }
  },
  {
    "id_str": "F200006732",
    "created_at": "1/19/2020 9:57:16 PM",
    "derived": {
      "lat": 47.602813,
      "long": -122.331449,
      "timestamp": 1579499836000,
      "description": "Aid Response",
      "entries": 1,
      "neighborhood": "Downtown Commercial Core",
      "neighborhoodGroup": "Downtown",
      "unitCount": 1,
      "severity": 0,
      "units": "A5",
      "address": "607 3rd Av"
    }
  },
  {
    "id_str": "F200006730",
    "created_at": "1/19/2020 9:49:57 PM",
    "derived": {
      "lat": 47.611606,
      "long": -122.333354,
      "timestamp": 1579499397000,
      "description": "Aid Response",
      "entries": 1,
      "neighborhood": "First Hill",
      "neighborhoodGroup": "East",
      "unitCount": 1,
      "severity": 0,
      "units": "A2",
      "address": "7th Ave / Pike St"
    }
  },
  {
    "id_str": "F200006729",
    "created_at": "1/19/2020 9:48:11 PM",
    "derived": {
      "lat": 47.586018,
      "long": -122.333266,
      "timestamp": 1579499291000,
      "description": "Aid Response",
      "entries": 1,
      "neighborhood": "Duwamish/SODO",
      "neighborhoodGroup": "Greater Duwamish",
      "unitCount": 1,
      "severity": 0,
      "units": "A10",
      "address": "1912 Occidental Av S"
    }
  },
  {
    "id_str": "F200006728",
    "created_at": "1/19/2020 9:36:53 PM",
    "derived": {
      "lat": 47.648458,
      "long": -122.381982,
      "timestamp": 1579498613000,
      "description": "Medic Response",
      "entries": 2,
      "neighborhood": "Interbay",
      "neighborhoodGroup": "Magnolia/Queen Anne",
      "unitCount": 2,
      "severity": 0,
      "units": "E20 M18",
      "address": "3201 20th Av W"
    }
  },
  {
    "id_str": "F200006725",
    "created_at": "1/19/2020 9:28:42 PM",
    "derived": {
      "lat": 47.610903,
      "long": -122.326571,
      "timestamp": 1579498122000,
      "description": "Aid Response",
      "entries": 1,
      "neighborhood": "First Hill",
      "neighborhoodGroup": "East",
      "unitCount": 1,
      "severity": 0,
      "units": "E25",
      "address": "1220 Boren Av"
    }
  },
  {
    "id_str": "F200006723",
    "created_at": "1/19/2020 9:27:03 PM",
    "derived": {
      "lat": 47.554657,
      "long": -122.31718,
      "timestamp": 1579498023000,
      "description": "Rescue Extrication",
      "entries": 3,
      "neighborhood": "Beacon Hill",
      "neighborhoodGroup": "Greater Duwamish",
      "unitCount": 11,
      "severity": 2,
      "units": "A14 A2 B2 B6 E13 E30 L12 M1 M44 R1 SAFT2",
      "address": "5335 12th Ave S"
    }
  },
  {
    "id_str": "F200006722",
    "created_at": "1/19/2020 9:25:48 PM",
    "derived": {
      "lat": 47.719601,
      "long": -122.355539,
      "timestamp": 1579497948000,
      "description": "Aid Response",
      "entries": 1,
      "neighborhood": "Broadview/Bitter Lake",
      "neighborhoodGroup": "Northwest",
      "unitCount": 1,
      "severity": 0,
      "units": "E24",
      "address": "12501 Greenwood Av N"
    }
  },
  {
    "id_str": "F200006721",
    "created_at": "1/19/2020 9:17:33 PM",
    "derived": {
      "lat": 47.719838,
      "long": -122.324131,
      "timestamp": 1579497453000,
      "description": "Aid Response Freeway",
      "entries": 2,
      "neighborhood": "Haller Lake",
      "neighborhoodGroup": "Northwest",
      "unitCount": 3,
      "severity": 0,
      "units": "A25 E16 E31",
      "address": "Nb I5 At 130"
    }
  },
  {
    "id_str": "F200006720",
    "created_at": "1/19/2020 9:14:05 PM",
    "derived": {
      "lat": 47.602588,
      "long": -122.334202,
      "timestamp": 1579497245000,
      "description": "Auto Fire Alarm",
      "entries": 1,
      "neighborhood": "Downtown Commercial Core",
      "neighborhoodGroup": "Downtown",
      "unitCount": 2,
      "severity": 0,
      "units": "E5 L4",
      "address": "107 Cherry St"
    }
  },
  {
    "id_str": "F200006719",
    "created_at": "1/19/2020 9:12:50 PM",
    "derived": {
      "lat": 47.602813,
      "long": -122.331449,
      "timestamp": 1579497170000,
      "description": "Aid Response",
      "entries": 1,
      "neighborhood": "Downtown Commercial Core",
      "neighborhoodGroup": "Downtown",
      "unitCount": 1,
      "severity": 0,
      "units": "A5",
      "address": "607 3rd Av"
    }
  },
  {
    "id_str": "F200006717",
    "created_at": "1/19/2020 9:10:34 PM",
    "derived": {
      "lat": 47.518178,
      "long": -122.367277,
      "timestamp": 1579497034000,
      "description": "Medic Response",
      "entries": 1,
      "neighborhood": "Roxhill/Westwood",
      "neighborhoodGroup": "Delridge Neighborhoods",
      "unitCount": 2,
      "severity": 0,
      "units": "A10 M28",
      "address": "9455 27th Av Sw"
    }
  },
  {
    "id_str": "F200006714",
    "created_at": "1/19/2020 9:08:20 PM",
    "derived": {
      "lat": 47.519085,
      "long": -122.357837,
      "timestamp": 1579496900000,
      "description": "Fire in Building",
      "entries": 3,
      "neighborhood": "Roxhill/Westwood",
      "neighborhoodGroup": "Delridge Neighborhoods",
      "unitCount": 20,
      "severity": 2,
      "units": "A14 AIR10 B5 B7 DEP1 E11 E26 E27 E32 E36 E37 L1 L11 M32 M44 MAR5 R1 REHAB1 SAFT2 STAF10",
      "address": "9412 18th Ave Sw"
    }
  },
  {
    "id_str": "F200006713",
    "created_at": "1/19/2020 9:07:26 PM",
    "derived": {
      "lat": 47.517363,
      "long": -122.3592,
      "timestamp": 1579496846000,
      "description": "Wires Down",
      "entries": 1,
      "neighborhood": "Roxhill/Westwood",
      "neighborhoodGroup": "Delridge Neighborhoods",
      "unitCount": 1,
      "severity": 0,
      "units": "E11",
      "address": "20th Ave Sw / Sw Roxbury St"
    }
  },
  {
    "id_str": "F200006712",
    "created_at": "1/19/2020 8:50:02 PM",
    "derived": {
      "lat": 47.61585,
      "long": -122.336428,
      "timestamp": 1579495802000,
      "description": "Aid Response",
      "entries": 1,
      "neighborhood": "Cascade/Eastlake",
      "neighborhoodGroup": "Lake Union",
      "unitCount": 1,
      "severity": 0,
      "units": "A2",
      "address": "819 Virginia St"
    }
  },
  {
    "id_str": "F200006711",
    "created_at": "1/19/2020 8:46:07 PM",
    "derived": {
      "lat": 47.613497,
      "long": -122.346355,
      "timestamp": 1579495567000,
      "description": "Activated CO Detector",
      "entries": 1,
      "neighborhood": "Belltown",
      "neighborhoodGroup": "Downtown",
      "unitCount": 1,
      "severity": 0,
      "units": "L4",
      "address": "118 Bell St"
    }
  },
  {
    "id_str": "F200006707",
    "created_at": "1/19/2020 8:26:28 PM",
    "derived": {
      "lat": 47.730569,
      "long": -122.347758,
      "timestamp": 1579494388000,
      "description": "Aid Response",
      "entries": 1,
      "neighborhood": "Broadview/Bitter Lake",
      "neighborhoodGroup": "Northwest",
      "unitCount": 1,
      "severity": 0,
      "units": "A31",
      "address": "14002 Linden Av N"
    }
  },
  {
    "id_str": "F200006705",
    "created_at": "1/19/2020 8:18:30 PM",
    "derived": {
      "lat": 47.656793,
      "long": -122.348558,
      "timestamp": 1579493910000,
      "description": "Aid Response",
      "entries": 1,
      "neighborhood": "Fremont",
      "neighborhoodGroup": "Lake Union",
      "unitCount": 1,
      "severity": 0,
      "units": "E9",
      "address": "4113 Linden Av N"
    }
  },
  {
    "id_str": "F200006704",
    "created_at": "1/19/2020 8:10:40 PM",
    "derived": {
      "lat": 47.614788,
      "long": -122.342952,
      "timestamp": 1579493440000,
      "description": "Automatic Medical Alarm",
      "entries": 1,
      "neighborhood": "Cascade/Eastlake",
      "neighborhoodGroup": "Lake Union",
      "unitCount": 1,
      "severity": 0,
      "units": "A4",
      "address": "2225 4th Av"
    }
  },
  {
    "id_str": "F200006703",
    "created_at": "1/19/2020 8:09:51 PM",
    "derived": {
      "lat": 47.662213,
      "long": -122.32292,
      "timestamp": 1579493391000,
      "description": "Aid Response",
      "entries": 1,
      "neighborhood": "Wallingford",
      "neighborhoodGroup": "Lake Union",
      "unitCount": 1,
      "severity": 0,
      "units": "E17",
      "address": "4555 5th Ave Ne"
    }
  },
  {
    "id_str": "F200006702",
    "created_at": "1/19/2020 7:55:35 PM",
    "derived": {
      "lat": 47.627266,
      "long": -122.365008,
      "timestamp": 1579492535000,
      "description": "Aid Response",
      "entries": 1,
      "neighborhood": "Queen Anne",
      "neighborhoodGroup": "Magnolia/Queen Anne",
      "unitCount": 1,
      "severity": 0,
      "units": "E8",
      "address": "600 W Olympic Pl"
    }
  },
  {
    "id_str": "F200006699",
    "created_at": "1/19/2020 7:40:40 PM",
    "derived": {
      "lat": 47.600032,
      "long": -122.331573,
      "timestamp": 1579491640000,
      "description": "Aid Response",
      "entries": 1,
      "neighborhood": "Pioneer Square/International District",
      "neighborhoodGroup": "Downtown",
      "unitCount": 1,
      "severity": 0,
      "units": "A5",
      "address": "301 2nd Av S"
    }
  },
  {
    "id_str": "F200006698",
    "created_at": "1/19/2020 7:31:52 PM",
    "derived": {
      "lat": 47.526053,
      "long": -122.360472,
      "timestamp": 1579491112000,
      "description": "Medic Response",
      "entries": 1,
      "neighborhood": "Roxhill/Westwood",
      "neighborhoodGroup": "Delridge Neighborhoods",
      "unitCount": 2,
      "severity": 0,
      "units": "E11 M32",
      "address": "8648 Delridge Way Sw"
    }
  },
  {
    "id_str": "F200006697",
    "created_at": "1/19/2020 7:30:51 PM",
    "derived": {
      "lat": 47.673813,
      "long": -122.37158,
      "timestamp": 1579491051000,
      "description": "Aid Response",
      "entries": 1,
      "neighborhood": "Whittier Heights",
      "neighborhoodGroup": "Ballard",
      "unitCount": 1,
      "severity": 0,
      "units": "E18",
      "address": "1131 Nw 62nd St"
    }
  },
  {
    "id_str": "F200006691",
    "created_at": "1/19/2020 6:59:14 PM",
    "derived": {
      "lat": 47.652454,
      "long": -122.3554,
      "timestamp": 1579489154000,
      "description": "Medic Response",
      "entries": 1,
      "neighborhood": "Fremont",
      "neighborhoodGroup": "Lake Union",
      "unitCount": 3,
      "severity": 0,
      "units": "E18 E9 M18",
      "address": "309 N 36th St"
    }
  },
  {
    "id_str": "F200006689",
    "created_at": "1/19/2020 6:51:22 PM",
    "derived": {
      "lat": 47.571853,
      "long": -122.293193,
      "timestamp": 1579488682000,
      "description": "Aid Response",
      "entries": 1,
      "neighborhood": "Columbia City",
      "neighborhoodGroup": "Southeast",
      "unitCount": 1,
      "severity": 0,
      "units": "E30",
      "address": "3501 Rainier Av S"
    }
  },
  {
    "id_str": "F200006687",
    "created_at": "1/19/2020 6:49:03 PM",
    "derived": {
      "lat": 47.698582,
      "long": -122.320352,
      "timestamp": 1579488543000,
      "description": "Activated CO Detector",
      "entries": 1,
      "neighborhood": "Northgate/Maple Leaf",
      "neighborhoodGroup": "North",
      "unitCount": 1,
      "severity": 0,
      "units": "L5",
      "address": "9601 8th Ave Ne"
    }
  },
  {
    "id_str": "F200006685",
    "created_at": "1/19/2020 6:46:48 PM",
    "derived": {
      "lat": 47.663383,
      "long": -122.313097,
      "timestamp": 1579488408000,
      "description": "Aid Response",
      "entries": 1,
      "neighborhood": "University District",
      "neighborhoodGroup": "Northeast",
      "unitCount": 1,
      "severity": 0,
      "units": "E31",
      "address": "4749 University Way Ne"
    }
  },
  {
    "id_str": "F200006684",
    "created_at": "1/19/2020 6:42:31 PM",
    "derived": {
      "lat": 47.504604,
      "long": -122.376327,
      "timestamp": 1579488151000,
      "description": "Automatic Fire Alarm Resd",
      "entries": 1,
      "neighborhood": "Arbor Heights",
      "neighborhoodGroup": "Southwest",
      "unitCount": 1,
      "severity": 0,
      "units": "E37",
      "address": "3516 Sw 110th St"
    }
  },
  {
    "id_str": "F200006683",
    "created_at": "1/19/2020 6:31:30 PM",
    "derived": {
      "lat": 47.577262,
      "long": -122.305369,
      "timestamp": 1579487490000,
      "description": "Aid Response",
      "entries": 1,
      "neighborhood": "North Beacon Hill/Jefferson Park",
      "neighborhoodGroup": "Greater Duwamish",
      "unitCount": 1,
      "severity": 0,
      "units": "E13",
      "address": "2906 21st Ave S"
    }
  },
  {
    "id_str": "F200006682",
    "created_at": "1/19/2020 6:21:18 PM",
    "derived": {
      "lat": 47.601986,
      "long": -122.32914,
      "timestamp": 1579486878000,
      "description": "Aid Response",
      "entries": 1,
      "neighborhood": "Downtown Commercial Core",
      "neighborhoodGroup": "Downtown",
      "unitCount": 1,
      "severity": 0,
      "units": "A10",
      "address": "420 4th Av"
    }
  },
  {
    "id_str": "F200006681",
    "created_at": "1/19/2020 6:20:49 PM",
    "derived": {
      "lat": 47.618412,
      "long": -122.355206,
      "timestamp": 1579486849000,
      "description": "Aid Response",
      "entries": 2,
      "neighborhood": "Belltown",
      "neighborhoodGroup": "Downtown",
      "unitCount": 2,
      "severity": 0,
      "units": "A2 A4",
      "address": "94 Bay St"
    }
  },
  {
    "id_str": "F200006678",
    "created_at": "1/19/2020 6:05:44 PM",
    "derived": {
      "lat": 47.61735,
      "long": -122.328159,
      "timestamp": 1579485944000,
      "description": "MVI Freeway",
      "entries": 1,
      "neighborhood": "Cascade/Eastlake",
      "neighborhoodGroup": "Lake Union",
      "unitCount": 3,
      "severity": 0,
      "units": "A25 E2 E25",
      "address": "Nb I5 Fr Olive"
    }
  },
  {
    "id_str": "F200006676",
    "created_at": "1/19/2020 6:03:26 PM",
    "derived": {
      "lat": 47.725059,
      "long": -122.357384,
      "timestamp": 1579485806000,
      "description": "Aid Response",
      "entries": 1,
      "neighborhood": "Broadview/Bitter Lake",
      "neighborhoodGroup": "Northwest",
      "unitCount": 1,
      "severity": 0,
      "units": "E35",
      "address": "147 N 132nd St"
    }
  },
  {
    "id_str": "F200006675",
    "created_at": "1/19/2020 6:02:50 PM",
    "derived": {
      "lat": 47.576146,
      "long": -122.296464,
      "timestamp": 1579485770000,
      "description": "Electrical Problem",
      "entries": 1,
      "neighborhood": "Mt. Baker/North Rainier",
      "neighborhoodGroup": "Southeast",
      "unitCount": 1,
      "severity": 0,
      "units": "E13",
      "address": "3111 Rainier Av S"
    }
  },
  {
    "id_str": "F200006674",
    "created_at": "1/19/2020 6:01:18 PM",
    "derived": {
      "lat": 47.711051,
      "long": -122.320618,
      "timestamp": 1579485678000,
      "description": "Aid Response",
      "entries": 1,
      "neighborhood": "Northgate/Maple Leaf",
      "neighborhoodGroup": "North",
      "unitCount": 1,
      "severity": 0,
      "units": "A31",
      "address": "11339 8th Ave Ne"
    }
  },
  {
    "id_str": "F200006673",
    "created_at": "1/19/2020 5:58:36 PM",
    "derived": {
      "lat": 47.597509,
      "long": -122.319511,
      "timestamp": 1579485516000,
      "description": "Auto Fire Alarm",
      "entries": 1,
      "neighborhood": "Pioneer Square/International District",
      "neighborhoodGroup": "Downtown",
      "unitCount": 2,
      "severity": 0,
      "units": "E10 L1",
      "address": "1011 S Weller St"
    }
  },
  {
    "id_str": "F200006670",
    "created_at": "1/19/2020 5:45:25 PM",
    "derived": {
      "lat": 47.668547,
      "long": -122.313018,
      "timestamp": 1579484725000,
      "description": "Medic Response",
      "entries": 1,
      "neighborhood": "University District",
      "neighborhoodGroup": "Northeast",
      "unitCount": 2,
      "severity": 0,
      "units": "E17 M17",
      "address": "University Way Ne / Ne 55th St"
    }
  },
  {
    "id_str": "F200006667",
    "created_at": "1/19/2020 5:41:49 PM",
    "derived": {
      "lat": 47.604841,
      "long": -122.324097,
      "timestamp": 1579484509000,
      "description": "Aid Response",
      "entries": 1,
      "neighborhood": "First Hill",
      "neighborhoodGroup": "East",
      "unitCount": 1,
      "severity": 0,
      "units": "A5",
      "address": "9th Ave / Jefferson St"
    }
  },
  {
    "id_str": "F200006666",
    "created_at": "1/19/2020 5:28:10 PM",
    "derived": {
      "lat": 47.585488,
      "long": -122.303598,
      "timestamp": 1579483690000,
      "description": "Aid Response Yellow",
      "entries": 1,
      "neighborhood": "North Beacon Hill/Jefferson Park",
      "neighborhoodGroup": "Greater Duwamish",
      "unitCount": 1,
      "severity": 0,
      "units": "E6",
      "address": "2001 Rainier Av S"
    }
  },
  {
    "id_str": "F200006665",
    "created_at": "1/19/2020 5:23:03 PM",
    "derived": {
      "lat": 47.708964,
      "long": -122.279898,
      "timestamp": 1579483383000,
      "description": "Scenes Of Violence 7",
      "entries": 2,
      "neighborhood": "Cedar Park/Meadowbrook",
      "neighborhoodGroup": "North",
      "unitCount": 6,
      "severity": 1,
      "units": "B2 B6 E39 E40 M17 M44",
      "address": "4522 Ne 110th St"
    }
  },
  {
    "id_str": "F200006664",
    "created_at": "1/19/2020 5:19:35 PM",
    "derived": {
      "lat": 47.571853,
      "long": -122.293193,
      "timestamp": 1579483175000,
      "description": "Medic Response, 7 per Rule",
      "entries": 3,
      "neighborhood": "Columbia City",
      "neighborhoodGroup": "Southeast",
      "unitCount": 3,
      "severity": 0,
      "units": "E13 E30 M28",
      "address": "3501 Rainier Av S"
    }
  },
  {
    "id_str": "F200006663",
    "created_at": "1/19/2020 5:17:16 PM",
    "derived": {
      "lat": 47.725775,
      "long": -122.334193,
      "timestamp": 1579483036000,
      "description": "Aid Response",
      "entries": 1,
      "neighborhood": "Haller Lake",
      "neighborhoodGroup": "Northwest",
      "unitCount": 1,
      "severity": 0,
      "units": "E24",
      "address": "13401 Meridian Av N"
    }
  },
  {
    "id_str": "F200006662",
    "created_at": "1/19/2020 5:16:17 PM",
    "derived": {
      "lat": 47.638695,
      "long": -122.376149,
      "timestamp": 1579482977000,
      "description": "Auto Fire Alarm",
      "entries": 1,
      "neighborhood": "Interbay",
      "neighborhoodGroup": "Magnolia/Queen Anne",
      "unitCount": 2,
      "severity": 0,
      "units": "E20 L8",
      "address": "2208 15th Av W"
    }
  },
  {
    "id_str": "F200006659",
    "created_at": "1/19/2020 5:11:39 PM",
    "derived": {
      "lat": 47.597517,
      "long": -122.327675,
      "timestamp": 1579482699000,
      "description": "Aid Response",
      "entries": 1,
      "neighborhood": "Pioneer Square/International District",
      "neighborhoodGroup": "Downtown",
      "unitCount": 1,
      "severity": 0,
      "units": "E10",
      "address": "600 5th Av S"
    }
  },
  {
    "id_str": "F200006658",
    "created_at": "1/19/2020 5:10:06 PM",
    "derived": {
      "lat": 47.545168,
      "long": -122.29689,
      "timestamp": 1579482606000,
      "description": "Aid Response Yellow",
      "entries": 1,
      "neighborhood": "South Beacon Hill/NewHolly",
      "neighborhoodGroup": "Greater Duwamish",
      "unitCount": 1,
      "severity": 0,
      "units": "E28",
      "address": "6417 28th Ave S"
    }
  },
  {
    "id_str": "F200006656",
    "created_at": "1/19/2020 5:02:20 PM",
    "derived": {
      "lat": 47.71049,
      "long": -122.326004,
      "timestamp": 1579482140000,
      "description": "Aid Response",
      "entries": 1,
      "neighborhood": "Northgate/Maple Leaf",
      "neighborhoodGroup": "North",
      "unitCount": 1,
      "severity": 0,
      "units": "A31",
      "address": "11301 3rd Av Ne"
    }
  },
  {
    "id_str": "F200006655",
    "created_at": "1/19/2020 4:56:44 PM",
    "derived": {
      "lat": 47.536141,
      "long": -122.383735,
      "timestamp": 1579481804000,
      "description": "Automatic Fire Alarm Resd",
      "entries": 1,
      "neighborhood": "Fauntleroy/Seaview",
      "neighborhoodGroup": "Southwest",
      "unitCount": 1,
      "severity": 0,
      "units": "E37",
      "address": "7342 40th Ave Sw"
    }
  },
  {
    "id_str": "F200006653",
    "created_at": "1/19/2020 4:40:15 PM",
    "derived": {
      "lat": 47.618002,
      "long": -122.329182,
      "timestamp": 1579480815000,
      "description": "Aid Response",
      "entries": 1,
      "neighborhood": "Cascade/Eastlake",
      "neighborhoodGroup": "Lake Union",
      "unitCount": 1,
      "severity": 0,
      "units": "A4",
      "address": "1811 Eastlake Av"
    }
  },
  {
    "id_str": "F200006652",
    "created_at": "1/19/2020 4:39:08 PM",
    "derived": {
      "lat": 47.607828,
      "long": -122.339105,
      "timestamp": 1579480748000,
      "description": "Automatic Medical Alarm",
      "entries": 1,
      "neighborhood": "Downtown Commercial Core",
      "neighborhoodGroup": "Downtown",
      "unitCount": 1,
      "severity": 0,
      "units": "E5",
      "address": "99 Union St"
    }
  },
  {
    "id_str": "F200006651",
    "created_at": "1/19/2020 4:31:24 PM",
    "derived": {
      "lat": 47.591901,
      "long": -122.327404,
      "timestamp": 1579480284000,
      "description": "Medic Response",
      "entries": 2,
      "neighborhood": "Duwamish/SODO",
      "neighborhoodGroup": "Greater Duwamish",
      "unitCount": 3,
      "severity": 0,
      "units": "A10 A5 M10",
      "address": "1256 5TH AVE S"
    }
  },
  {
    "id_str": "F200006650",
    "created_at": "1/19/2020 4:16:11 PM",
    "derived": {
      "lat": 47.607945,
      "long": -122.328471,
      "timestamp": 1579479371000,
      "description": "Aid Response",
      "entries": 1,
      "neighborhood": "First Hill",
      "neighborhoodGroup": "East",
      "unitCount": 3,
      "severity": 0,
      "units": "A10 E10 M10",
      "address": "8th Ave / Madison St"
    }
  },
  {
    "id_str": "F200006648",
    "created_at": "1/19/2020 4:04:16 PM",
    "derived": {
      "lat": 47.643651,
      "long": -122.416783,
      "timestamp": 1579478656000,
      "description": "Aid Response",
      "entries": 1,
      "neighborhood": "Magnolia",
      "neighborhoodGroup": "Magnolia/Queen Anne",
      "unitCount": 1,
      "severity": 0,
      "units": "E41",
      "address": "2647 Perkins Ln W"
    }
  },
  {
    "id_str": "F200006647",
    "created_at": "1/19/2020 4:01:51 PM",
    "derived": {
      "lat": 47.603517,
      "long": -122.318076,
      "timestamp": 1579478511000,
      "description": "Aid Response Yellow",
      "entries": 1,
      "neighborhood": "First Hill",
      "neighborhoodGroup": "East",
      "unitCount": 1,
      "severity": 0,
      "units": "A25",
      "address": "1102 E Spruce St"
    }
  },
  {
    "id_str": "F200006646",
    "created_at": "1/19/2020 4:01:07 PM",
    "derived": {
      "lat": 47.609372,
      "long": -122.329777,
      "timestamp": 1579478467000,
      "description": "Rescue Elevator",
      "entries": 1,
      "neighborhood": "First Hill",
      "neighborhoodGroup": "East",
      "unitCount": 1,
      "severity": 0,
      "units": "L1",
      "address": "800 Seneca St"
    }
  },
  {
    "id_str": "F200006645",
    "created_at": "1/19/2020 4:00:17 PM",
    "derived": {
      "lat": 47.571499,
      "long": -122.290999,
      "timestamp": 1579478417000,
      "description": "Aid Response Yellow",
      "entries": 1,
      "neighborhood": "Columbia City",
      "neighborhoodGroup": "Southeast",
      "unitCount": 1,
      "severity": 0,
      "units": "E13",
      "address": "3610 33rd Av S"
    }
  }
]