[
  {
    "id_str": "F200009515",
    "created_at": "1/27/2020 3:56:53 PM",
    "derived": {
      "lat": 47.600036,
      "long": -122.328965,
      "timestamp": 1580169413000,
      "description": "Aid Response",
      "entries": 1,
      "neighborhood": "Pioneer Square/International District",
      "neighborhoodGroup": "Downtown",
      "unitCount": 1,
      "severity": 0,
      "units": "E10",
      "address": "4th Ave S / S Main St"
    }
  },
  {
    "id_str": "F200009513",
    "created_at": "1/27/2020 3:54:22 PM",
    "derived": {
      "lat": 47.599197,
      "long": -122.328955,
      "timestamp": 1580169262000,
      "description": "Aid Response",
      "entries": 1,
      "neighborhood": "Pioneer Square/International District",
      "neighborhoodGroup": "Downtown",
      "unitCount": 1,
      "severity": 0,
      "units": "E6",
      "address": "401 S Jackson St"
    }
  },
  {
    "id_str": "F200009512",
    "created_at": "1/27/2020 3:49:32 PM",
    "derived": {
      "lat": 47.618693,
      "long": -122.334256,
      "timestamp": 1580168972000,
      "description": "Aid Response",
      "entries": 1,
      "neighborhood": "Cascade/Eastlake",
      "neighborhoodGroup": "Lake Union",
      "unitCount": 1,
      "severity": 0,
      "units": "A2",
      "address": "116 Fairview Av N"
    }
  },
  {
    "id_str": "F200009511",
    "created_at": "1/27/2020 3:49:25 PM",
    "derived": {
      "lat": 47.618497,
      "long": -122.327854,
      "timestamp": 1580168965000,
      "description": "Aid Response",
      "entries": 1,
      "neighborhood": "Capitol Hill",
      "neighborhoodGroup": "East",
      "unitCount": 1,
      "severity": 0,
      "units": "A4",
      "address": "100 Melrose Av E"
    }
  },
  {
    "id_str": "F200009510",
    "created_at": "1/27/2020 3:46:19 PM",
    "derived": {
      "lat": 47.538907,
      "long": -122.270726,
      "timestamp": 1580168779000,
      "description": "MVI - Motor Vehicle Incident",
      "entries": 2,
      "neighborhood": "Seward Park",
      "neighborhoodGroup": "Southeast",
      "unitCount": 2,
      "severity": 0,
      "units": "E30 E33",
      "address": "S Myrtle St / Rainier Ave S"
    }
  },
  {
    "id_str": "F200009509",
    "created_at": "1/27/2020 3:39:47 PM",
    "derived": {
      "lat": 47.556785,
      "long": -122.286143,
      "timestamp": 1580168387000,
      "description": "Medic Response",
      "entries": 1,
      "neighborhood": "Columbia City",
      "neighborhoodGroup": "Southeast",
      "unitCount": 2,
      "severity": 0,
      "units": "L12 M28",
      "address": "5033 37th Av S"
    }
  },
  {
    "id_str": "F200009508",
    "created_at": "1/27/2020 3:39:09 PM",
    "derived": {
      "lat": 47.599198,
      "long": -122.329679,
      "timestamp": 1580168349000,
      "description": "MVI - Motor Vehicle Incident",
      "entries": 3,
      "neighborhood": "Pioneer Square/International District",
      "neighborhoodGroup": "Downtown",
      "unitCount": 2,
      "severity": 0,
      "units": "A5 E10",
      "address": "S JACKSON ST / 2ND AVE ET S"
    }
  },
  {
    "id_str": "F200009505",
    "created_at": "1/27/2020 3:22:45 PM",
    "derived": {
      "lat": 47.542476,
      "long": -122.272808,
      "timestamp": 1580167365000,
      "description": "Car Fire",
      "entries": 1,
      "neighborhood": "Seward Park",
      "neighborhoodGroup": "Southeast",
      "unitCount": 1,
      "severity": 0,
      "units": "E33",
      "address": "Rainier Ave S / S Holly St"
    }
  },
  {
    "id_str": "F200009504",
    "created_at": "1/27/2020 3:21:52 PM",
    "derived": {
      "lat": 47.625849,
      "long": -122.360866,
      "timestamp": 1580167312000,
      "description": "Aid Response",
      "entries": 1,
      "neighborhood": "Queen Anne",
      "neighborhoodGroup": "Magnolia/Queen Anne",
      "unitCount": 1,
      "severity": 0,
      "units": "E8",
      "address": "320 W Roy St"
    }
  },
  {
    "id_str": "F200009503",
    "created_at": "1/27/2020 3:11:15 PM",
    "derived": {
      "lat": 47.65246,
      "long": -122.403599,
      "timestamp": 1580166675000,
      "description": "Aid Response",
      "entries": 1,
      "neighborhood": "Magnolia",
      "neighborhoodGroup": "Magnolia/Queen Anne",
      "unitCount": 1,
      "severity": 0,
      "units": "E41",
      "address": "3625 36th Ave W"
    }
  },
  {
    "id_str": "F200009502",
    "created_at": "1/27/2020 3:03:00 PM",
    "derived": {
      "lat": 47.60975,
      "long": -122.337793,
      "timestamp": 1580166180000,
      "description": "Aid Response",
      "entries": 1,
      "neighborhood": "Downtown Commercial Core",
      "neighborhoodGroup": "Downtown",
      "unitCount": 1,
      "severity": 0,
      "units": "A4",
      "address": "3rd Ave / Pike St"
    }
  },
  {
    "id_str": "F200009499",
    "created_at": "1/27/2020 2:51:34 PM",
    "derived": {
      "lat": 47.683343,
      "long": -122.37544,
      "timestamp": 1580165494000,
      "description": "Aid Response",
      "entries": 1,
      "neighborhood": "Whittier Heights",
      "neighborhoodGroup": "Ballard",
      "unitCount": 1,
      "severity": 0,
      "units": "E21",
      "address": "7512 Mary Ave Nw"
    }
  },
  {
    "id_str": "F200009500",
    "created_at": "1/27/2020 2:51:29 PM",
    "derived": {
      "lat": 47.732442,
      "long": -122.351754,
      "timestamp": 1580165489000,
      "description": "Medic Response",
      "entries": 4,
      "neighborhood": "Broadview/Bitter Lake",
      "neighborhoodGroup": "Northwest",
      "unitCount": 4,
      "severity": 0,
      "units": "A31 L6 M18 M31",
      "address": "14315 Evanston Ave N"
    }
  },
  {
    "id_str": "F200009498",
    "created_at": "1/27/2020 2:49:55 PM",
    "derived": {
      "lat": 47.665073,
      "long": -122.317402,
      "timestamp": 1580165395000,
      "description": "Aid Response",
      "entries": 1,
      "neighborhood": "University District",
      "neighborhoodGroup": "Northeast",
      "unitCount": 1,
      "severity": 0,
      "units": "E16",
      "address": "5019 Roosevelt Way Ne"
    }
  },
  {
    "id_str": "F200009497",
    "created_at": "1/27/2020 2:48:16 PM",
    "derived": {
      "lat": 47.601702,
      "long": -122.322098,
      "timestamp": 1580165296000,
      "description": "Aid Response",
      "entries": 1,
      "neighborhood": "First Hill",
      "neighborhoodGroup": "East",
      "unitCount": 1,
      "severity": 0,
      "units": "E6",
      "address": "820 Yesler Way"
    }
  },
  {
    "id_str": "F200009496",
    "created_at": "1/27/2020 2:45:23 PM",
    "derived": {
      "lat": 47.606181,
      "long": -122.311554,
      "timestamp": 1580165123000,
      "description": "Aid Response",
      "entries": 2,
      "neighborhood": "Central Area/Squire Park",
      "neighborhoodGroup": "Central",
      "unitCount": 2,
      "severity": 0,
      "units": "A2 L3",
      "address": "1600 E Jefferson St"
    }
  },
  {
    "id_str": "F200009495",
    "created_at": "1/27/2020 2:39:10 PM",
    "derived": {
      "lat": 47.662432,
      "long": -122.305466,
      "timestamp": 1580164750000,
      "description": "Auto Fire Alarm",
      "entries": 1,
      "neighborhood": "Ravenna/Bryant",
      "neighborhoodGroup": "Northeast",
      "unitCount": 2,
      "severity": 0,
      "units": "E31 L9",
      "address": "4629 21st Av Ne"
    }
  },
  {
    "id_str": "F200009494",
    "created_at": "1/27/2020 2:36:45 PM",
    "derived": {
      "lat": 47.599201,
      "long": -122.331566,
      "timestamp": 1580164605000,
      "description": "Aid Response",
      "entries": 1,
      "neighborhood": "Duwamish/SODO",
      "neighborhoodGroup": "Greater Duwamish",
      "unitCount": 1,
      "severity": 0,
      "units": "E10",
      "address": "201 S Jackson St"
    }
  },
  {
    "id_str": "F200009492",
    "created_at": "1/27/2020 2:31:09 PM",
    "derived": {
      "lat": 47.592217,
      "long": -122.327397,
      "timestamp": 1580164269000,
      "description": "Medic Response",
      "entries": 2,
      "neighborhood": "Duwamish/SODO",
      "neighborhoodGroup": "Greater Duwamish",
      "unitCount": 2,
      "severity": 0,
      "units": "A5 M1",
      "address": "1221 5TH AVE S"
    }
  },
  {
    "id_str": "F200009491",
    "created_at": "1/27/2020 2:26:45 PM",
    "derived": {
      "lat": 47.649764,
      "long": -122.357657,
      "timestamp": 1580164005000,
      "description": "Medic Response",
      "entries": 2,
      "neighborhood": "Queen Anne",
      "neighborhoodGroup": "Magnolia/Queen Anne",
      "unitCount": 2,
      "severity": 0,
      "units": "E9 M10",
      "address": "4 Nickerson St"
    }
  },
  {
    "id_str": "F200009488",
    "created_at": "1/27/2020 2:22:58 PM",
    "derived": {
      "lat": 47.716846,
      "long": -122.34489,
      "timestamp": 1580163778000,
      "description": "Aid Response",
      "entries": 1,
      "neighborhood": "Broadview/Bitter Lake",
      "neighborhoodGroup": "Northwest",
      "unitCount": 1,
      "severity": 0,
      "units": "E35",
      "address": "12045 Aurora Av N"
    }
  },
  {
    "id_str": "F200009487",
    "created_at": "1/27/2020 2:20:43 PM",
    "derived": {
      "lat": 47.66789,
      "long": -122.373589,
      "timestamp": 1580163643000,
      "description": "Scenes Of Violence Aid",
      "entries": 2,
      "neighborhood": "Ballard",
      "neighborhoodGroup": "Ballard",
      "unitCount": 2,
      "severity": 0,
      "units": "B4 E18",
      "address": "14TH AVE NW / NW 54TH ST"
    }
  },
  {
    "id_str": "F200009486",
    "created_at": "1/27/2020 2:19:41 PM",
    "derived": {
      "lat": 47.611553,
      "long": -122.311479,
      "timestamp": 1580163581000,
      "description": "Medic Response",
      "entries": 3,
      "neighborhood": "Central Area/Squire Park",
      "neighborhoodGroup": "Central",
      "unitCount": 3,
      "severity": 0,
      "units": "E13 M28 M44",
      "address": "1103 16th Av"
    }
  },
  {
    "id_str": "F200009485",
    "created_at": "1/27/2020 2:16:12 PM",
    "derived": {
      "lat": 47.656732,
      "long": -122.304799,
      "timestamp": 1580163372000,
      "description": "Aid Response",
      "entries": 1,
      "neighborhood": "University District",
      "neighborhoodGroup": "Northeast",
      "unitCount": 1,
      "severity": 0,
      "units": "E17",
      "address": "4060 East Stevens Way Ne"
    }
  },
  {
    "id_str": "F200009484",
    "created_at": "1/27/2020 2:15:16 PM",
    "derived": {
      "lat": 47.723223,
      "long": -122.351366,
      "timestamp": 1580163316000,
      "description": "Aid Response Yellow",
      "entries": 1,
      "neighborhood": "Broadview/Bitter Lake",
      "neighborhoodGroup": "Northwest",
      "unitCount": 1,
      "severity": 0,
      "units": "A31",
      "address": "620 N 130th St"
    }
  },
  {
    "id_str": "F200009483",
    "created_at": "1/27/2020 2:14:44 PM",
    "derived": {
      "lat": 47.586118,
      "long": -122.329062,
      "timestamp": 1580163284000,
      "description": "Aid Response",
      "entries": 1,
      "neighborhood": "Duwamish/SODO",
      "neighborhoodGroup": "Greater Duwamish",
      "unitCount": 1,
      "severity": 0,
      "units": "E10",
      "address": "1907 4th Av S"
    }
  },
  {
    "id_str": "F200009482",
    "created_at": "1/27/2020 2:13:26 PM",
    "derived": {
      "lat": 47.575931,
      "long": -122.293981,
      "timestamp": 1580163206000,
      "description": "Medic Response",
      "entries": 3,
      "neighborhood": "Mt. Baker/North Rainier",
      "neighborhoodGroup": "Southeast",
      "unitCount": 3,
      "severity": 0,
      "units": "E30 M32 M44",
      "address": "3013 S Mount Baker Blvd"
    }
  },
  {
    "id_str": "F200009481",
    "created_at": "1/27/2020 2:12:02 PM",
    "derived": {
      "lat": 47.674108,
      "long": -122.286919,
      "timestamp": 1580163122000,
      "description": "Aid Response",
      "entries": 1,
      "neighborhood": "Ravenna/Bryant",
      "neighborhoodGroup": "Northeast",
      "unitCount": 1,
      "severity": 0,
      "units": "E40",
      "address": "6223 38th Ave Ne"
    }
  },
  {
    "id_str": "F200009480",
    "created_at": "1/27/2020 2:10:31 PM",
    "derived": {
      "lat": 47.654993,
      "long": -122.30233,
      "timestamp": 1580163031000,
      "description": "MVI - Motor Vehicle Incident",
      "entries": 1,
      "neighborhood": "University District",
      "neighborhoodGroup": "Northeast",
      "unitCount": 1,
      "severity": 0,
      "units": "E38",
      "address": "Montlake Blvd Ne / Ne Wahkiakum Ln"
    }
  },
  {
    "id_str": "F200009478",
    "created_at": "1/27/2020 2:06:28 PM",
    "derived": {
      "lat": 47.712787,
      "long": -122.342132,
      "timestamp": 1580162788000,
      "description": "Automatic Fire Alarm False",
      "entries": 1,
      "neighborhood": "Haller Lake",
      "neighborhoodGroup": "Northwest",
      "unitCount": 1,
      "severity": 0,
      "units": "E24",
      "address": "11544 Stone Av N"
    }
  },
  {
    "id_str": "F200009477",
    "created_at": "1/27/2020 2:06:08 PM",
    "derived": {
      "lat": 47.615384,
      "long": -122.347925,
      "timestamp": 1580162768000,
      "description": "Medic Response",
      "entries": 1,
      "neighborhood": "Belltown",
      "neighborhoodGroup": "Downtown",
      "unitCount": 2,
      "severity": 0,
      "units": "E2 M17",
      "address": "2505 2nd Av"
    }
  },
  {
    "id_str": "F200009473",
    "created_at": "1/27/2020 1:57:42 PM",
    "derived": {
      "lat": 47.602165,
      "long": -122.330856,
      "timestamp": 1580162262000,
      "description": "Medic Response",
      "entries": 4,
      "neighborhood": "Downtown Commercial Core",
      "neighborhoodGroup": "Downtown",
      "unitCount": 4,
      "severity": 0,
      "units": "A2 B2 E2 M17",
      "address": "516 3rd Av"
    }
  },
  {
    "id_str": "F200009472",
    "created_at": "1/27/2020 1:52:50 PM",
    "derived": {
      "lat": 47.669459,
      "long": -122.311887,
      "timestamp": 1580161970000,
      "description": "Aid Response",
      "entries": 1,
      "neighborhood": "University District",
      "neighborhoodGroup": "Northeast",
      "unitCount": 1,
      "severity": 0,
      "units": "E17",
      "address": "5602 15th Av Ne"
    }
  },
  {
    "id_str": "F200009470",
    "created_at": "1/27/2020 1:52:19 PM",
    "derived": {
      "lat": 47.603588,
      "long": -122.322949,
      "timestamp": 1580161939000,
      "description": "Medic Response",
      "entries": 2,
      "neighborhood": "First Hill",
      "neighborhoodGroup": "East",
      "unitCount": 3,
      "severity": 0,
      "units": "A4 E2 M31",
      "address": "325 9th Av"
    }
  },
  {
    "id_str": "F200009468",
    "created_at": "1/27/2020 1:49:38 PM",
    "derived": {
      "lat": 47.581214,
      "long": -122.391903,
      "timestamp": 1580161778000,
      "description": "Medic Response",
      "entries": 2,
      "neighborhood": "West Seattle Junction/Genesee Hill",
      "neighborhoodGroup": "Southwest",
      "unitCount": 2,
      "severity": 0,
      "units": "E29 M28",
      "address": "4700 Sw Admiral Way"
    }
  },
  {
    "id_str": "F200009469",
    "created_at": "1/27/2020 1:49:02 PM",
    "derived": {
      "lat": 47.57922,
      "long": -122.298814,
      "timestamp": 1580161742000,
      "description": "1RED 1 Unit",
      "entries": 1,
      "neighborhood": "Mt. Baker/North Rainier",
      "neighborhoodGroup": "Southeast",
      "unitCount": 1,
      "severity": 0,
      "units": "L12",
      "address": "2700 Rainier Av S"
    }
  },
  {
    "id_str": "F200009467",
    "created_at": "1/27/2020 1:46:31 PM",
    "derived": {
      "lat": 47.588226,
      "long": -122.32597,
      "timestamp": 1580161591000,
      "description": "Aid Response",
      "entries": 1,
      "neighborhood": "Duwamish/SODO",
      "neighborhoodGroup": "Greater Duwamish",
      "unitCount": 1,
      "severity": 0,
      "units": "E30",
      "address": "6th Ave S / S Massachusetts St"
    }
  },
  {
    "id_str": "F200009466",
    "created_at": "1/27/2020 1:43:36 PM",
    "derived": {
      "lat": 47.607742,
      "long": -122.326595,
      "timestamp": 1580161416000,
      "description": "Medic Response",
      "entries": 1,
      "neighborhood": "First Hill",
      "neighborhoodGroup": "East",
      "unitCount": 2,
      "severity": 0,
      "units": "E13 M28",
      "address": "910 Marion St"
    }
  },
  {
    "id_str": "F200009465",
    "created_at": "1/27/2020 1:42:55 PM",
    "derived": {
      "lat": 47.621983,
      "long": -122.326585,
      "timestamp": 1580161375000,
      "description": "Aid Response",
      "entries": 1,
      "neighborhood": "Capitol Hill",
      "neighborhoodGroup": "East",
      "unitCount": 1,
      "severity": 0,
      "units": "E34",
      "address": "Bellevue Ave E / E Harrison St"
    }
  },
  {
    "id_str": "F200009464",
    "created_at": "1/27/2020 1:40:56 PM",
    "derived": {
      "lat": 47.617237,
      "long": -122.335195,
      "timestamp": 1580161256000,
      "description": "Auto Fire Alarm",
      "entries": 1,
      "neighborhood": "Cascade/Eastlake",
      "neighborhoodGroup": "Lake Union",
      "unitCount": 2,
      "severity": 0,
      "units": "E22 L3",
      "address": "2025 Terry Ave"
    }
  },
  {
    "id_str": "F200009462",
    "created_at": "1/27/2020 1:37:48 PM",
    "derived": {
      "lat": 47.608008,
      "long": -122.302467,
      "timestamp": 1580161068000,
      "description": "Aid Response",
      "entries": 2,
      "neighborhood": "Central Area/Squire Park",
      "neighborhoodGroup": "Central",
      "unitCount": 2,
      "severity": 0,
      "units": "B5 E6",
      "address": "2323 E Cherry St"
    }
  },
  {
    "id_str": "F200009461",
    "created_at": "1/27/2020 1:37:37 PM",
    "derived": {
      "lat": 47.678831,
      "long": -122.324639,
      "timestamp": 1580161057000,
      "description": "Natural Gas Odor",
      "entries": 1,
      "neighborhood": "Green Lake",
      "neighborhoodGroup": "Northwest",
      "unitCount": 1,
      "severity": 0,
      "units": "L9",
      "address": "414 Ne Ravenna Blvd"
    }
  },
  {
    "id_str": "F200009459",
    "created_at": "1/27/2020 1:36:15 PM",
    "derived": {
      "lat": 47.691044,
      "long": -122.378957,
      "timestamp": 1580160975000,
      "description": "Activated CO Detector",
      "entries": 1,
      "neighborhood": "North Beach/Blue Ridge",
      "neighborhoodGroup": "Ballard",
      "unitCount": 1,
      "severity": 0,
      "units": "L4",
      "address": "8549 17th Ave Nw"
    }
  },
  {
    "id_str": "F200009460",
    "created_at": "1/27/2020 1:35:34 PM",
    "derived": {
      "lat": 47.600843,
      "long": -122.330271,
      "timestamp": 1580160934000,
      "description": "Aid Response",
      "entries": 1,
      "neighborhood": "Pioneer Square/International District",
      "neighborhoodGroup": "Downtown",
      "unitCount": 1,
      "severity": 0,
      "units": "A10",
      "address": "204 3rd Av S"
    }
  },
  {
    "id_str": "F200009458",
    "created_at": "1/27/2020 1:32:28 PM",
    "derived": {
      "lat": 47.607299,
      "long": -122.337087,
      "timestamp": 1580160748000,
      "description": "Medic Response, 7 per Rule",
      "entries": 4,
      "neighborhood": "Downtown Commercial Core",
      "neighborhoodGroup": "Downtown",
      "unitCount": 5,
      "severity": 1,
      "units": "A5 E2 E5 L1 M1",
      "address": "1301 2ND AVE"
    }
  },
  {
    "id_str": "F200009457",
    "created_at": "1/27/2020 1:30:08 PM",
    "derived": {
      "lat": 47.544084,
      "long": -122.326157,
      "timestamp": 1580160608000,
      "description": "Car Fire",
      "entries": 1,
      "neighborhood": "Georgetown",
      "neighborhoodGroup": "Greater Duwamish",
      "unitCount": 1,
      "severity": 0,
      "units": "E27",
      "address": "6th Ave S / S River St"
    }
  },
  {
    "id_str": "F200009456",
    "created_at": "1/27/2020 1:28:54 PM",
    "derived": {
      "lat": 47.601718,
      "long": -122.331581,
      "timestamp": 1580160534000,
      "description": "Aid Response",
      "entries": 1,
      "neighborhood": "Downtown Commercial Core",
      "neighborhoodGroup": "Downtown",
      "unitCount": 1,
      "severity": 0,
      "units": "E2",
      "address": "223 Yesler Way"
    }
  },
  {
    "id_str": "F200009453",
    "created_at": "1/27/2020 1:21:19 PM",
    "derived": {
      "lat": 47.526055,
      "long": -122.387563,
      "timestamp": 1580160079000,
      "description": "Medic Response",
      "entries": 1,
      "neighborhood": "Fauntleroy/Seaview",
      "neighborhoodGroup": "Southwest",
      "unitCount": 2,
      "severity": 0,
      "units": "E37 M32",
      "address": "4303 Sw Donovan St"
    }
  },
  {
    "id_str": "F200009454",
    "created_at": "1/27/2020 1:21:19 PM",
    "derived": {
      "lat": 47.663693,
      "long": -122.397019,
      "timestamp": 1580160079000,
      "description": "Aid Response Yellow",
      "entries": 1,
      "neighborhood": "Magnolia",
      "neighborhoodGroup": "Magnolia/Queen Anne",
      "unitCount": 1,
      "severity": 0,
      "units": "E20",
      "address": "3119 W Commodore Way"
    }
  },
  {
    "id_str": "F200009450",
    "created_at": "1/27/2020 1:19:23 PM",
    "derived": {
      "lat": 47.627134,
      "long": -122.34102,
      "timestamp": 1580159963000,
      "description": "Aid Response",
      "entries": 1,
      "neighborhood": "Queen Anne",
      "neighborhoodGroup": "Magnolia/Queen Anne",
      "unitCount": 1,
      "severity": 0,
      "units": "A2",
      "address": "800 Aloha St"
    }
  },
  {
    "id_str": "F200009449",
    "created_at": "1/27/2020 1:18:15 PM",
    "derived": {
      "lat": 47.70507,
      "long": -122.323173,
      "timestamp": 1580159895000,
      "description": "Medic Response",
      "entries": 2,
      "neighborhood": "Northgate/Maple Leaf",
      "neighborhoodGroup": "North",
      "unitCount": 2,
      "severity": 0,
      "units": "E16 M18",
      "address": "10510 5th Av Ne"
    }
  },
  {
    "id_str": "F200009448",
    "created_at": "1/27/2020 1:17:26 PM",
    "derived": {
      "lat": 47.714427,
      "long": -122.350237,
      "timestamp": 1580159846000,
      "description": "Aid Response",
      "entries": 1,
      "neighborhood": "Broadview/Bitter Lake",
      "neighborhoodGroup": "Northwest",
      "unitCount": 1,
      "severity": 0,
      "units": "A31",
      "address": "11747 Fremont Ave N"
    }
  },
  {
    "id_str": "F200009444",
    "created_at": "1/27/2020 1:11:14 PM",
    "derived": {
      "lat": 47.626215,
      "long": -122.329199,
      "timestamp": 1580159474000,
      "description": "Medic Response",
      "entries": 3,
      "neighborhood": "Cascade/Eastlake",
      "neighborhoodGroup": "Lake Union",
      "unitCount": 3,
      "severity": 0,
      "units": "A4 M10 M31",
      "address": "825 Eastlake Av E"
    }
  },
  {
    "id_str": "F200009441",
    "created_at": "1/27/2020 1:07:04 PM",
    "derived": {
      "lat": 47.560888,
      "long": -122.29606,
      "timestamp": 1580159224000,
      "description": "Aid Response",
      "entries": 1,
      "neighborhood": "Beacon Hill",
      "neighborhoodGroup": "Greater Duwamish",
      "unitCount": 1,
      "severity": 0,
      "units": "E13",
      "address": "2816 S Alaska Pl"
    }
  },
  {
    "id_str": "F200009440",
    "created_at": "1/27/2020 1:06:04 PM",
    "derived": {
      "lat": 47.52331,
      "long": -122.272834,
      "timestamp": 1580159164000,
      "description": "Medic Response",
      "entries": 1,
      "neighborhood": "Rainier Beach",
      "neighborhoodGroup": "Southeast",
      "unitCount": 2,
      "severity": 0,
      "units": "E26 M28",
      "address": "4800 S Henderson St"
    }
  },
  {
    "id_str": "F200009439",
    "created_at": "1/27/2020 1:02:07 PM",
    "derived": {
      "lat": 47.608268,
      "long": -122.330056,
      "timestamp": 1580158927000,
      "description": "Aid Response",
      "entries": 1,
      "neighborhood": "First Hill",
      "neighborhoodGroup": "East",
      "unitCount": 1,
      "severity": 0,
      "units": "A5",
      "address": "715 Spring St"
    }
  },
  {
    "id_str": "F200009438",
    "created_at": "1/27/2020 12:51:06 PM",
    "derived": {
      "lat": 47.531197,
      "long": -122.37723,
      "timestamp": 1580158266000,
      "description": "Aid Response Yellow",
      "entries": 1,
      "neighborhood": "Roxhill/Westwood",
      "neighborhoodGroup": "Delridge Neighborhoods",
      "unitCount": 1,
      "severity": 0,
      "units": "E37",
      "address": "3545 Sw Monroe St"
    }
  },
  {
    "id_str": "F200009437",
    "created_at": "1/27/2020 12:50:49 PM",
    "derived": {
      "lat": 47.611857,
      "long": -122.339977,
      "timestamp": 1580158249000,
      "description": "Auto Fire Alarm",
      "entries": 1,
      "neighborhood": "Cascade/Eastlake",
      "neighborhoodGroup": "Lake Union",
      "unitCount": 2,
      "severity": 0,
      "units": "E2 L6",
      "address": "1930 3rd Av"
    }
  },
  {
    "id_str": "F200009436",
    "created_at": "1/27/2020 12:47:48 PM",
    "derived": {
      "lat": 47.671645,
      "long": -122.387806,
      "timestamp": 1580158068000,
      "description": "Aid Response Yellow",
      "entries": 1,
      "neighborhood": "Sunset Hill/Loyal Heights",
      "neighborhoodGroup": "Ballard",
      "unitCount": 1,
      "severity": 0,
      "units": "L4",
      "address": "2418 Nw 59th St"
    }
  },
  {
    "id_str": "F200009435",
    "created_at": "1/27/2020 12:44:29 PM",
    "derived": {
      "lat": 47.608276,
      "long": -122.308929,
      "timestamp": 1580157869000,
      "description": "Alarm Bell",
      "entries": 1,
      "neighborhood": "Central Area/Squire Park",
      "neighborhoodGroup": "Central",
      "unitCount": 2,
      "severity": 0,
      "units": "E25 L10",
      "address": "722 18th Av"
    }
  },
  {
    "id_str": "F200009434",
    "created_at": "1/27/2020 12:41:03 PM",
    "derived": {
      "lat": 47.673811,
      "long": -122.272777,
      "timestamp": 1580157663000,
      "description": "Medic Response",
      "entries": 1,
      "neighborhood": "Ravenna/Bryant",
      "neighborhoodGroup": "Northeast",
      "unitCount": 2,
      "severity": 0,
      "units": "E40 M17",
      "address": "6238 51st Ave Ne"
    }
  },
  {
    "id_str": "F200009432",
    "created_at": "1/27/2020 12:37:19 PM",
    "derived": {
      "lat": 47.689133,
      "long": -122.341819,
      "timestamp": 1580157439000,
      "description": "Automatic Fire Alarm Resd",
      "entries": 1,
      "neighborhood": "Green Lake",
      "neighborhoodGroup": "Northwest",
      "unitCount": 1,
      "severity": 0,
      "units": "E21",
      "address": "8306 Stone Ave N"
    }
  },
  {
    "id_str": "F200009430",
    "created_at": "1/27/2020 12:34:09 PM",
    "derived": {
      "lat": 47.725053,
      "long": -122.355551,
      "timestamp": 1580157249000,
      "description": "Aid Response",
      "entries": 1,
      "neighborhood": "Broadview/Bitter Lake",
      "neighborhoodGroup": "Northwest",
      "unitCount": 1,
      "severity": 0,
      "units": "A31",
      "address": "13202 Greenwood Av N"
    }
  },
  {
    "id_str": "F200009431",
    "created_at": "1/27/2020 12:33:56 PM",
    "derived": {
      "lat": 47.667115,
      "long": -122.303015,
      "timestamp": 1580157236000,
      "description": "Aid Response",
      "entries": 1,
      "neighborhood": "Ravenna/Bryant",
      "neighborhoodGroup": "Northeast",
      "unitCount": 1,
      "severity": 0,
      "units": "E38",
      "address": "2253 Ne 53rd St"
    }
  },
  {
    "id_str": "F200009427",
    "created_at": "1/27/2020 12:31:40 PM",
    "derived": {
      "lat": 47.547616,
      "long": -122.31867,
      "timestamp": 1580157100000,
      "description": "Medic Response",
      "entries": 1,
      "neighborhood": "Georgetown",
      "neighborhoodGroup": "Greater Duwamish",
      "unitCount": 2,
      "severity": 0,
      "units": "E27 M28",
      "address": "1121 S Bailey St"
    }
  },
  {
    "id_str": "F200009426",
    "created_at": "1/27/2020 12:21:56 PM",
    "derived": {
      "lat": 47.611993,
      "long": -122.321427,
      "timestamp": 1580156516000,
      "description": "Aid Response",
      "entries": 1,
      "neighborhood": "Capitol Hill",
      "neighborhoodGroup": "East",
      "unitCount": 1,
      "severity": 0,
      "units": "A25",
      "address": "1111 Harvard Av"
    }
  },
  {
    "id_str": "F200009425",
    "created_at": "1/27/2020 12:19:59 PM",
    "derived": {
      "lat": 47.672148,
      "long": -122.28392,
      "timestamp": 1580156399000,
      "description": "Aid Response",
      "entries": 1,
      "neighborhood": "Ravenna/Bryant",
      "neighborhoodGroup": "Northeast",
      "unitCount": 1,
      "severity": 0,
      "units": "E38",
      "address": "4105 Ne 60th St"
    }
  },
  {
    "id_str": "F200009424",
    "created_at": "1/27/2020 12:05:17 PM",
    "derived": {
      "lat": 47.675116,
      "long": -122.315658,
      "timestamp": 1580155517000,
      "description": "Aid Response",
      "entries": 1,
      "neighborhood": "University District",
      "neighborhoodGroup": "Northeast",
      "unitCount": 1,
      "severity": 0,
      "units": "L9",
      "address": "6417 12TH AV NE"
    }
  },
  {
    "id_str": "F200009423",
    "created_at": "1/27/2020 11:58:20 AM",
    "derived": {
      "lat": 47.620815,
      "long": -122.332585,
      "timestamp": 1580155100000,
      "description": "Aid Response",
      "entries": 2,
      "neighborhood": "Cascade/Eastlake",
      "neighborhoodGroup": "Lake Union",
      "unitCount": 2,
      "severity": 0,
      "units": "A4 HEALTH1",
      "address": "1215 Thomas St"
    }
  },
  {
    "id_str": "F200009422",
    "created_at": "1/27/2020 11:56:45 AM",
    "derived": {
      "lat": 47.673822,
      "long": -122.378882,
      "timestamp": 1580155005000,
      "description": "Aid Response",
      "entries": 1,
      "neighborhood": "Whittier Heights",
      "neighborhoodGroup": "Ballard",
      "unitCount": 1,
      "severity": 0,
      "units": "E18",
      "address": "17th Ave Nw / Nw 62nd St"
    }
  },
  {
    "id_str": "F200009421",
    "created_at": "1/27/2020 11:55:25 AM",
    "derived": {
      "lat": 47.536395,
      "long": -122.347089,
      "timestamp": 1580154925000,
      "description": "Investigate Out Of Service",
      "entries": 1,
      "neighborhood": "Highland Park",
      "neighborhoodGroup": "Delridge Neighborhoods",
      "unitCount": 1,
      "severity": 0,
      "units": "E11",
      "address": "Highland Park Way Sw / Sw Othello St"
    }
  },
  {
    "id_str": "F200009420",
    "created_at": "1/27/2020 11:55:07 AM",
    "derived": {
      "lat": 47.689835,
      "long": -122.36115,
      "timestamp": 1580154907000,
      "description": "Medic Response",
      "entries": 1,
      "neighborhood": "Greenwood/Phinney Ridge",
      "neighborhoodGroup": "Northwest",
      "unitCount": 2,
      "severity": 0,
      "units": "A31 M18",
      "address": "357 Nw 84th St"
    }
  },
  {
    "id_str": "F200009418",
    "created_at": "1/27/2020 11:44:56 AM",
    "derived": {
      "lat": 47.604377,
      "long": -122.325207,
      "timestamp": 1580154296000,
      "description": "Rescue Elevator",
      "entries": 1,
      "neighborhood": "First Hill",
      "neighborhoodGroup": "East",
      "unitCount": 1,
      "severity": 0,
      "units": "L10",
      "address": "800 Jefferson St"
    }
  },
  {
    "id_str": "F200009416",
    "created_at": "1/27/2020 11:42:05 AM",
    "derived": {
      "lat": 47.69418,
      "long": -122.343489,
      "timestamp": 1580154125000,
      "description": "MVI - Motor Vehicle Incident",
      "entries": 1,
      "neighborhood": "Licton Springs",
      "neighborhoodGroup": "Northwest",
      "unitCount": 1,
      "severity": 0,
      "units": "E24",
      "address": "Nesbit Ave N / N 90th St"
    }
  },
  {
    "id_str": "F200009415",
    "created_at": "1/27/2020 11:40:21 AM",
    "derived": {
      "lat": 47.546065,
      "long": -122.286456,
      "timestamp": 1580154021000,
      "description": "Aid Response",
      "entries": 1,
      "neighborhood": "Beacon Hill",
      "neighborhoodGroup": "Greater Duwamish",
      "unitCount": 1,
      "severity": 0,
      "units": "A14",
      "address": "3600 S GRAHAM ST"
    }
  },
  {
    "id_str": "F200009413",
    "created_at": "1/27/2020 11:35:42 AM",
    "derived": {
      "lat": 47.534954,
      "long": -122.280638,
      "timestamp": 1580153742000,
      "description": "Aid Response",
      "entries": 1,
      "neighborhood": "South Beacon Hill/NewHolly",
      "neighborhoodGroup": "Greater Duwamish",
      "unitCount": 1,
      "severity": 0,
      "units": "L12",
      "address": "7544 M L King Jr Way S"
    }
  },
  {
    "id_str": "F200009412",
    "created_at": "1/27/2020 11:29:21 AM",
    "derived": {
      "lat": 47.599876,
      "long": -122.299866,
      "timestamp": 1580153361000,
      "description": "Aid Response",
      "entries": 1,
      "neighborhood": "Madrona/Leschi",
      "neighborhoodGroup": "Central",
      "unitCount": 1,
      "severity": 0,
      "units": "E6",
      "address": "323 25th Av S"
    }
  },
  {
    "id_str": "F200009411",
    "created_at": "1/27/2020 11:27:53 AM",
    "derived": {
      "lat": 47.537402,
      "long": -122.337085,
      "timestamp": 1580153273000,
      "description": "Aid Response",
      "entries": 1,
      "neighborhood": "South Park",
      "neighborhoodGroup": "Greater Duwamish",
      "unitCount": 1,
      "severity": 0,
      "units": "L11",
      "address": "West Marginal Way Sw / 2nd Ave Sw"
    }
  },
  {
    "id_str": "F200009410",
    "created_at": "1/27/2020 11:27:25 AM",
    "derived": {
      "lat": 47.608194,
      "long": -122.306318,
      "timestamp": 1580153245000,
      "description": "Aid Response",
      "entries": 1,
      "neighborhood": "Central Area/Squire Park",
      "neighborhoodGroup": "Central",
      "unitCount": 1,
      "severity": 0,
      "units": "E25",
      "address": "717 20th Ave"
    }
  },
  {
    "id_str": "F200009408",
    "created_at": "1/27/2020 11:25:17 AM",
    "derived": {
      "lat": 47.537042,
      "long": -122.281293,
      "timestamp": 1580153117000,
      "description": "MVI - Motor Vehicle Incident",
      "entries": 2,
      "neighborhood": "South Beacon Hill/NewHolly",
      "neighborhoodGroup": "Greater Duwamish",
      "unitCount": 2,
      "severity": 0,
      "units": "E26 L12",
      "address": "M L King Jr Way S / S Othello St"
    }
  },
  {
    "id_str": "F200009406",
    "created_at": "1/27/2020 11:24:36 AM",
    "derived": {
      "lat": 47.697867,
      "long": -122.367016,
      "timestamp": 1580153076000,
      "description": "Aid Response",
      "entries": 2,
      "neighborhood": "Greenwood/Phinney Ridge",
      "neighborhoodGroup": "Northwest",
      "unitCount": 2,
      "severity": 0,
      "units": "A31 E24",
      "address": "820 Nw 95th St"
    }
  },
  {
    "id_str": "F200009405",
    "created_at": "1/27/2020 11:24:23 AM",
    "derived": {
      "lat": 47.59745,
      "long": -122.317227,
      "timestamp": 1580153063000,
      "description": "Medic Response",
      "entries": 3,
      "neighborhood": "Pioneer Square/International District",
      "neighborhoodGroup": "Downtown",
      "unitCount": 3,
      "severity": 0,
      "units": "A2 M17 M28",
      "address": "606 12TH AV S"
    }
  },
  {
    "id_str": "F200009404",
    "created_at": "1/27/2020 11:22:25 AM",
    "derived": {
      "lat": 47.57763,
      "long": -122.408081,
      "timestamp": 1580152945000,
      "description": "Aid Response",
      "entries": 3,
      "neighborhood": "Alki/Admiral",
      "neighborhoodGroup": "Southwest",
      "unitCount": 2,
      "severity": 0,
      "units": "E29 E36",
      "address": "3010 59th Av Sw"
    }
  },
  {
    "id_str": "F200009403",
    "created_at": "1/27/2020 11:14:02 AM",
    "derived": {
      "lat": 47.60252,
      "long": -122.329645,
      "timestamp": 1580152442000,
      "description": "Aid Response",
      "entries": 1,
      "neighborhood": "Downtown Commercial Core",
      "neighborhoodGroup": "Downtown",
      "unitCount": 1,
      "severity": 0,
      "units": "A10",
      "address": "4th Ave / Jefferson St"
    }
  },
  {
    "id_str": "F200009402",
    "created_at": "1/27/2020 11:12:56 AM",
    "derived": {
      "lat": 47.52468,
      "long": -122.366071,
      "timestamp": 1580152376000,
      "description": "Aid Response",
      "entries": 1,
      "neighborhood": "Roxhill/Westwood",
      "neighborhoodGroup": "Delridge Neighborhoods",
      "unitCount": 1,
      "severity": 0,
      "units": "E37",
      "address": "2615 Sw Trenton St"
    }
  },
  {
    "id_str": "F200009401",
    "created_at": "1/27/2020 11:11:23 AM",
    "derived": {
      "lat": 47.598348,
      "long": -122.322448,
      "timestamp": 1580152283000,
      "description": "Aid Response",
      "entries": 1,
      "neighborhood": "Pioneer Square/International District",
      "neighborhoodGroup": "Downtown",
      "unitCount": 1,
      "severity": 0,
      "units": "A5",
      "address": "8th Ave S / S King St"
    }
  },
  {
    "id_str": "F200009400",
    "created_at": "1/27/2020 11:11:22 AM",
    "derived": {
      "lat": 47.689834,
      "long": -122.344123,
      "timestamp": 1580152282000,
      "description": "Medic Response",
      "entries": 2,
      "neighborhood": "Green Lake",
      "neighborhoodGroup": "Northwest",
      "unitCount": 2,
      "severity": 0,
      "units": "E21 M31",
      "address": "1129 N 84th St"
    }
  },
  {
    "id_str": "F200009399",
    "created_at": "1/27/2020 11:07:29 AM",
    "derived": {
      "lat": 47.620503,
      "long": -122.312698,
      "timestamp": 1580152049000,
      "description": "Aid Response",
      "entries": 2,
      "neighborhood": "Capitol Hill",
      "neighborhoodGroup": "East",
      "unitCount": 3,
      "severity": 0,
      "units": "A25 E25 M1",
      "address": "1501 E Thomas St"
    }
  },
  {
    "id_str": "F200009396",
    "created_at": "1/27/2020 11:03:43 AM",
    "derived": {
      "lat": 47.60739,
      "long": -122.332564,
      "timestamp": 1580151823000,
      "description": "Aid Response",
      "entries": 2,
      "neighborhood": "Downtown Commercial Core",
      "neighborhoodGroup": "Downtown",
      "unitCount": 2,
      "severity": 0,
      "units": "A5 E5",
      "address": "1118 5th Av"
    }
  },
  {
    "id_str": "F200009395",
    "created_at": "1/27/2020 11:02:35 AM",
    "derived": {
      "lat": 47.537046,
      "long": -122.283397,
      "timestamp": 1580151755000,
      "description": "Aid Response",
      "entries": 1,
      "neighborhood": "South Beacon Hill/NewHolly",
      "neighborhoodGroup": "Greater Duwamish",
      "unitCount": 1,
      "severity": 0,
      "units": "E26",
      "address": "3900 S Othello St"
    }
  },
  {
    "id_str": "F200009394",
    "created_at": "1/27/2020 11:01:34 AM",
    "derived": {
      "lat": 47.620951,
      "long": -122.359349,
      "timestamp": 1580151694000,
      "description": "Auto Fire Alarm",
      "entries": 1,
      "neighborhood": "Queen Anne",
      "neighborhoodGroup": "Magnolia/Queen Anne",
      "unitCount": 2,
      "severity": 0,
      "units": "E8 L6",
      "address": "200 W Thomas St"
    }
  },
  {
    "id_str": "F200009393",
    "created_at": "1/27/2020 10:59:47 AM",
    "derived": {
      "lat": 47.618693,
      "long": -122.334256,
      "timestamp": 1580151587000,
      "description": "Aid Response",
      "entries": 2,
      "neighborhood": "Cascade/Eastlake",
      "neighborhoodGroup": "Lake Union",
      "unitCount": 2,
      "severity": 0,
      "units": "A2 E2",
      "address": "116 Fairview Av N"
    }
  },
  {
    "id_str": "F200009392",
    "created_at": "1/27/2020 10:57:17 AM",
    "derived": {
      "lat": 47.59055,
      "long": -122.3889,
      "timestamp": 1580151437000,
      "description": "Aid Response",
      "entries": 2,
      "neighborhood": "Alki/Admiral",
      "neighborhoodGroup": "Southwest",
      "unitCount": 2,
      "severity": 0,
      "units": "E29 M32",
      "address": "1507 45th Ave Sw"
    }
  },
  {
    "id_str": "F200009391",
    "created_at": "1/27/2020 10:53:47 AM",
    "derived": {
      "lat": 47.609851,
      "long": -122.337886,
      "timestamp": 1580151227000,
      "description": "Aid Response",
      "entries": 1,
      "neighborhood": "Downtown Commercial Core",
      "neighborhoodGroup": "Downtown",
      "unitCount": 1,
      "severity": 0,
      "units": "A4",
      "address": "1511 3rd Av"
    }
  },
  {
    "id_str": "F200009390",
    "created_at": "1/27/2020 10:52:40 AM",
    "derived": {
      "lat": 47.689133,
      "long": -122.341819,
      "timestamp": 1580151160000,
      "description": "Automatic Fire Alarm Resd",
      "entries": 1,
      "neighborhood": "Green Lake",
      "neighborhoodGroup": "Northwest",
      "unitCount": 1,
      "severity": 0,
      "units": "E31",
      "address": "8306 Stone Ave N"
    }
  },
  {
    "id_str": "F200009389",
    "created_at": "1/27/2020 10:43:35 AM",
    "derived": {
      "lat": 47.546215,
      "long": -122.375056,
      "timestamp": 1580150615000,
      "description": "Aid Response",
      "entries": 1,
      "neighborhood": "High Point",
      "neighborhoodGroup": "Delridge Neighborhoods",
      "unitCount": 1,
      "severity": 0,
      "units": "E37",
      "address": "6339 34th Av Sw"
    }
  },
  {
    "id_str": "F200009388",
    "created_at": "1/27/2020 10:37:09 AM",
    "derived": {
      "lat": 47.527879,
      "long": -122.285957,
      "timestamp": 1580150229000,
      "description": "Aid Response",
      "entries": 1,
      "neighborhood": "South Beacon Hill/NewHolly",
      "neighborhoodGroup": "Greater Duwamish",
      "unitCount": 1,
      "severity": 0,
      "units": "E26",
      "address": "8400 37th Ave S"
    }
  },
  {
    "id_str": "F200009387",
    "created_at": "1/27/2020 10:34:50 AM",
    "derived": {
      "lat": 47.67834,
      "long": -122.32895,
      "timestamp": 1580150090000,
      "description": "Aid Response",
      "entries": 1,
      "neighborhood": "Green Lake",
      "neighborhoodGroup": "Northwest",
      "unitCount": 1,
      "severity": 0,
      "units": "E16",
      "address": "6720 East Green Lake Way N"
    }
  },
  {
    "id_str": "F200009386",
    "created_at": "1/27/2020 10:34:30 AM",
    "derived": {
      "lat": 47.584234,
      "long": -122.299024,
      "timestamp": 1580150070000,
      "description": "Aid Response",
      "entries": 1,
      "neighborhood": "Mt. Baker/North Rainier",
      "neighborhoodGroup": "Southeast",
      "unitCount": 1,
      "severity": 0,
      "units": "E6",
      "address": "2121 26th Av S"
    }
  },
  {
    "id_str": "F200009385",
    "created_at": "1/27/2020 10:31:41 AM",
    "derived": {
      "lat": 47.611802,
      "long": -122.339884,
      "timestamp": 1580149901000,
      "description": "Aid Response Yellow",
      "entries": 1,
      "neighborhood": "Cascade/Eastlake",
      "neighborhoodGroup": "Lake Union",
      "unitCount": 2,
      "severity": 0,
      "units": "A4 HEALTH1",
      "address": "1923 3rd Av"
    }
  },
  {
    "id_str": "F200009383",
    "created_at": "1/27/2020 10:25:55 AM",
    "derived": {
      "lat": 47.616446,
      "long": -122.311456,
      "timestamp": 1580149555000,
      "description": "Aid Response",
      "entries": 2,
      "neighborhood": "Central Area/Squire Park",
      "neighborhoodGroup": "Central",
      "unitCount": 2,
      "severity": 0,
      "units": "A25 E25",
      "address": "1600 E Olive St"
    }
  },
  {
    "id_str": "F200009381",
    "created_at": "1/27/2020 10:16:28 AM",
    "derived": {
      "lat": 47.557498,
      "long": -122.386883,
      "timestamp": 1580148988000,
      "description": "Aid Response",
      "entries": 1,
      "neighborhood": "West Seattle Junction/Genesee Hill",
      "neighborhoodGroup": "Southwest",
      "unitCount": 1,
      "severity": 0,
      "units": "E32",
      "address": "5000 California Av Sw"
    }
  },
  {
    "id_str": "F200009380",
    "created_at": "1/27/2020 10:15:37 AM",
    "derived": {
      "lat": 47.526481,
      "long": -122.328199,
      "timestamp": 1580148937000,
      "description": "Aid Response",
      "entries": 1,
      "neighborhood": "South Park",
      "neighborhoodGroup": "Greater Duwamish",
      "unitCount": 1,
      "severity": 0,
      "units": "E11",
      "address": "5th Ave S / S Cloverdale St"
    }
  },
  {
    "id_str": "F200009379",
    "created_at": "1/27/2020 10:10:47 AM",
    "derived": {
      "lat": 47.614068,
      "long": -122.321785,
      "timestamp": 1580148647000,
      "description": "Aid Response",
      "entries": 2,
      "neighborhood": "Capitol Hill",
      "neighborhoodGroup": "East",
      "unitCount": 2,
      "severity": 0,
      "units": "A25 L10",
      "address": "824 E Pike St"
    }
  },
  {
    "id_str": "F200009378",
    "created_at": "1/27/2020 10:05:28 AM",
    "derived": {
      "lat": 47.606334,
      "long": -122.325463,
      "timestamp": 1580148328000,
      "description": "Aid Response",
      "entries": 1,
      "neighborhood": "First Hill",
      "neighborhoodGroup": "East",
      "unitCount": 1,
      "severity": 0,
      "units": "A10",
      "address": "710 9th Av"
    }
  },
  {
    "id_str": "F200009376",
    "created_at": "1/27/2020 9:52:00 AM",
    "derived": {
      "lat": 47.640909,
      "long": -122.344586,
      "timestamp": 1580147520000,
      "description": "MVI - Motor Vehicle Incident",
      "entries": 1,
      "neighborhood": "Queen Anne",
      "neighborhoodGroup": "Magnolia/Queen Anne",
      "unitCount": 1,
      "severity": 0,
      "units": "E9",
      "address": "Dexter Ave N / Wheeler St"
    }
  },
  {
    "id_str": "F200009375",
    "created_at": "1/27/2020 9:51:26 AM",
    "derived": {
      "lat": 47.62545,
      "long": -122.354853,
      "timestamp": 1580147486000,
      "description": "Aid Response",
      "entries": 1,
      "neighborhood": "Queen Anne",
      "neighborhoodGroup": "Magnolia/Queen Anne",
      "unitCount": 1,
      "severity": 0,
      "units": "E8",
      "address": "120 Roy St"
    }
  },
  {
    "id_str": "F200009374",
    "created_at": "1/27/2020 9:46:15 AM",
    "derived": {
      "lat": 47.690609,
      "long": -122.376806,
      "timestamp": 1580147175000,
      "description": "Aid Response",
      "entries": 1,
      "neighborhood": "Whittier Heights",
      "neighborhoodGroup": "Ballard",
      "unitCount": 1,
      "severity": 0,
      "units": "E35",
      "address": "8500 15th Av Nw"
    }
  },
  {
    "id_str": "F200009372",
    "created_at": "1/27/2020 9:40:05 AM",
    "derived": {
      "lat": 47.616399,
      "long": -122.325544,
      "timestamp": 1580146805000,
      "description": "Dumpster Fire",
      "entries": 1,
      "neighborhood": "Capitol Hill",
      "neighborhoodGroup": "East",
      "unitCount": 1,
      "severity": 0,
      "units": "E25",
      "address": "1705 Summit Av"
    }
  },
  {
    "id_str": "F200009371",
    "created_at": "1/27/2020 9:39:07 AM",
    "derived": {
      "lat": 47.53338,
      "long": -122.278483,
      "timestamp": 1580146747000,
      "description": "Medic Response",
      "entries": 1,
      "neighborhood": "Columbia City",
      "neighborhoodGroup": "Southeast",
      "unitCount": 2,
      "severity": 0,
      "units": "E26 M17",
      "address": "4331 S Holden St"
    }
  },
  {
    "id_str": "F200009370",
    "created_at": "1/27/2020 9:38:23 AM",
    "derived": {
      "lat": 47.712367,
      "long": -122.362207,
      "timestamp": 1580146703000,
      "description": "Aid Response",
      "entries": 1,
      "neighborhood": "Broadview/Bitter Lake",
      "neighborhoodGroup": "Northwest",
      "unitCount": 1,
      "severity": 0,
      "units": "A31",
      "address": "11501 4th Ave Nw"
    }
  },
  {
    "id_str": "F200009369",
    "created_at": "1/27/2020 9:36:34 AM",
    "derived": {
      "lat": 47.546018,
      "long": -122.283106,
      "timestamp": 1580146594000,
      "description": "Aid Response",
      "entries": 1,
      "neighborhood": "Columbia City",
      "neighborhoodGroup": "Southeast",
      "unitCount": 1,
      "severity": 0,
      "units": "E28",
      "address": "3928 S Graham St"
    }
  },
  {
    "id_str": "F200009367",
    "created_at": "1/27/2020 9:31:05 AM",
    "derived": {
      "lat": 47.612541,
      "long": -122.343119,
      "timestamp": 1580146265000,
      "description": "Aid Response",
      "entries": 1,
      "neighborhood": "Belltown",
      "neighborhoodGroup": "Downtown",
      "unitCount": 1,
      "severity": 0,
      "units": "A4",
      "address": "2106 2nd Av"
    }
  },
  {
    "id_str": "F200009365",
    "created_at": "1/27/2020 9:16:34 AM",
    "derived": {
      "lat": 47.606982,
      "long": -122.326056,
      "timestamp": 1580145394000,
      "description": "Aid Response",
      "entries": 1,
      "neighborhood": "First Hill",
      "neighborhoodGroup": "East",
      "unitCount": 1,
      "severity": 0,
      "units": "A25",
      "address": "801 9th Av"
    }
  },
  {
    "id_str": "F200009364",
    "created_at": "1/27/2020 9:10:19 AM",
    "derived": {
      "lat": 47.60705,
      "long": -122.335324,
      "timestamp": 1580145019000,
      "description": "Aid Response",
      "entries": 1,
      "neighborhood": "Downtown Commercial Core",
      "neighborhoodGroup": "Downtown",
      "unitCount": 1,
      "severity": 0,
      "units": "A5",
      "address": "3rd Ave / Seneca St"
    }
  },
  {
    "id_str": "F200009363",
    "created_at": "1/27/2020 9:06:35 AM",
    "derived": {
      "lat": 47.602165,
      "long": -122.330856,
      "timestamp": 1580144795000,
      "description": "Auto Fire Alarm",
      "entries": 1,
      "neighborhood": "Downtown Commercial Core",
      "neighborhoodGroup": "Downtown",
      "unitCount": 2,
      "severity": 0,
      "units": "E5 L4",
      "address": "516 3rd Av"
    }
  },
  {
    "id_str": "F200009361",
    "created_at": "1/27/2020 9:03:30 AM",
    "derived": {
      "lat": 47.660045,
      "long": -122.317737,
      "timestamp": 1580144610000,
      "description": "Alarm Bell",
      "entries": 1,
      "neighborhood": "Wallingford",
      "neighborhoodGroup": "Lake Union",
      "unitCount": 2,
      "severity": 0,
      "units": "E31 L9",
      "address": "4343 Roosevelt Way Ne"
    }
  },
  {
    "id_str": "F200009360",
    "created_at": "1/27/2020 8:58:59 AM",
    "derived": {
      "lat": 47.540408,
      "long": -122.282737,
      "timestamp": 1580144339000,
      "description": "Scenes Of Violence 7",
      "entries": 2,
      "neighborhood": "South Beacon Hill/NewHolly",
      "neighborhoodGroup": "Greater Duwamish",
      "unitCount": 6,
      "severity": 1,
      "units": "B5 E28 L12 M17 M28 M44",
      "address": "6930 M L King Jr Way S"
    }
  },
  {
    "id_str": "F200009356",
    "created_at": "1/27/2020 8:45:59 AM",
    "derived": {
      "lat": 47.600875,
      "long": -122.328963,
      "timestamp": 1580143559000,
      "description": "Aid Response",
      "entries": 1,
      "neighborhood": "Pioneer Square/International District",
      "neighborhoodGroup": "Downtown",
      "unitCount": 1,
      "severity": 0,
      "units": "A10",
      "address": "400 S Washington St"
    }
  },
  {
    "id_str": "F200009355",
    "created_at": "1/27/2020 8:44:21 AM",
    "derived": {
      "lat": 47.551855,
      "long": -122.323873,
      "timestamp": 1580143461000,
      "description": "Aid Response",
      "entries": 1,
      "neighborhood": "Georgetown",
      "neighborhoodGroup": "Greater Duwamish",
      "unitCount": 1,
      "severity": 0,
      "units": "A14",
      "address": "7th Ave S / S Homer St"
    }
  },
  {
    "id_str": "F200009354",
    "created_at": "1/27/2020 8:43:50 AM",
    "derived": {
      "lat": 47.551689,
      "long": -122.323511,
      "timestamp": 1580143430000,
      "description": "Medic Response",
      "entries": 4,
      "neighborhood": "Georgetown",
      "neighborhoodGroup": "Greater Duwamish",
      "unitCount": 4,
      "severity": 0,
      "units": "E27 M10 M17 M28",
      "address": "723 S HOMER ST"
    }
  },
  {
    "id_str": "F200009353",
    "created_at": "1/27/2020 8:42:35 AM",
    "derived": {
      "lat": 47.635807,
      "long": -122.358298,
      "timestamp": 1580143355000,
      "description": "Medic Response",
      "entries": 2,
      "neighborhood": "Queen Anne",
      "neighborhoodGroup": "Magnolia/Queen Anne",
      "unitCount": 2,
      "severity": 0,
      "units": "E9 M18",
      "address": "1915 1st Av W"
    }
  },
  {
    "id_str": "F200009352",
    "created_at": "1/27/2020 8:35:47 AM",
    "derived": {
      "lat": 47.597509,
      "long": -122.319645,
      "timestamp": 1580142947000,
      "description": "Aid Response",
      "entries": 1,
      "neighborhood": "Pioneer Square/International District",
      "neighborhoodGroup": "Downtown",
      "unitCount": 1,
      "severity": 0,
      "units": "A5",
      "address": "10th Ave S / S Weller St"
    }
  },
  {
    "id_str": "F200009351",
    "created_at": "1/27/2020 8:26:36 AM",
    "derived": {
      "lat": 47.602114,
      "long": -122.330809,
      "timestamp": 1580142396000,
      "description": "Auto Fire Alarm",
      "entries": 2,
      "neighborhood": "Downtown Commercial Core",
      "neighborhoodGroup": "Downtown",
      "unitCount": 4,
      "severity": 0,
      "units": "E10 E5 L1 L4",
      "address": "509 3rd Av"
    }
  },
  {
    "id_str": "F200009350",
    "created_at": "1/27/2020 8:21:31 AM",
    "derived": {
      "lat": 47.626215,
      "long": -122.329199,
      "timestamp": 1580142091000,
      "description": "Medic Response",
      "entries": 1,
      "neighborhood": "Cascade/Eastlake",
      "neighborhoodGroup": "Lake Union",
      "unitCount": 2,
      "severity": 0,
      "units": "A2 M17",
      "address": "825 Eastlake Av E"
    }
  },
  {
    "id_str": "F200009349",
    "created_at": "1/27/2020 8:14:10 AM",
    "derived": {
      "lat": 47.701342,
      "long": -122.314975,
      "timestamp": 1580141650000,
      "description": "Aid Response",
      "entries": 1,
      "neighborhood": "Northgate/Maple Leaf",
      "neighborhoodGroup": "North",
      "unitCount": 1,
      "severity": 0,
      "units": "E40",
      "address": "10017 12th Ave Ne"
    }
  },
  {
    "id_str": "F200009347",
    "created_at": "1/27/2020 8:07:38 AM",
    "derived": {
      "lat": 47.62545,
      "long": -122.354853,
      "timestamp": 1580141258000,
      "description": "Medic Response, 7 per Rule",
      "entries": 2,
      "neighborhood": "Queen Anne",
      "neighborhoodGroup": "Magnolia/Queen Anne",
      "unitCount": 4,
      "severity": 0,
      "units": "E8 L6 M1 M10",
      "address": "120 Roy St"
    }
  },
  {
    "id_str": "F200009345",
    "created_at": "1/27/2020 7:59:24 AM",
    "derived": {
      "lat": 47.600194,
      "long": -122.330541,
      "timestamp": 1580140764000,
      "description": "Aid Response",
      "entries": 1,
      "neighborhood": "Pioneer Square/International District",
      "neighborhoodGroup": "Downtown",
      "unitCount": 1,
      "severity": 0,
      "units": "A10",
      "address": "318 2nd Ave Et S"
    }
  },
  {
    "id_str": "F200009344",
    "created_at": "1/27/2020 7:57:33 AM",
    "derived": {
      "lat": 47.612294,
      "long": -122.338732,
      "timestamp": 1580140653000,
      "description": "Aid Response",
      "entries": 1,
      "neighborhood": "Cascade/Eastlake",
      "neighborhoodGroup": "Lake Union",
      "unitCount": 1,
      "severity": 0,
      "units": "A2",
      "address": "4th Ave / Stewart St"
    }
  },
  {
    "id_str": "F200009342",
    "created_at": "1/27/2020 7:45:32 AM",
    "derived": {
      "lat": 47.535387,
      "long": -122.267284,
      "timestamp": 1580139932000,
      "description": "Aid Response",
      "entries": 1,
      "neighborhood": "Seward Park",
      "neighborhoodGroup": "Southeast",
      "unitCount": 1,
      "severity": 0,
      "units": "E28",
      "address": "7500 Seward Park Av S"
    }
  },
  {
    "id_str": "F200009341",
    "created_at": "1/27/2020 7:37:54 AM",
    "derived": {
      "lat": 47.521411,
      "long": -122.269997,
      "timestamp": 1580139474000,
      "description": "Aid Response",
      "entries": 1,
      "neighborhood": "Rainier Beach",
      "neighborhoodGroup": "Southeast",
      "unitCount": 1,
      "severity": 0,
      "units": "E33",
      "address": "RAINIER AVE S / S FISHER PL"
    }
  },
  {
    "id_str": "F200009339",
    "created_at": "1/27/2020 7:23:53 AM",
    "derived": {
      "lat": 47.593784,
      "long": -122.307365,
      "timestamp": 1580138633000,
      "description": "Aid Response",
      "entries": 2,
      "neighborhood": "North Beacon Hill/Jefferson Park",
      "neighborhoodGroup": "Greater Duwamish",
      "unitCount": 3,
      "severity": 0,
      "units": "E6 M10 M32",
      "address": "949 Davis Pl S"
    }
  },
  {
    "id_str": "F200009337",
    "created_at": "1/27/2020 7:16:08 AM",
    "derived": {
      "lat": 47.589986,
      "long": -122.318209,
      "timestamp": 1580138168000,
      "description": "Aid Response",
      "entries": 1,
      "neighborhood": "Duwamish/SODO",
      "neighborhoodGroup": "Greater Duwamish",
      "unitCount": 1,
      "severity": 0,
      "units": "A5",
      "address": "1100 S Atlantic St"
    }
  },
  {
    "id_str": "F200009335",
    "created_at": "1/27/2020 7:13:54 AM",
    "derived": {
      "lat": 47.725323,
      "long": -122.297766,
      "timestamp": 1580138034000,
      "description": "Aid Response Yellow",
      "entries": 1,
      "neighborhood": "Olympic Hills/Victory Heights",
      "neighborhoodGroup": "North",
      "unitCount": 1,
      "severity": 0,
      "units": "L5",
      "address": "13321 28th Ave Ne"
    }
  },
  {
    "id_str": "F200009334",
    "created_at": "1/27/2020 7:07:28 AM",
    "derived": {
      "lat": 47.540654,
      "long": -122.286239,
      "timestamp": 1580137648000,
      "description": "Medic Response",
      "entries": 1,
      "neighborhood": "South Beacon Hill/NewHolly",
      "neighborhoodGroup": "Greater Duwamish",
      "unitCount": 2,
      "severity": 0,
      "units": "E28 M28",
      "address": "6900 37th Av S"
    }
  },
  {
    "id_str": "F200009333",
    "created_at": "1/27/2020 7:04:02 AM",
    "derived": {
      "lat": 47.509539,
      "long": -122.270068,
      "timestamp": 1580137442000,
      "description": "MVI - Motor Vehicle Incident",
      "entries": 1,
      "neighborhood": "Rainier Beach",
      "neighborhoodGroup": "Southeast",
      "unitCount": 1,
      "severity": 0,
      "units": "E33",
      "address": "S Ryan Way/51st Ave S"
    }
  },
  {
    "id_str": "F200009332",
    "created_at": "1/27/2020 6:59:31 AM",
    "derived": {
      "lat": 47.521023,
      "long": -122.366095,
      "timestamp": 1580137171000,
      "description": "Aid Response",
      "entries": 1,
      "neighborhood": "Roxhill/Westwood",
      "neighborhoodGroup": "Delridge Neighborhoods",
      "unitCount": 1,
      "severity": 0,
      "units": "E11",
      "address": "2615 Sw Barton St"
    }
  },
  {
    "id_str": "F200009331",
    "created_at": "1/27/2020 6:55:48 AM",
    "derived": {
      "lat": 47.564431,
      "long": -122.318706,
      "timestamp": 1580136948000,
      "description": "Aid Response",
      "entries": 1,
      "neighborhood": "Duwamish/SODO",
      "neighborhoodGroup": "Greater Duwamish",
      "unitCount": 1,
      "severity": 0,
      "units": "E13",
      "address": "4415 Powell Pl S"
    }
  },
  {
    "id_str": "F200009330",
    "created_at": "1/27/2020 6:53:11 AM",
    "derived": {
      "lat": 47.726526,
      "long": -122.29811,
      "timestamp": 1580136791000,
      "description": "Aid Response",
      "entries": 1,
      "neighborhood": "Olympic Hills/Victory Heights",
      "neighborhoodGroup": "North",
      "unitCount": 1,
      "severity": 0,
      "units": "E39",
      "address": "2726 Ne 135th St"
    }
  },
  {
    "id_str": "F200009329",
    "created_at": "1/27/2020 6:50:51 AM",
    "derived": {
      "lat": 47.582978,
      "long": -122.301682,
      "timestamp": 1580136651000,
      "description": "Medic Response",
      "entries": 2,
      "neighborhood": "Mt. Baker/North Rainier",
      "neighborhoodGroup": "Southeast",
      "unitCount": 2,
      "severity": 0,
      "units": "E30 M10",
      "address": "2329 Rainier Av S"
    }
  },
  {
    "id_str": "F200009328",
    "created_at": "1/27/2020 6:34:52 AM",
    "derived": {
      "lat": 47.606088,
      "long": -122.332909,
      "timestamp": 1580135692000,
      "description": "Medic Response, 7 per Rule",
      "entries": 2,
      "neighborhood": "Downtown Commercial Core",
      "neighborhoodGroup": "Downtown",
      "unitCount": 3,
      "severity": 0,
      "units": "A10 E10 M1",
      "address": "4th Ave / Madison St"
    }
  },
  {
    "id_str": "F200009327",
    "created_at": "1/27/2020 6:23:12 AM",
    "derived": {
      "lat": 47.624583,
      "long": -122.356709,
      "timestamp": 1580134992000,
      "description": "1RED 1 Unit",
      "entries": 1,
      "neighborhood": "Queen Anne",
      "neighborhoodGroup": "Magnolia/Queen Anne",
      "unitCount": 1,
      "severity": 0,
      "units": "E8",
      "address": "Queen Anne Ave N / W Mercer St"
    }
  },
  {
    "id_str": "F200009324",
    "created_at": "1/27/2020 5:45:22 AM",
    "derived": {
      "lat": 47.50613,
      "long": -122.264659,
      "timestamp": 1580132722000,
      "description": "Medic Response",
      "entries": 1,
      "neighborhood": "Rainier Beach",
      "neighborhoodGroup": "Southeast",
      "unitCount": 2,
      "severity": 0,
      "units": "E33 M28",
      "address": "5508 S Bangor St"
    }
  },
  {
    "id_str": "F200009323",
    "created_at": "1/27/2020 5:21:46 AM",
    "derived": {
      "lat": 47.622174,
      "long": -122.320909,
      "timestamp": 1580131306000,
      "description": "Aid Response",
      "entries": 1,
      "neighborhood": "Capitol Hill",
      "neighborhoodGroup": "East",
      "unitCount": 1,
      "severity": 0,
      "units": "A25",
      "address": "417 BROADWAY E"
    }
  },
  {
    "id_str": "F200009322",
    "created_at": "1/27/2020 4:45:34 AM",
    "derived": {
      "lat": 47.632321,
      "long": -122.359809,
      "timestamp": 1580129134000,
      "description": "Aid Response",
      "entries": 1,
      "neighborhood": "Queen Anne",
      "neighborhoodGroup": "Magnolia/Queen Anne",
      "unitCount": 1,
      "severity": 0,
      "units": "E8",
      "address": "223 W Galer St"
    }
  },
  {
    "id_str": "F200009321",
    "created_at": "1/27/2020 4:31:11 AM",
    "derived": {
      "lat": 47.618497,
      "long": -122.327854,
      "timestamp": 1580128271000,
      "description": "Alarm Bell",
      "entries": 1,
      "neighborhood": "Capitol Hill",
      "neighborhoodGroup": "East",
      "unitCount": 2,
      "severity": 0,
      "units": "E25 L10",
      "address": "100 Melrose Av E"
    }
  },
  {
    "id_str": "F200009320",
    "created_at": "1/27/2020 4:23:27 AM",
    "derived": {
      "lat": 47.676259,
      "long": -122.360503,
      "timestamp": 1580127807000,
      "description": "Medic Response",
      "entries": 2,
      "neighborhood": "Greenwood/Phinney Ridge",
      "neighborhoodGroup": "Northwest",
      "unitCount": 2,
      "severity": 0,
      "units": "E21 M18",
      "address": "6533 3rd Ave Nw"
    }
  },
  {
    "id_str": "F200009319",
    "created_at": "1/27/2020 4:19:34 AM",
    "derived": {
      "lat": 47.695748,
      "long": -122.305261,
      "timestamp": 1580127574000,
      "description": "Rescue Elevator",
      "entries": 1,
      "neighborhood": "Wedgwood/View Ridge",
      "neighborhoodGroup": "Northeast",
      "unitCount": 1,
      "severity": 0,
      "units": "L5",
      "address": "2222 Ne 92nd St"
    }
  },
  {
    "id_str": "F200009315",
    "created_at": "1/27/2020 4:13:38 AM",
    "derived": {
      "lat": 47.670176,
      "long": -122.37945,
      "timestamp": 1580127218000,
      "description": "Aid Response",
      "entries": 1,
      "neighborhood": "Ballard",
      "neighborhoodGroup": "Ballard",
      "unitCount": 1,
      "severity": 0,
      "units": "E18",
      "address": "1753 Nw 57th St"
    }
  },
  {
    "id_str": "F200009316",
    "created_at": "1/27/2020 4:13:05 AM",
    "derived": {
      "lat": 47.523242,
      "long": -122.334822,
      "timestamp": 1580127185000,
      "description": "MVI - Motor Vehicle Incident",
      "entries": 1,
      "neighborhood": "Highland Park",
      "neighborhoodGroup": "Delridge Neighborhoods",
      "unitCount": 3,
      "severity": 0,
      "units": "A14 E26 E27",
      "address": "Nb Sr509 Fr 1"
    }
  },
  {
    "id_str": "F200009314",
    "created_at": "1/27/2020 4:11:07 AM",
    "derived": {
      "lat": 47.623277,
      "long": -122.35672,
      "timestamp": 1580127067000,
      "description": "Illegal Burn",
      "entries": 1,
      "neighborhood": "Queen Anne",
      "neighborhoodGroup": "Magnolia/Queen Anne",
      "unitCount": 1,
      "severity": 0,
      "units": "E8",
      "address": "500 Queen Anne Av N"
    }
  },
  {
    "id_str": "F200009313",
    "created_at": "1/27/2020 4:02:09 AM",
    "derived": {
      "lat": 47.604615,
      "long": -122.32228,
      "timestamp": 1580126529000,
      "description": "Automatic Medical Alarm",
      "entries": 1,
      "neighborhood": "First Hill",
      "neighborhoodGroup": "East",
      "unitCount": 1,
      "severity": 0,
      "units": "A5",
      "address": "1005 Terrace St"
    }
  },
  {
    "id_str": "F200009312",
    "created_at": "1/27/2020 3:59:35 AM",
    "derived": {
      "lat": 47.701698,
      "long": -122.362125,
      "timestamp": 1580126375000,
      "description": "Aid Response",
      "entries": 1,
      "neighborhood": "North Beach/Blue Ridge",
      "neighborhoodGroup": "Ballard",
      "unitCount": 1,
      "severity": 0,
      "units": "E21",
      "address": "9999 Holman Rd Nw"
    }
  },
  {
    "id_str": "F200009311",
    "created_at": "1/27/2020 3:57:44 AM",
    "derived": {
      "lat": 47.602386,
      "long": -122.332592,
      "timestamp": 1580126264000,
      "description": "Aid Response",
      "entries": 1,
      "neighborhood": "Downtown Commercial Core",
      "neighborhoodGroup": "Downtown",
      "unitCount": 1,
      "severity": 0,
      "units": "E5",
      "address": "612 2nd Av"
    }
  },
  {
    "id_str": "F200009309",
    "created_at": "1/27/2020 3:53:19 AM",
    "derived": {
      "lat": 47.602172,
      "long": -122.330863,
      "timestamp": 1580125999000,
      "description": "Aid Response",
      "entries": 1,
      "neighborhood": "Downtown Commercial Core",
      "neighborhoodGroup": "Downtown",
      "unitCount": 1,
      "severity": 0,
      "units": "A10",
      "address": "517 3rd Av"
    }
  },
  {
    "id_str": "F200009308",
    "created_at": "1/27/2020 3:49:36 AM",
    "derived": {
      "lat": 47.700241,
      "long": -122.366049,
      "timestamp": 1580125776000,
      "description": "Aid Response",
      "entries": 1,
      "neighborhood": "North Beach/Blue Ridge",
      "neighborhoodGroup": "Ballard",
      "unitCount": 1,
      "severity": 0,
      "units": "E35",
      "address": "9722 8th Av Nw"
    }
  },
  {
    "id_str": "F200009307",
    "created_at": "1/27/2020 3:45:55 AM",
    "derived": {
      "lat": 47.597517,
      "long": -122.327675,
      "timestamp": 1580125555000,
      "description": "Aid Response",
      "entries": 1,
      "neighborhood": "Pioneer Square/International District",
      "neighborhoodGroup": "Downtown",
      "unitCount": 1,
      "severity": 0,
      "units": "A5",
      "address": "5th Ave S / S Weller St"
    }
  },
  {
    "id_str": "F200009306",
    "created_at": "1/27/2020 3:38:00 AM",
    "derived": {
      "lat": 47.618002,
      "long": -122.329182,
      "timestamp": 1580125080000,
      "description": "Medic Response",
      "entries": 1,
      "neighborhood": "Cascade/Eastlake",
      "neighborhoodGroup": "Lake Union",
      "unitCount": 2,
      "severity": 0,
      "units": "A2 M10",
      "address": "1811 Eastlake Av"
    }
  },
  {
    "id_str": "F200009304",
    "created_at": "1/27/2020 3:11:55 AM",
    "derived": {
      "lat": 47.633405,
      "long": -122.343382,
      "timestamp": 1580123515000,
      "description": "1RED 1 Unit",
      "entries": 1,
      "neighborhood": "Queen Anne",
      "neighborhoodGroup": "Magnolia/Queen Anne",
      "unitCount": 1,
      "severity": 0,
      "units": "E2",
      "address": "1600 Aurora Ave N"
    }
  },
  {
    "id_str": "F200009301",
    "created_at": "1/27/2020 3:04:28 AM",
    "derived": {
      "lat": 47.613063,
      "long": -122.340033,
      "timestamp": 1580123068000,
      "description": "Aid Response",
      "entries": 1,
      "neighborhood": "Cascade/Eastlake",
      "neighborhoodGroup": "Lake Union",
      "unitCount": 1,
      "severity": 0,
      "units": "A2",
      "address": "2000 4th Av"
    }
  },
  {
    "id_str": "F200009300",
    "created_at": "1/27/2020 2:38:40 AM",
    "derived": {
      "lat": 47.679529,
      "long": -122.37677,
      "timestamp": 1580121520000,
      "description": "Aid Response",
      "entries": 2,
      "neighborhood": "Whittier Heights",
      "neighborhoodGroup": "Ballard",
      "unitCount": 2,
      "severity": 0,
      "units": "E18 L8",
      "address": "15th Ave Nw / Nw 70th St"
    }
  },
  {
    "id_str": "F200009298",
    "created_at": "1/27/2020 2:36:02 AM",
    "derived": {
      "lat": 47.61545,
      "long": -122.33073,
      "timestamp": 1580121362000,
      "description": "Hang-Up, Aid",
      "entries": 1,
      "neighborhood": "First Hill",
      "neighborhoodGroup": "East",
      "unitCount": 1,
      "severity": 0,
      "units": "A25",
      "address": "Olive Way / Boren Ave"
    }
  },
  {
    "id_str": "F200009297",
    "created_at": "1/27/2020 2:32:52 AM",
    "derived": {
      "lat": 47.620107,
      "long": -122.356745,
      "timestamp": 1580121172000,
      "description": "Aid Response",
      "entries": 1,
      "neighborhood": "Queen Anne",
      "neighborhoodGroup": "Magnolia/Queen Anne",
      "unitCount": 1,
      "severity": 0,
      "units": "A2",
      "address": "229 Queen Anne Ave N"
    }
  },
  {
    "id_str": "F200009296",
    "created_at": "1/27/2020 2:21:29 AM",
    "derived": {
      "lat": 47.670171,
      "long": -122.376253,
      "timestamp": 1580120489000,
      "description": "Investigate Out Of Service",
      "entries": 1,
      "neighborhood": "Ballard",
      "neighborhoodGroup": "Ballard",
      "unitCount": 1,
      "severity": 0,
      "units": "E18",
      "address": "1504 Nw 57th St"
    }
  },
  {
    "id_str": "F200009295",
    "created_at": "1/27/2020 2:09:51 AM",
    "derived": {
      "lat": 47.622242,
      "long": -122.332995,
      "timestamp": 1580119791000,
      "description": "Aid Response",
      "entries": 1,
      "neighborhood": "Cascade/Eastlake",
      "neighborhoodGroup": "Lake Union",
      "unitCount": 1,
      "severity": 0,
      "units": "A2",
      "address": "424 Minor Av N"
    }
  },
  {
    "id_str": "F200009292",
    "created_at": "1/27/2020 2:01:28 AM",
    "derived": {
      "lat": 47.605156,
      "long": -122.32132,
      "timestamp": 1580119288000,
      "description": "Auto Fire Alarm",
      "entries": 1,
      "neighborhood": "First Hill",
      "neighborhoodGroup": "East",
      "unitCount": 2,
      "severity": 0,
      "units": "E10 L1",
      "address": "415 Boren Av"
    }
  },
  {
    "id_str": "F200009289",
    "created_at": "1/27/2020 1:21:25 AM",
    "derived": {
      "lat": 47.616719,
      "long": -122.324492,
      "timestamp": 1580116885000,
      "description": "Automatic Fire Alarm Resd",
      "entries": 1,
      "neighborhood": "Capitol Hill",
      "neighborhoodGroup": "East",
      "unitCount": 1,
      "severity": 0,
      "units": "E25",
      "address": "1727 Belmont Av"
    }
  },
  {
    "id_str": "F200009285",
    "created_at": "1/27/2020 1:03:47 AM",
    "derived": {
      "lat": 47.548741,
      "long": -122.372148,
      "timestamp": 1580115827000,
      "description": "Aid Response",
      "entries": 1,
      "neighborhood": "High Point",
      "neighborhoodGroup": "Delridge Neighborhoods",
      "unitCount": 1,
      "severity": 0,
      "units": "E37",
      "address": "5950 31st Ave Sw"
    }
  },
  {
    "id_str": "F200009284",
    "created_at": "1/27/2020 12:58:09 AM",
    "derived": {
      "lat": 47.695649,
      "long": -122.349702,
      "timestamp": 1580115489000,
      "description": "Aid Response",
      "entries": 2,
      "neighborhood": "Licton Springs",
      "neighborhoodGroup": "Northwest",
      "unitCount": 2,
      "severity": 0,
      "units": "E21 M31",
      "address": "720 N 92nd St"
    }
  },
  {
    "id_str": "F200009280",
    "created_at": "1/27/2020 12:44:30 AM",
    "derived": {
      "lat": 47.58987,
      "long": -122.31728,
      "timestamp": 1580114670000,
      "description": "Aid Response",
      "entries": 1,
      "neighborhood": "Duwamish/SODO",
      "neighborhoodGroup": "Greater Duwamish",
      "unitCount": 1,
      "severity": 0,
      "units": "E13",
      "address": "1515 12th Av S"
    }
  },
  {
    "id_str": "F200009277",
    "created_at": "1/27/2020 12:15:47 AM",
    "derived": {
      "lat": 47.520451,
      "long": -122.336003,
      "timestamp": 1580112947000,
      "description": "Aid Response",
      "entries": 1,
      "unitCount": 1,
      "severity": 0,
      "units": "E26",
      "address": "9240 2nd Av Sw"
    }
  },
  {
    "id_str": "F200009276",
    "created_at": "1/27/2020 12:13:11 AM",
    "derived": {
      "lat": 47.518605,
      "long": -122.367273,
      "timestamp": 1580112791000,
      "description": "Aid Response",
      "entries": 1,
      "neighborhood": "Roxhill/Westwood",
      "neighborhoodGroup": "Delridge Neighborhoods",
      "unitCount": 1,
      "severity": 0,
      "units": "E11",
      "address": "9432 27th Av Sw"
    }
  },
  {
    "id_str": "F200009275",
    "created_at": "1/27/2020 12:08:19 AM",
    "derived": {
      "lat": 47.719709,
      "long": -122.294979,
      "timestamp": 1580112499000,
      "description": "Illegal Burn",
      "entries": 1,
      "neighborhood": "Cedar Park/Meadowbrook",
      "neighborhoodGroup": "North",
      "unitCount": 1,
      "severity": 0,
      "units": "E39",
      "address": "12548 Lake City Way Ne"
    }
  },
  {
    "id_str": "F200009274",
    "created_at": "1/27/2020 12:05:07 AM",
    "derived": {
      "lat": 47.51285,
      "long": -122.262054,
      "timestamp": 1580112307000,
      "description": "Aid Response",
      "entries": 1,
      "neighborhood": "Rainier Beach",
      "neighborhoodGroup": "Southeast",
      "unitCount": 1,
      "severity": 0,
      "units": "E33",
      "address": "9815 57th Ave S"
    }
  },
  {
    "id_str": "F200009272",
    "created_at": "1/26/2020 11:59:32 PM",
    "derived": {
      "lat": 47.600194,
      "long": -122.330541,
      "timestamp": 1580111972000,
      "description": "Aid Response",
      "entries": 2,
      "neighborhood": "Pioneer Square/International District",
      "neighborhoodGroup": "Downtown",
      "unitCount": 2,
      "severity": 0,
      "units": "A10 E10",
      "address": "318 2nd Ave Et S"
    }
  },
  {
    "id_str": "F200009271",
    "created_at": "1/26/2020 11:46:07 PM",
    "derived": {
      "lat": 47.631444,
      "long": -122.357896,
      "timestamp": 1580111167000,
      "description": "Aid Response",
      "entries": 1,
      "neighborhood": "Queen Anne",
      "neighborhoodGroup": "Magnolia/Queen Anne",
      "unitCount": 1,
      "severity": 0,
      "units": "E8",
      "address": "1414 1st Av W"
    }
  },
  {
    "id_str": "F200009268",
    "created_at": "1/26/2020 11:30:17 PM",
    "derived": {
      "lat": 47.617571,
      "long": -122.320836,
      "timestamp": 1580110217000,
      "description": "Aid Response",
      "entries": 1,
      "neighborhood": "Capitol Hill",
      "neighborhoodGroup": "East",
      "unitCount": 1,
      "severity": 0,
      "units": "E25",
      "address": "Broadway / E Howell St"
    }
  },
  {
    "id_str": "F200009267",
    "created_at": "1/26/2020 11:27:32 PM",
    "derived": {
      "lat": 47.612963,
      "long": -122.320762,
      "timestamp": 1580110052000,
      "description": "Aid Response",
      "entries": 1,
      "neighborhood": "Capitol Hill",
      "neighborhoodGroup": "East",
      "unitCount": 1,
      "severity": 0,
      "units": "A25",
      "address": "1401 Broadway"
    }
  },
  {
    "id_str": "F200009265",
    "created_at": "1/26/2020 11:10:39 PM",
    "derived": {
      "lat": 47.589965,
      "long": -122.3376,
      "timestamp": 1580109039000,
      "description": "Medic Response",
      "entries": 2,
      "neighborhood": "Duwamish/SODO",
      "neighborhoodGroup": "Greater Duwamish",
      "unitCount": 2,
      "severity": 0,
      "units": "A5 M1",
      "address": "1561 Alaskan Way S"
    }
  },
  {
    "id_str": "F200009264",
    "created_at": "1/26/2020 11:06:26 PM",
    "derived": {
      "lat": 47.668678,
      "long": -122.385027,
      "timestamp": 1580108786000,
      "description": "Aid Response",
      "entries": 1,
      "neighborhood": "Ballard",
      "neighborhoodGroup": "Ballard",
      "unitCount": 1,
      "severity": 0,
      "units": "E18",
      "address": "2218 Nw Market St"
    }
  },
  {
    "id_str": "F200009263",
    "created_at": "1/26/2020 10:55:09 PM",
    "derived": {
      "lat": 47.726526,
      "long": -122.29811,
      "timestamp": 1580108109000,
      "description": "Aid Response",
      "entries": 1,
      "neighborhood": "Olympic Hills/Victory Heights",
      "neighborhoodGroup": "North",
      "unitCount": 1,
      "severity": 0,
      "units": "E39",
      "address": "2726 Ne 135th St"
    }
  },
  {
    "id_str": "F200009261",
    "created_at": "1/26/2020 10:53:05 PM",
    "derived": {
      "lat": 47.616454,
      "long": -122.296023,
      "timestamp": 1580107985000,
      "description": "Aid Response",
      "entries": 1,
      "neighborhood": "Central Area/Squire Park",
      "neighborhoodGroup": "Central",
      "unitCount": 1,
      "severity": 0,
      "units": "E34",
      "address": "2810 E Olive St"
    }
  },
  {
    "id_str": "F200009259",
    "created_at": "1/26/2020 10:43:40 PM",
    "derived": {
      "lat": 47.611943,
      "long": -122.325987,
      "timestamp": 1580107420000,
      "description": "Aid Response",
      "entries": 1,
      "neighborhood": "First Hill",
      "neighborhoodGroup": "East",
      "unitCount": 1,
      "severity": 0,
      "units": "A25",
      "address": "1200 University St"
    }
  },
  {
    "id_str": "F200009258",
    "created_at": "1/26/2020 10:40:55 PM",
    "derived": {
      "lat": 47.598356,
      "long": -122.327671,
      "timestamp": 1580107255000,
      "description": "Aid Response",
      "entries": 1,
      "neighborhood": "Pioneer Square/International District",
      "neighborhoodGroup": "Downtown",
      "unitCount": 1,
      "severity": 0,
      "units": "A10",
      "address": "5th Ave S / S King St"
    }
  },
  {
    "id_str": "F200009257",
    "created_at": "1/26/2020 10:33:38 PM",
    "derived": {
      "lat": 47.663112,
      "long": -122.316359,
      "timestamp": 1580106818000,
      "description": "Rescue Elevator",
      "entries": 1,
      "neighborhood": "University District",
      "neighborhoodGroup": "Northeast",
      "unitCount": 1,
      "severity": 0,
      "units": "L9",
      "address": "1100 Ne 47th St"
    }
  },
  {
    "id_str": "F200009252",
    "created_at": "1/26/2020 9:51:04 PM",
    "derived": {
      "lat": 47.698529,
      "long": -122.343319,
      "timestamp": 1580104264000,
      "description": "Aid Response",
      "entries": 1,
      "neighborhood": "Licton Springs",
      "neighborhoodGroup": "Northwest",
      "unitCount": 1,
      "severity": 0,
      "units": "E21",
      "address": "Midvale Ave N / N 96th St"
    }
  },
  {
    "id_str": "F200009251",
    "created_at": "1/26/2020 9:35:45 PM",
    "derived": {
      "lat": 47.66288,
      "long": -122.353974,
      "timestamp": 1580103345000,
      "description": "Aid Response",
      "entries": 1,
      "neighborhood": "Fremont",
      "neighborhoodGroup": "Lake Union",
      "unitCount": 1,
      "severity": 0,
      "units": "E9",
      "address": "4700 Phinney Av N"
    }
  },
  {
    "id_str": "F200009249",
    "created_at": "1/26/2020 9:19:58 PM",
    "derived": {
      "lat": 47.614353,
      "long": -122.31684,
      "timestamp": 1580102398000,
      "description": "Aid Response",
      "entries": 1,
      "neighborhood": "Capitol Hill",
      "neighborhoodGroup": "East",
      "unitCount": 1,
      "severity": 0,
      "units": "A25",
      "address": "1522 12th Av"
    }
  },
  {
    "id_str": "F200009248",
    "created_at": "1/26/2020 9:12:19 PM",
    "derived": {
      "lat": 47.617908,
      "long": -122.34823,
      "timestamp": 1580101939000,
      "description": "Auto Fire Alarm",
      "entries": 1,
      "neighborhood": "Cascade/Eastlake",
      "neighborhoodGroup": "Lake Union",
      "unitCount": 2,
      "severity": 0,
      "units": "E2 L4",
      "address": "2721 4th Av"
    }
  },
  {
    "id_str": "F200009247",
    "created_at": "1/26/2020 9:04:52 PM",
    "derived": {
      "lat": 47.662115,
      "long": -122.347213,
      "timestamp": 1580101492000,
      "description": "Aid Response",
      "entries": 1,
      "neighborhood": "Wallingford",
      "neighborhoodGroup": "Lake Union",
      "unitCount": 1,
      "severity": 0,
      "units": "E9",
      "address": "Aurora Ave N / N 46th St"
    }
  },
  {
    "id_str": "F200009246",
    "created_at": "1/26/2020 8:33:09 PM",
    "derived": {
      "lat": 47.563869,
      "long": -122.376191,
      "timestamp": 1580099589000,
      "description": "Auto Fire Alarm",
      "entries": 1,
      "neighborhood": "North Delridge",
      "neighborhoodGroup": "Delridge Neighborhoods",
      "unitCount": 2,
      "severity": 0,
      "units": "E32 L11",
      "address": "4435 35th Av Sw"
    }
  },
  {
    "id_str": "F200009242",
    "created_at": "1/26/2020 8:26:53 PM",
    "derived": {
      "lat": 47.659626,
      "long": -122.318786,
      "timestamp": 1580099213000,
      "description": "Medic Response",
      "entries": 1,
      "neighborhood": "Wallingford",
      "neighborhoodGroup": "Lake Union",
      "unitCount": 2,
      "severity": 0,
      "units": "E17 M17",
      "address": "4319 9th Ave Ne"
    }
  },
  {
    "id_str": "F200009241",
    "created_at": "1/26/2020 8:17:23 PM",
    "derived": {
      "lat": 47.617661,
      "long": -122.316892,
      "timestamp": 1580098643000,
      "description": "Medic Response",
      "entries": 3,
      "neighborhood": "Capitol Hill",
      "neighborhoodGroup": "East",
      "unitCount": 3,
      "severity": 0,
      "units": "A25 E13 M10",
      "address": "1806 12TH AVE"
    }
  },
  {
    "id_str": "F200009240",
    "created_at": "1/26/2020 8:12:53 PM",
    "derived": {
      "lat": 47.611207,
      "long": -122.337592,
      "timestamp": 1580098373000,
      "description": "Aid Response",
      "entries": 1,
      "neighborhood": "Downtown Commercial Core",
      "neighborhoodGroup": "Downtown",
      "unitCount": 1,
      "severity": 0,
      "units": "A5",
      "address": "4th Ave / Pine St"
    }
  },
  {
    "id_str": "F200009239",
    "created_at": "1/26/2020 7:58:22 PM",
    "derived": {
      "lat": 47.613308,
      "long": -122.342432,
      "timestamp": 1580097502000,
      "description": "Aid Response",
      "entries": 1,
      "neighborhood": "Cascade/Eastlake",
      "neighborhoodGroup": "Lake Union",
      "unitCount": 1,
      "severity": 0,
      "units": "A4",
      "address": "2119 3rd Av"
    }
  },
  {
    "id_str": "F200009238",
    "created_at": "1/26/2020 7:55:46 PM",
    "derived": {
      "lat": 47.619068,
      "long": -122.293501,
      "timestamp": 1580097346000,
      "description": "Aid Response Yellow",
      "entries": 1,
      "neighborhood": "Central Area/Squire Park",
      "neighborhoodGroup": "Central",
      "unitCount": 1,
      "severity": 0,
      "units": "E34",
      "address": "115 30th Ave E"
    }
  },
  {
    "id_str": "F200009235",
    "created_at": "1/26/2020 7:47:26 PM",
    "derived": {
      "lat": 47.613471,
      "long": -122.328902,
      "timestamp": 1580096846000,
      "description": "Aid Response",
      "entries": 1,
      "neighborhood": "First Hill",
      "neighborhoodGroup": "East",
      "unitCount": 1,
      "severity": 0,
      "units": "A5",
      "address": "1101 PIKE ST"
    }
  },
  {
    "id_str": "F200009234",
    "created_at": "1/26/2020 7:43:20 PM",
    "derived": {
      "lat": 47.623277,
      "long": -122.35672,
      "timestamp": 1580096600000,
      "description": "Natural Gas Leak",
      "entries": 1,
      "neighborhood": "Queen Anne",
      "neighborhoodGroup": "Magnolia/Queen Anne",
      "unitCount": 3,
      "severity": 0,
      "units": "B2 E8 L6",
      "address": "Queen Anne Ave N / Republican St"
    }
  },
  {
    "id_str": "F200009232",
    "created_at": "1/26/2020 7:24:17 PM",
    "derived": {
      "lat": 47.666844,
      "long": -122.331782,
      "timestamp": 1580095457000,
      "description": "Medic Response",
      "entries": 2,
      "neighborhood": "Green Lake",
      "neighborhoodGroup": "Northwest",
      "unitCount": 2,
      "severity": 0,
      "units": "L9 M17",
      "address": "5326 Keystone Pl N"
    }
  },
  {
    "id_str": "F200009230",
    "created_at": "1/26/2020 7:20:24 PM",
    "derived": {
      "lat": 47.726864,
      "long": -122.348012,
      "timestamp": 1580095224000,
      "description": "Medic Response",
      "entries": 2,
      "neighborhood": "Broadview/Bitter Lake",
      "neighborhoodGroup": "Northwest",
      "unitCount": 2,
      "severity": 0,
      "units": "E24 M31",
      "address": "747 N 135th St"
    }
  },
  {
    "id_str": "F200009231",
    "created_at": "1/26/2020 7:19:49 PM",
    "derived": {
      "lat": 47.621347,
      "long": -122.360652,
      "timestamp": 1580095189000,
      "description": "Electrical Problem",
      "entries": 1,
      "neighborhood": "Queen Anne",
      "neighborhoodGroup": "Magnolia/Queen Anne",
      "unitCount": 1,
      "severity": 0,
      "units": "E8",
      "address": "330 3rd Av W"
    }
  },
  {
    "id_str": "F200009229",
    "created_at": "1/26/2020 7:17:40 PM",
    "derived": {
      "lat": 47.663381,
      "long": -122.311961,
      "timestamp": 1580095060000,
      "description": "Aid Response",
      "entries": 1,
      "neighborhood": "University District",
      "neighborhoodGroup": "Northeast",
      "unitCount": 1,
      "severity": 0,
      "units": "E31",
      "address": "4750 15th Av Ne"
    }
  },
  {
    "id_str": "F200009228",
    "created_at": "1/26/2020 7:16:29 PM",
    "derived": {
      "lat": 47.612606,
      "long": -122.345213,
      "timestamp": 1580094989000,
      "description": "Auto Fire Alarm",
      "entries": 1,
      "neighborhood": "Belltown",
      "neighborhoodGroup": "Downtown",
      "unitCount": 2,
      "severity": 0,
      "units": "E2 L4",
      "address": "2201 1st Av"
    }
  },
  {
    "id_str": "F200009227",
    "created_at": "1/26/2020 7:15:12 PM",
    "derived": {
      "lat": 47.61842,
      "long": -122.30365,
      "timestamp": 1580094912000,
      "description": "Aid Response",
      "entries": 1,
      "neighborhood": "Central Area/Squire Park",
      "neighborhoodGroup": "Central",
      "unitCount": 1,
      "severity": 0,
      "units": "E25",
      "address": "2200 E Madison St"
    }
  },
  {
    "id_str": "F200009224",
    "created_at": "1/26/2020 7:09:24 PM",
    "derived": {
      "lat": 47.619948,
      "long": -122.31534,
      "timestamp": 1580094564000,
      "description": "Aid Response",
      "entries": 1,
      "neighborhood": "Capitol Hill",
      "neighborhoodGroup": "East",
      "unitCount": 1,
      "severity": 0,
      "units": "A25",
      "address": "1321 E John St"
    }
  },
  {
    "id_str": "F200009223",
    "created_at": "1/26/2020 7:07:39 PM",
    "derived": {
      "lat": 47.607266,
      "long": -122.332451,
      "timestamp": 1580094459000,
      "description": "Aid Response",
      "entries": 1,
      "neighborhood": "Downtown Commercial Core",
      "neighborhoodGroup": "Downtown",
      "unitCount": 1,
      "severity": 0,
      "units": "A5",
      "address": "1100 5th Av"
    }
  },
  {
    "id_str": "F200009222",
    "created_at": "1/26/2020 7:04:23 PM",
    "derived": {
      "lat": 47.700416,
      "long": -122.323025,
      "timestamp": 1580094263000,
      "description": "Aid Response",
      "entries": 1,
      "neighborhood": "Northgate/Maple Leaf",
      "neighborhoodGroup": "North",
      "unitCount": 1,
      "severity": 0,
      "units": "E40",
      "address": "510 Ne 98th St"
    }
  },
  {
    "id_str": "F200009220",
    "created_at": "1/26/2020 7:00:54 PM",
    "derived": {
      "lat": 47.687351,
      "long": -122.33436,
      "timestamp": 1580094054000,
      "description": "1RED 1 Unit",
      "entries": 1,
      "neighborhood": "Green Lake",
      "neighborhoodGroup": "Northwest",
      "unitCount": 1,
      "severity": 0,
      "units": "E16",
      "address": "8050 Stroud Ave N"
    }
  },
  {
    "id_str": "F200009219",
    "created_at": "1/26/2020 6:59:24 PM",
    "derived": {
      "lat": 47.653219,
      "long": -122.370905,
      "timestamp": 1580093964000,
      "description": "Aid Response",
      "entries": 1,
      "neighborhood": "Queen Anne",
      "neighborhoodGroup": "Magnolia/Queen Anne",
      "unitCount": 1,
      "severity": 0,
      "units": "E20",
      "address": "1014 W Emerson St"
    }
  },
  {
    "id_str": "F200009217",
    "created_at": "1/26/2020 6:48:12 PM",
    "derived": {
      "lat": 47.571408,
      "long": -122.325986,
      "timestamp": 1580093292000,
      "description": "MVI - Motor Vehicle Incident",
      "entries": 1,
      "neighborhood": "Duwamish/SODO",
      "neighborhoodGroup": "Greater Duwamish",
      "unitCount": 1,
      "severity": 0,
      "units": "R1",
      "address": "S Spokane St / 6th Ave S"
    }
  },
  {
    "id_str": "F200009216",
    "created_at": "1/26/2020 6:44:53 PM",
    "derived": {
      "lat": 47.708657,
      "long": -122.332982,
      "timestamp": 1580093093000,
      "description": "Aid Response",
      "entries": 2,
      "neighborhood": "Northgate/Maple Leaf",
      "neighborhoodGroup": "North",
      "unitCount": 2,
      "severity": 0,
      "units": "A31 M31",
      "address": "2137 N Northgate Way"
    }
  },
  {
    "id_str": "F200009214",
    "created_at": "1/26/2020 6:36:49 PM",
    "derived": {
      "lat": 47.622112,
      "long": -122.326586,
      "timestamp": 1580092609000,
      "description": "Aid Response",
      "entries": 1,
      "neighborhood": "Capitol Hill",
      "neighborhoodGroup": "East",
      "unitCount": 1,
      "severity": 0,
      "units": "A25",
      "address": "412 Bellevue Av E"
    }
  },
  {
    "id_str": "F200009212",
    "created_at": "1/26/2020 6:31:10 PM",
    "derived": {
      "lat": 47.608979,
      "long": -122.337089,
      "timestamp": 1580092270000,
      "description": "Medic Response",
      "entries": 2,
      "neighborhood": "Downtown Commercial Core",
      "neighborhoodGroup": "Downtown",
      "unitCount": 3,
      "severity": 0,
      "units": "A10 A5 M17",
      "address": "1423 3rd Av"
    }
  },
  {
    "id_str": "F200009211",
    "created_at": "1/26/2020 6:28:56 PM",
    "derived": {
      "lat": 47.612958,
      "long": -122.337873,
      "timestamp": 1580092136000,
      "description": "Aid Response",
      "entries": 1,
      "neighborhood": "Cascade/Eastlake",
      "neighborhoodGroup": "Lake Union",
      "unitCount": 1,
      "severity": 0,
      "units": "A2",
      "address": "1900 5th Av"
    }
  },
  {
    "id_str": "F200009210",
    "created_at": "1/26/2020 6:28:35 PM",
    "derived": {
      "lat": 47.54554,
      "long": -122.263848,
      "timestamp": 1580092115000,
      "description": "Medic Response",
      "entries": 2,
      "neighborhood": "Seward Park",
      "neighborhoodGroup": "Southeast",
      "unitCount": 2,
      "severity": 0,
      "units": "E28 M28",
      "address": "6317 Wilson Ave S"
    }
  },
  {
    "id_str": "F200009209",
    "created_at": "1/26/2020 6:27:49 PM",
    "derived": {
      "lat": 47.611672,
      "long": -122.336484,
      "timestamp": 1580092069000,
      "description": "Aid Response",
      "entries": 1,
      "neighborhood": "Downtown Commercial Core",
      "neighborhoodGroup": "Downtown",
      "unitCount": 1,
      "severity": 0,
      "units": "A4",
      "address": "500 Pine St"
    }
  },
  {
    "id_str": "F200009208",
    "created_at": "1/26/2020 6:22:43 PM",
    "derived": {
      "lat": 47.620479,
      "long": -122.294787,
      "timestamp": 1580091763000,
      "description": "Auto Fire Alarm",
      "entries": 1,
      "neighborhood": "Central Area/Squire Park",
      "neighborhoodGroup": "Central",
      "unitCount": 2,
      "severity": 0,
      "units": "E34 L10",
      "address": "227 29th Ave E"
    }
  },
  {
    "id_str": "F200009207",
    "created_at": "1/26/2020 6:21:20 PM",
    "derived": {
      "lat": 47.593311,
      "long": -122.296431,
      "timestamp": 1580091680000,
      "description": "Automatic Fire Alarm Resd",
      "entries": 1,
      "neighborhood": "Madrona/Leschi",
      "neighborhoodGroup": "Central",
      "unitCount": 1,
      "severity": 0,
      "units": "E6",
      "address": "2814 S Norman St"
    }
  },
  {
    "id_str": "F200009204",
    "created_at": "1/26/2020 6:07:10 PM",
    "derived": {
      "lat": 47.571853,
      "long": -122.293193,
      "timestamp": 1580090830000,
      "description": "Aid Response",
      "entries": 1,
      "neighborhood": "Columbia City",
      "neighborhoodGroup": "Southeast",
      "unitCount": 1,
      "severity": 0,
      "units": "E30",
      "address": "3501 Rainier Av S"
    }
  },
  {
    "id_str": "F200009203",
    "created_at": "1/26/2020 6:05:58 PM",
    "derived": {
      "lat": 47.576766,
      "long": -122.386721,
      "timestamp": 1580090758000,
      "description": "Aid Response",
      "entries": 1,
      "neighborhood": "West Seattle Junction/Genesee Hill",
      "neighborhoodGroup": "Southwest",
      "unitCount": 1,
      "severity": 0,
      "units": "E29",
      "address": "3033 California Av Sw"
    }
  },
  {
    "id_str": "F200009201",
    "created_at": "1/26/2020 5:59:36 PM",
    "derived": {
      "lat": 47.723656,
      "long": -122.355548,
      "timestamp": 1580090376000,
      "description": "1RED 1 Unit",
      "entries": 1,
      "neighborhood": "Broadview/Bitter Lake",
      "neighborhoodGroup": "Northwest",
      "unitCount": 1,
      "severity": 0,
      "units": "E24",
      "address": "13047 Greenwood Av N"
    }
  },
  {
    "id_str": "F200009200",
    "created_at": "1/26/2020 5:56:47 PM",
    "derived": {
      "lat": 47.588437,
      "long": -122.315855,
      "timestamp": 1580090207000,
      "description": "Medic Response",
      "entries": 2,
      "neighborhood": "North Beacon Hill/Jefferson Park",
      "neighborhoodGroup": "Greater Duwamish",
      "unitCount": 2,
      "severity": 0,
      "units": "E13 M1",
      "address": "1311 S Massachusetts St"
    }
  },
  {
    "id_str": "F200009199",
    "created_at": "1/26/2020 5:55:06 PM",
    "derived": {
      "lat": 47.608682,
      "long": -122.341421,
      "timestamp": 1580090106000,
      "description": "Medic Response",
      "entries": 1,
      "neighborhood": "Downtown Commercial Core",
      "neighborhoodGroup": "Downtown",
      "unitCount": 2,
      "severity": 0,
      "units": "A4 M10",
      "address": "1533 Western Av"
    }
  },
  {
    "id_str": "F200009196",
    "created_at": "1/26/2020 5:54:02 PM",
    "derived": {
      "lat": 47.602985,
      "long": -122.328535,
      "timestamp": 1580090042000,
      "description": "Aid Response",
      "entries": 1,
      "neighborhood": "First Hill",
      "neighborhoodGroup": "East",
      "unitCount": 1,
      "severity": 0,
      "units": "A5",
      "address": "500 5th Av"
    }
  },
  {
    "id_str": "F200009195",
    "created_at": "1/26/2020 5:51:38 PM",
    "derived": {
      "lat": 47.623222,
      "long": -122.333001,
      "timestamp": 1580089898000,
      "description": "Aid Response",
      "entries": 2,
      "neighborhood": "Cascade/Eastlake",
      "neighborhoodGroup": "Lake Union",
      "unitCount": 2,
      "severity": 0,
      "units": "A25 E25",
      "address": "510 Minor Av N"
    }
  },
  {
    "id_str": "F200009193",
    "created_at": "1/26/2020 5:45:08 PM",
    "derived": {
      "lat": 47.610972,
      "long": -122.340465,
      "timestamp": 1580089508000,
      "description": "Medic Response",
      "entries": 1,
      "neighborhood": "Belltown",
      "neighborhoodGroup": "Downtown",
      "unitCount": 2,
      "severity": 0,
      "units": "E2 M10",
      "address": "1902 2nd Av"
    }
  },
  {
    "id_str": "F200009192",
    "created_at": "1/26/2020 5:42:25 PM",
    "derived": {
      "lat": 47.663106,
      "long": -122.315263,
      "timestamp": 1580089345000,
      "description": "Auto Fire Alarm",
      "entries": 1,
      "neighborhood": "University District",
      "neighborhoodGroup": "Northeast",
      "unitCount": 2,
      "severity": 0,
      "units": "E17 L9",
      "address": "4700 12th Av Ne"
    }
  },
  {
    "id_str": "F200009191",
    "created_at": "1/26/2020 5:36:45 PM",
    "derived": {
      "lat": 47.608051,
      "long": -122.339309,
      "timestamp": 1580089005000,
      "description": "Aid Response",
      "entries": 1,
      "neighborhood": "Downtown Commercial Core",
      "neighborhoodGroup": "Downtown",
      "unitCount": 1,
      "severity": 0,
      "units": "E5",
      "address": "1423 1st Av"
    }
  },
  {
    "id_str": "F200009190",
    "created_at": "1/26/2020 5:36:19 PM",
    "derived": {
      "lat": 47.626215,
      "long": -122.329199,
      "timestamp": 1580088979000,
      "description": "Rescue Elevator",
      "entries": 1,
      "neighborhood": "Cascade/Eastlake",
      "neighborhoodGroup": "Lake Union",
      "unitCount": 1,
      "severity": 0,
      "units": "L4",
      "address": "825 Eastlake Av E"
    }
  },
  {
    "id_str": "F200009188",
    "created_at": "1/26/2020 5:29:51 PM",
    "derived": {
      "lat": 47.618823,
      "long": -122.330413,
      "timestamp": 1580088591000,
      "description": "Aid Response",
      "entries": 1,
      "neighborhood": "Cascade/Eastlake",
      "neighborhoodGroup": "Lake Union",
      "unitCount": 1,
      "severity": 0,
      "units": "A25",
      "address": "111 Yale Av N"
    }
  },